%time,field.header.seq,field.header.stamp,field.pose.position.x,field.pose.position.y,field.pose.position.z,field.pose.orientation.x,field.pose.orientation.y,field.pose.orientation.z,field.pose.orientation.w
1624163922514910083,2,1624163922514473915,0.0006669408790003217,-0.0007763327525935892,-0.0001855491949527277,0.0,0.0,0.0,1.0
1624163922514910083,2,1624163922514473915,0.0006669408790003217,-0.0007763327525935892,-0.0001855491949527277,0.0,0.0,0.0,1.0
1624163922565229904,3,1624163922564599037,0.0003833787889107043,-0.0009620899209039635,-0.00015101103010550787,0.0,0.0,0.0,1.0
1624163922565229904,3,1624163922564599037,0.0003833787889107043,-0.0009620899209039635,-0.00015101103010550787,0.0,0.0,0.0,1.0
1624163922617464010,4,1624163922616959095,0.000716339082828199,-0.00042993470833607716,-0.00011660849691708108,0.0,0.0,0.0,1.0
1624163922617464010,4,1624163922616959095,0.000716339082828199,-0.00042993470833607716,-0.00011660849691708108,0.0,0.0,0.0,1.0
1624163922667047969,5,1624163922666551113,0.00040569664565737185,-0.000571450534835094,0.00029963215577311075,0.0,0.0,0.0,1.0
1624163922667047969,5,1624163922666551113,0.00040569664565737185,-0.000571450534835094,0.00029963215577311075,0.0,0.0,0.0,1.0
1624163922711242762,6,1624163922710787057,0.0002302477196280961,-0.00043286743812132045,4.290013546892624e-05,0.0,0.0,0.0,1.0
1624163922711242762,6,1624163922710787057,0.0002302477196280961,-0.00043286743812132045,4.290013546892624e-05,0.0,0.0,0.0,1.0
1624163922764486298,7,1624163922764203071,0.00020847185282946157,1.5785155937919626e-06,-0.00013899587460386442,0.0,0.0,0.0,1.0
1624163922764486298,7,1624163922764203071,0.00020847185282946157,1.5785155937919626e-06,-0.00013899587460386442,0.0,0.0,0.0,1.0
1624163922815310836,8,1624163922814834117,-0.00012683953127634595,-0.00037996496439518523,-0.0001520024109780138,0.0,0.0,0.0,1.0
1624163922815310836,8,1624163922814834117,-0.00012683953127634595,-0.00037996496439518523,-0.0001520024109780138,0.0,0.0,0.0,1.0
1624163922869010034,9,1624163922868786096,0.00018418728632241255,0.0002617216305225156,-6.937084496172474e-05,0.0,0.0,0.0,1.0
1624163922869010034,9,1624163922868786096,0.00018418728632241255,0.0002617216305225156,-6.937084496172474e-05,0.0,0.0,0.0,1.0
1624163922915066595,10,1624163922914820909,0.00023383311395264172,0.00041426647544540174,3.804084271763486e-05,0.0,0.0,0.0,1.0
1624163922915066595,10,1624163922914820909,0.00023383311395264172,0.00041426647544540174,3.804084271763486e-05,0.0,0.0,0.0,1.0
1624163922965289665,11,1624163922965030908,-0.0001119221230965195,-8.706516473466763e-05,-6.34687859637495e-05,0.0,0.0,0.0,1.0
1624163922965289665,11,1624163922965030908,-0.0001119221230965195,-8.706516473466763e-05,-6.34687859637495e-05,0.0,0.0,0.0,1.0
1624163923014507606,12,1624163923014249086,1.5358586779257166e-05,-0.00020741273124258441,-0.00016226160947852009,0.0,0.0,0.0,1.0
1624163923014507606,12,1624163923014249086,1.5358586779257166e-05,-0.00020741273124258441,-0.00016226160947852009,0.0,0.0,0.0,1.0
1624163923067448715,13,1624163923066991090,0.00027330433931638254,-5.7527932312950725e-05,-0.00018792170121528784,0.0,0.0,0.0,1.0
1624163923067448715,13,1624163923066991090,0.00027330433931638254,-5.7527932312950725e-05,-0.00018792170121528784,0.0,0.0,0.0,1.0
1624163923115141627,14,1624163923114702939,0.0002872924706025515,-5.341487667465117e-05,-0.00017005596019004088,0.0,0.0,0.0,1.0
1624163923115141627,14,1624163923114702939,0.0002872924706025515,-5.341487667465117e-05,-0.00017005596019004088,0.0,0.0,0.0,1.0
1624163923166628978,15,1624163923166126012,0.0003907023472038418,-0.00024248336308119178,-0.00020878403780599797,0.0,0.0,0.0,1.0
1624163923166628978,15,1624163923166126012,0.0003907023472038418,-0.00024248336308119178,-0.00020878403780599797,0.0,0.0,0.0,1.0
1624163923213662304,16,1624163923213171958,0.000496817455996279,-0.0001322191305916931,5.716909943132009e-05,0.0,0.0,0.0,1.0
1624163923213662304,16,1624163923213171958,0.000496817455996279,-0.0001322191305916931,5.716909943132009e-05,0.0,0.0,0.0,1.0
1624163923267273337,17,1624163923266860961,0.00043584240484051406,-0.00020165759451629128,5.4885481187483265e-05,0.0,0.0,0.0,1.0
1624163923267273337,17,1624163923266860961,0.00043584240484051406,-0.00020165759451629128,5.4885481187483265e-05,0.0,0.0,0.0,1.0
1624163923313708562,18,1624163923313101053,2.8854922220489243e-06,-0.00022949112781134318,-0.0003976224451314181,0.0,0.0,0.0,1.0
1624163923313708562,18,1624163923313101053,2.8854922220489243e-06,-0.00022949112781134318,-0.0003976224451314181,0.0,0.0,0.0,1.0
1624163923366172939,19,1624163923365758895,5.867374125045899e-05,-6.623178069276037e-05,-0.00029544276059212393,0.0,0.0,0.0,1.0
1624163923366172939,19,1624163923365758895,5.867374125045899e-05,-6.623178069276037e-05,-0.00029544276059212393,0.0,0.0,0.0,1.0
1624163923419189204,20,1624163923418735027,-4.9083532985605416e-05,-0.0003265858015311096,-9.747798480574943e-05,0.0,0.0,0.0,1.0
1624163923419189204,20,1624163923418735027,-4.9083532985605416e-05,-0.0003265858015311096,-9.747798480574943e-05,0.0,0.0,0.0,1.0
1624163923467307635,21,1624163923466823101,0.00010671034851839067,-4.7257283085855306e-05,-0.00024120817050743426,0.0,0.0,0.0,1.0
1624163923467307635,21,1624163923466823101,0.00010671034851839067,-4.7257283085855306e-05,-0.00024120817050743426,0.0,0.0,0.0,1.0
1624163923513133708,22,1624163923512559890,4.531018362285977e-05,-0.00023153938559516973,0.00017077794188935513,0.0,0.0,0.0,1.0
1624163923513133708,22,1624163923512559890,4.531018362285977e-05,-0.00023153938559516973,0.00017077794188935513,0.0,0.0,0.0,1.0
1624163923559326577,23,1624163923558900117,9.927485120897472e-05,-0.00030860588253744936,0.00012964000541870746,0.0,0.0,0.0,1.0
1624163923559326577,23,1624163923558900117,9.927485120897472e-05,-0.00030860588253744936,0.00012964000541870746,0.0,0.0,0.0,1.0
1624163923615251724,24,1624163923614761114,0.0001845341819262103,-0.00035372859042581695,9.509575740906939e-05,0.0,0.0,0.0,1.0
1624163923615251724,24,1624163923614761114,0.0001845341819262103,-0.00035372859042581695,9.509575740906939e-05,0.0,0.0,0.0,1.0
1624163923669614906,25,1624163923668773889,-0.0002336059937988466,-0.0008457781407287257,0.00010274353561001703,0.0,0.0,0.0,1.0
1624163923669614906,25,1624163923668773889,-0.0002336059937988466,-0.0008457781407287257,0.00010274353561001703,0.0,0.0,0.0,1.0
1624163923710443640,26,1624163923709990024,0.00017216164042110904,-0.0007682879488584149,-5.699317783935953e-05,0.0,0.0,0.0,1.0
1624163923710443640,26,1624163923709990024,0.00017216164042110904,-0.0007682879488584149,-5.699317783935953e-05,0.0,0.0,0.0,1.0
1624163923758593350,27,1624163923758086919,0.0002603156153782038,-0.00034372284403616504,-0.0005294517765932483,0.0,0.0,0.0,1.0
1624163923758593350,27,1624163923758086919,0.0002603156153782038,-0.00034372284403616504,-0.0005294517765932483,0.0,0.0,0.0,1.0
1624163923812345273,28,1624163923811919927,0.000597797195041494,-0.0004859389448483853,9.478097958037779e-06,0.0,0.0,0.0,1.0
1624163923812345273,28,1624163923811919927,0.000597797195041494,-0.0004859389448483853,9.478097958037779e-06,0.0,0.0,0.0,1.0
1624163923858927979,29,1624163923858068943,0.0006073933327570558,-0.0007554382009402616,0.0001749425619799183,0.0,0.0,0.0,1.0
1624163923858927979,29,1624163923858068943,0.0006073933327570558,-0.0007554382009402616,0.0001749425619799183,0.0,0.0,0.0,1.0
1624163923914868101,30,1624163923914371967,0.000617313343582282,-0.000548512807199586,-0.00011179349611367684,0.0,0.0,0.0,1.0
1624163923914868101,30,1624163923914371967,0.000617313343582282,-0.000548512807199586,-0.00011179349611367684,0.0,0.0,0.0,1.0
1624163923968231979,31,1624163923967329025,0.0005848467462783447,-0.0007249878237871599,-0.00015472820706108337,0.0,0.0,0.0,1.0
1624163923968231979,31,1624163923967329025,0.0005848467462783447,-0.0007249878237871599,-0.00015472820706108337,0.0,0.0,0.0,1.0
1624163924009831967,32,1624163924009185075,0.0005167826982415136,-0.0006683362801140902,-0.00010772138838888168,0.0,0.0,0.0,1.0
1624163924009831967,32,1624163924009185075,0.0005167826982415136,-0.0006683362801140902,-0.00010772138838888168,0.0,0.0,0.0,1.0
1624163924066822135,33,1624163924066309928,0.0004460305888187577,-0.0005956756770046923,-8.880280873313495e-05,0.0,0.0,0.0,1.0
1624163924066822135,33,1624163924066309928,0.0004460305888187577,-0.0005956756770046923,-8.880280873313495e-05,0.0,0.0,0.0,1.0
1624163924111629331,34,1624163924111216068,0.0007145757758735272,-0.00043301260120642837,-0.0001151044400771184,0.0,0.0,0.0,1.0
1624163924111629331,34,1624163924111216068,0.0007145757758735272,-0.00043301260120642837,-0.0001151044400771184,0.0,0.0,0.0,1.0
1624163924161547397,35,1624163924160903930,0.00038294456976473157,-0.0005399040369411523,-3.1998453703607765e-05,0.0,0.0,0.0,1.0
1624163924161547397,35,1624163924160903930,0.00038294456976473157,-0.0005399040369411523,-3.1998453703607765e-05,0.0,0.0,0.0,1.0
1624163924210810236,36,1624163924210088014,0.0001790376775261393,-0.00035686346950569714,9.03043955595706e-05,0.0,0.0,0.0,1.0
1624163924210810236,36,1624163924210088014,0.0001790376775261393,-0.00035686346950569714,9.03043955595706e-05,0.0,0.0,0.0,1.0
1624163924266830486,37,1624163924266593933,0.0005093234829018911,0.00016557301091779664,0.00013440750986148942,0.0,0.0,0.0,1.0
1624163924266830486,37,1624163924266593933,0.0005093234829018911,0.00016557301091779664,0.00013440750986148942,0.0,0.0,0.0,1.0
1624163924312742455,38,1624163924312483072,7.822068005225447e-05,-0.00012048421149302158,6.402868298849285e-05,0.0,0.0,0.0,1.0
1624163924312742455,38,1624163924312483072,7.822068005225447e-05,-0.00012048421149302158,6.402868298849285e-05,0.0,0.0,0.0,1.0
1624163924364163234,39,1624163924363909006,0.00014618671275457018,7.224064574984368e-05,-0.00010267622006665533,0.0,0.0,0.0,1.0
1624163924364163234,39,1624163924363909006,0.00014618671275457018,7.224064574984368e-05,-0.00010267622006665533,0.0,0.0,0.0,1.0
1624163924413265177,40,1624163924412955045,9.624988206269336e-05,-0.0003147193797303771,0.0001334433207560437,0.0,0.0,0.0,1.0
1624163924413265177,40,1624163924412955045,9.624988206269336e-05,-0.0003147193797303771,0.0001334433207560437,0.0,0.0,0.0,1.0
1624163924467509897,41,1624163924466993093,0.0002428884088203631,-8.899720569388592e-06,0.00018164308823287456,0.0,0.0,0.0,1.0
1624163924467509897,41,1624163924466993093,0.0002428884088203631,-8.899720569388592e-06,0.00018164308823287456,0.0,0.0,0.0,1.0
1624163924515478047,42,1624163924515230894,6.706271324219415e-05,-0.0003775983136620198,-0.00031705199996068245,0.0,0.0,0.0,1.0
1624163924515478047,42,1624163924515230894,6.706271324219415e-05,-0.0003775983136620198,-0.00031705199996068245,0.0,0.0,0.0,1.0
1624163924613744265,44,1624163924613418102,0.00040453160568176827,-0.0005164575329672516,-2.9521940049903606e-05,0.0,0.0,0.0,1.0
1624163924613744265,44,1624163924613418102,0.00040453160568176827,-0.0005164575329672516,-2.9521940049903606e-05,0.0,0.0,0.0,1.0
1624163924666378525,45,1624163924666115999,0.00047940969966475677,-0.0006277541256167751,0.00026176743348926834,0.0,0.0,0.0,1.0
1624163924666378525,45,1624163924666115999,0.00047940969966475677,-0.0006277541256167751,0.00026176743348926834,0.0,0.0,0.0,1.0
1624163924714114484,46,1624163924713553905,0.0005361794214877591,-0.0006970686422391736,0.00021404567126026564,0.0,0.0,0.0,1.0
1624163924714114484,46,1624163924713553905,0.0005361794214877591,-0.0006970686422391736,0.00021404567126026564,0.0,0.0,0.0,1.0
1624163924766730922,47,1624163924766063928,0.00016982076499516552,-0.0007887315086918534,-3.0989818444737693e-05,0.0,0.0,0.0,1.0
1624163924766730922,47,1624163924766063928,0.00016982076499516552,-0.0007887315086918534,-3.0989818444737693e-05,0.0,0.0,0.0,1.0
1624163924811353601,48,1624163924810709953,0.0005385242441207083,-0.000689181268626271,0.00020647670569928778,0.0,0.0,0.0,1.0
1624163924811353601,48,1624163924810709953,0.0005385242441207083,-0.000689181268626271,0.00020647670569928778,0.0,0.0,0.0,1.0
1624163924868846464,49,1624163924867938995,0.00020313051913944946,-0.0004117128573852824,-0.0002809343506591233,0.0,0.0,0.0,1.0
1624163924868846464,49,1624163924867938995,0.00020313051913944946,-0.0004117128573852824,-0.0002809343506591233,0.0,0.0,0.0,1.0
1624163924946940727,50,1624163924946342945,-5.3013231763543445e-05,-0.0005687942900749476,-0.00024163008614053183,0.0,0.0,0.0,1.0
1624163924946940727,50,1624163924946342945,-5.3013231763543445e-05,-0.0005687942900749476,-0.00024163008614053183,0.0,0.0,0.0,1.0
1624163924988551386,51,1624163924987855911,0.0002325527541415795,-0.00042888889356618165,4.0999908659244966e-05,0.0,0.0,0.0,1.0
1624163924988551386,51,1624163924987855911,0.0002325527541415795,-0.00042888889356618165,4.0999908659244966e-05,0.0,0.0,0.0,1.0
1624163925031349849,52,1624163925030714988,4.5633850731974235e-05,-0.000657491894571649,5.710425872607061e-05,0.0,0.0,0.0,1.0
1624163925031349849,52,1624163925030714988,4.5633850731974235e-05,-0.000657491894571649,5.710425872607061e-05,0.0,0.0,0.0,1.0
1624163925102503440,53,1624163925101794958,0.00028946872066626383,-8.744565434426477e-05,0.00013005806869870185,0.0,0.0,0.0,1.0
1624163925102503440,53,1624163925101794958,0.00028946872066626383,-8.744565434426477e-05,0.00013005806869870185,0.0,0.0,0.0,1.0
1624163925175235359,54,1624163925174819946,0.00034951272937178146,-0.0004923173225961364,0.0003339447506647275,0.0,0.0,0.0,1.0
1624163925175235359,54,1624163925174819946,0.00034951272937178146,-0.0004923173225961364,0.0003339447506647275,0.0,0.0,0.0,1.0
1624163925212642424,55,1624163925212397098,0.00016219385065596725,-0.0003816303988060099,9.787072165323707e-05,0.0,0.0,0.0,1.0
1624163925212642424,55,1624163925212397098,0.00016219385065596725,-0.0003816303988060099,9.787072165323707e-05,0.0,0.0,0.0,1.0
1624163925265872553,56,1624163925265630006,0.0002633128456182021,-6.344777921185596e-05,-0.00019630662993463943,0.0,0.0,0.0,1.0
1624163925265872553,56,1624163925265630006,0.0002633128456182021,-6.344777921185596e-05,-0.00019630662993463943,0.0,0.0,0.0,1.0
1624163925309642110,57,1624163925309343099,0.000341493734595133,-0.00011239542027396965,-0.0002373324847191327,0.0,0.0,0.0,1.0
1624163925309642110,57,1624163925309343099,0.000341493734595133,-0.00011239542027396965,-0.0002373324847191327,0.0,0.0,0.0,1.0
1624163925357215629,58,1624163925356669902,0.0005859161713033245,-0.00030013724767741223,-3.705326951219945e-05,0.0,0.0,0.0,1.0
1624163925357215629,58,1624163925356669902,0.0005859161713033245,-0.00030013724767741223,-3.705326951219945e-05,0.0,0.0,0.0,1.0
1624163925414312261,59,1624163925413892030,0.00033499240862511215,-0.00046532904934792896,2.3069906752937186e-05,0.0,0.0,0.0,1.0
1624163925414312261,59,1624163925413892030,0.00033499240862511215,-0.00046532904934792896,2.3069906752937186e-05,0.0,0.0,0.0,1.0
1624163925469184351,60,1624163925468420982,0.00022087993693276076,-0.0005107745562327182,-0.00010522279556468561,0.0,0.0,0.0,1.0
1624163925469184351,60,1624163925468420982,0.00022087993693276076,-0.0005107745562327182,-0.00010522279556468561,0.0,0.0,0.0,1.0
1624163925515467845,61,1624163925514588117,0.0004174366133611329,-0.0005354448041998694,0.0002668500931122253,0.0,0.0,0.0,1.0
1624163925515467845,61,1624163925514588117,0.0004174366133611329,-0.0005354448041998694,0.0002668500931122253,0.0,0.0,0.0,1.0
1624163925565449249,62,1624163925564977884,0.00022163644280226436,-0.000731523951571944,-2.6409058804688357e-05,0.0,0.0,0.0,1.0
1624163925565449249,62,1624163925564977884,0.00022163644280226436,-0.000731523951571944,-2.6409058804688357e-05,0.0,0.0,0.0,1.0
1624163925616114703,63,1624163925615561008,0.0003572700786662608,-0.00010217475369245221,-0.00022537458743343564,0.0,0.0,0.0,1.0
1624163925616114703,63,1624163925615561008,0.0003572700786662608,-0.00010217475369245221,-0.00022537458743343564,0.0,0.0,0.0,1.0
1624163925659037033,64,1624163925657955884,0.00011796011881415325,-0.0007129716502731753,1.566071183844997e-05,0.0,0.0,0.0,1.0
1624163925659037033,64,1624163925657955884,0.00011796011881415325,-0.0007129716502731753,1.566071183844997e-05,0.0,0.0,0.0,1.0
1624163925716900870,65,1624163925716351032,0.00011089661370533577,-0.0002932913837412343,0.00012702297015465547,0.0,0.0,0.0,1.0
1624163925716900870,65,1624163925716351032,0.00011089661370533577,-0.0002932913837412343,0.00012702297015465547,0.0,0.0,0.0,1.0
1624163925766145320,66,1624163925765664100,-0.0001659012427808193,-0.0004765157682413701,0.0001694022399405526,0.0,0.0,0.0,1.0
1624163925766145320,66,1624163925765664100,-0.0001659012427808193,-0.0004765157682413701,0.0001694022399405526,0.0,0.0,0.0,1.0
1624163925813456695,67,1624163925812638998,0.00021484713988684234,-0.0003765137503251026,0.00042678785786520734,0.0,0.0,0.0,1.0
1624163925813456695,67,1624163925812638998,0.00021484713988684234,-0.0003765137503251026,0.00042678785786520734,0.0,0.0,0.0,1.0
1624163925867084760,68,1624163925866722106,2.340816035939497e-05,-0.00019624503329396248,-0.00016489668761110465,0.0,0.0,0.0,1.0
1624163925867084760,68,1624163925866722106,2.340816035939497e-05,-0.00019624503329396248,-0.00016489668761110465,0.0,0.0,0.0,1.0
1624163925908762351,69,1624163925908430099,-8.878416088009544e-05,-0.00013768630265076354,-0.0004425408511181672,0.0,0.0,0.0,1.0
1624163925908762351,69,1624163925908430099,-8.878416088009544e-05,-0.00013768630265076354,-0.0004425408511181672,0.0,0.0,0.0,1.0
1624163925966439031,70,1624163925966166973,0.000278418340258213,-0.00043379872363402683,0.00037303335766125656,0.0,0.0,0.0,1.0
1624163925966439031,70,1624163925966166973,0.000278418340258213,-0.00043379872363402683,0.00037303335766125656,0.0,0.0,0.0,1.0
1624163926017651978,71,1624163926016773939,0.0001852811055869097,-0.000355476444838132,9.893722680587302e-05,0.0,0.0,0.0,1.0
1624163926017651978,71,1624163926016773939,0.0001852811055869097,-0.000355476444838132,9.893722680587302e-05,0.0,0.0,0.0,1.0
1624163926069747407,72,1624163926069267034,-4.926287965645315e-05,-0.00015325174854297074,-0.00010571732796194055,0.0,0.0,0.0,1.0
1624163926069747407,72,1624163926069267034,-4.926287965645315e-05,-0.00015325174854297074,-0.00010571732796194055,0.0,0.0,0.0,1.0
1624163926109003128,73,1624163926108253002,6.933902500350086e-05,-0.0002782837934773852,-0.0004589145211042478,0.0,0.0,0.0,1.0
1624163926109003128,73,1624163926108253002,6.933902500350086e-05,-0.0002782837934773852,-0.0004589145211042478,0.0,0.0,0.0,1.0
1624163926158545170,74,1624163926158091068,-0.00043076504357486556,-0.0005583996899076737,-0.0004094524534075106,0.0,0.0,0.0,1.0
1624163926158545170,74,1624163926158091068,-0.00043076504357486556,-0.0005583996899076737,-0.0004094524534075106,0.0,0.0,0.0,1.0
1624163926214753012,75,1624163926214526891,0.00011883012302860152,-0.0002898169504987891,0.00013548022509013435,0.0,0.0,0.0,1.0
1624163926214753012,75,1624163926214526891,0.00011883012302860152,-0.0002898169504987891,0.00013548022509013435,0.0,0.0,0.0,1.0
1624163926270181521,76,1624163926269401073,-0.0003261257509166171,-0.0002755811647148221,-0.00039926737192885753,0.0,0.0,0.0,1.0
1624163926270181521,76,1624163926269401073,-0.0003261257509166171,-0.0002755811647148221,-0.00039926737192885753,0.0,0.0,0.0,1.0
1624163926311304509,77,1624163926311080932,0.00019360415649316565,4.544453645394242e-05,-0.00047522665959576216,0.0,0.0,0.0,1.0
1624163926311304509,77,1624163926311080932,0.00019360415649316565,4.544453645394242e-05,-0.00047522665959576216,0.0,0.0,0.0,1.0
1624163926362938984,78,1624163926362545013,-0.000296209996122343,-9.652974586060736e-05,-0.0003644738639607681,0.0,0.0,0.0,1.0
1624163926362938984,78,1624163926362545013,-0.000296209996122343,-9.652974586060736e-05,-0.0003644738639607681,0.0,0.0,0.0,1.0
1624163926414496888,79,1624163926413881063,-5.6377474038527e-05,-0.00015484520713471284,-0.00011553567304645185,0.0,0.0,0.0,1.0
1624163926414496888,79,1624163926413881063,-5.6377474038527e-05,-0.00015484520713471284,-0.00011553567304645185,0.0,0.0,0.0,1.0
1624163926460362940,80,1624163926459825038,0.00010870450000766141,-0.0003025326257102279,0.00013683972408173872,0.0,0.0,0.0,1.0
1624163926460362940,80,1624163926459825038,0.00010870450000766141,-0.0003025326257102279,0.00013683972408173872,0.0,0.0,0.0,1.0
1624163926515964122,81,1624163926515250921,-0.00014306017374110525,-6.590178463738994e-05,-0.0003941832433618231,0.0,0.0,0.0,1.0
1624163926515964122,81,1624163926515250921,-0.00014306017374110525,-6.590178463738994e-05,-0.0003941832433618231,0.0,0.0,0.0,1.0
1624163926559603415,82,1624163926558923959,0.00023448047022611718,-7.03679879734409e-05,-0.0004818667789372455,0.0,0.0,0.0,1.0
1624163926559603415,82,1624163926558923959,0.00023448047022611718,-7.03679879734409e-05,-0.0004818667789372455,0.0,0.0,0.0,1.0
1624163926611217421,83,1624163926610580921,0.0002833531696069258,-4.360069146969181e-05,-0.00019119029492031814,0.0,0.0,0.0,1.0
1624163926611217421,83,1624163926610580921,0.0002833531696069258,-4.360069146969181e-05,-0.00019119029492031814,0.0,0.0,0.0,1.0
1624163926662600594,84,1624163926662103891,0.00014981941308178648,-0.00019994672129541868,-0.00018991255802092155,0.0,0.0,0.0,1.0
1624163926662600594,84,1624163926662103891,0.00014981941308178648,-0.00019994672129541868,-0.00018991255802092155,0.0,0.0,0.0,1.0
1624163926760289757,86,1624163926759967088,0.0001730427270558721,-0.00016787591971478832,-0.00019729689046243948,0.0,0.0,0.0,1.0
1624163926760289757,86,1624163926759967088,0.0001730427270558721,-0.00016787591971478832,-0.00019729689046243948,0.0,0.0,0.0,1.0
1624163926807005059,87,1624163926806725978,3.204576910320611e-05,-0.0003892428910603485,-0.00011334606616131282,0.0,0.0,0.0,1.0
1624163926807005059,87,1624163926806725978,3.204576910320611e-05,-0.0003892428910603485,-0.00011334606616131282,0.0,0.0,0.0,1.0
1624163926860313757,88,1624163926860068082,0.00012247359450157091,-0.00023371407883132633,-0.0001870825564083134,0.0,0.0,0.0,1.0
1624163926860313757,88,1624163926860068082,0.00012247359450157091,-0.00023371407883132633,-0.0001870825564083134,0.0,0.0,0.0,1.0
1624163926913908756,89,1624163926913543939,0.0002430923091196746,-0.00042763794795064314,5.71734363319365e-05,0.0,0.0,0.0,1.0
1624163926913908756,89,1624163926913543939,0.0002430923091196746,-0.00042763794795064314,5.71734363319365e-05,0.0,0.0,0.0,1.0
1624163926961039111,90,1624163926960768938,0.0001882473140994989,-0.00034805258906089875,9.311041728210512e-05,0.0,0.0,0.0,1.0
1624163926961039111,90,1624163926960768938,0.0001882473140994989,-0.00034805258906089875,9.311041728210512e-05,0.0,0.0,0.0,1.0
1624163927008572251,91,1624163927008083105,0.0001760569534781098,-0.00035880249606634607,8.805682415413685e-05,0.0,0.0,0.0,1.0
1624163927008572251,91,1624163927008083105,0.0001760569534781098,-0.00035880249606634607,8.805682415413685e-05,0.0,0.0,0.0,1.0
1624163927058681968,92,1624163927058216094,4.419948663780815e-05,-0.0006584740440302994,5.6094723600352836e-05,0.0,0.0,0.0,1.0
1624163927058681968,92,1624163927058216094,4.419948663780815e-05,-0.0006584740440302994,5.6094723600352836e-05,0.0,0.0,0.0,1.0
1624163927110562396,93,1624163927109967947,0.0001625936647542403,-0.00033215453368029557,0.0002723964557596048,0.0,0.0,0.0,1.0
1624163927110562396,93,1624163927109967947,0.0001625936647542403,-0.00033215453368029557,0.0002723964557596048,0.0,0.0,0.0,1.0
1624163927168392820,94,1624163927168122053,-2.8736185868183384e-05,-0.0006003370103826455,9.259709052500398e-05,0.0,0.0,0.0,1.0
1624163927168392820,94,1624163927168122053,-2.8736185868183384e-05,-0.0006003370103826455,9.259709052500398e-05,0.0,0.0,0.0,1.0
1624163927214138081,95,1624163927213869094,0.0002142162470590847,-0.0007923132550331502,0.000296582244470045,0.0,0.0,0.0,1.0
1624163927214138081,95,1624163927213869094,0.0002142162470590847,-0.0007923132550331502,0.000296582244470045,0.0,0.0,0.0,1.0
1624163927265487185,96,1624163927265245914,0.00019106159606963047,-0.0007656242398752511,-2.8607399464419814e-05,0.0,0.0,0.0,1.0
1624163927265487185,96,1624163927265245914,0.00019106159606963047,-0.0007656242398752511,-2.8607399464419814e-05,0.0,0.0,0.0,1.0
1624163927309249564,97,1624163927308937072,0.00021347562187656877,-0.0008020005489015603,0.0003095341133274587,0.0,0.0,0.0,1.0
1624163927309249564,97,1624163927308937072,0.00021347562187656877,-0.0008020005489015603,0.0003095341133274587,0.0,0.0,0.0,1.0
1624163927364330907,98,1624163927363964080,0.00026254134900227655,-0.0008731074117349635,0.0002512787551260942,0.0,0.0,0.0,1.0
1624163927364330907,98,1624163927363964080,0.00026254134900227655,-0.0008731074117349635,0.0002512787551260942,0.0,0.0,0.0,1.0
1624163927408008405,99,1624163927407757043,0.0006099655540765525,-0.000754601626567819,0.0001781101125573059,0.0,0.0,0.0,1.0
1624163927408008405,99,1624163927407757043,0.0006099655540765525,-0.000754601626567819,0.0001781101125573059,0.0,0.0,0.0,1.0
1624163927463831930,100,1624163927463310003,0.00029940926083327213,-0.00047946240101737203,-0.00026344257059918164,0.0,0.0,0.0,1.0
1624163927463831930,100,1624163927463310003,0.00029940926083327213,-0.00047946240101737203,-0.00026344257059918164,0.0,0.0,0.0,1.0
1624163927513921278,101,1624163927513663053,0.0001868943943463819,-0.0009059069018348964,0.00017015421525456986,0.0,0.0,0.0,1.0
1624163927513921278,101,1624163927513663053,0.0001868943943463819,-0.0009059069018348964,0.00017015421525456986,0.0,0.0,0.0,1.0
1624163927560051511,102,1624163927559710979,0.0003443999644332507,-0.0007325932162984827,0.00043138860515767874,0.0,0.0,0.0,1.0
1624163927560051511,102,1624163927559710979,0.0003443999644332507,-0.0007325932162984827,0.00043138860515767874,0.0,0.0,0.0,1.0
1624163927618396986,103,1624163927617897987,0.00023354988206847338,-0.000812390638202487,0.0001126296132945015,0.0,0.0,0.0,1.0
1624163927618396986,103,1624163927617897987,0.00023354988206847338,-0.000812390638202487,0.0001126296132945015,0.0,0.0,0.0,1.0
1624163927668251837,104,1624163927667798995,0.00022153910731503856,-0.0005853486186424561,5.349003746601966e-06,0.0,0.0,0.0,1.0
1624163927668251837,104,1624163927667798995,0.00022153910731503856,-0.0005853486186424561,5.349003746601966e-06,0.0,0.0,0.0,1.0
1624163927716072439,105,1624163927715240001,0.0005239240374521614,-0.0005530103883302218,-1.8318382849713544e-05,0.0,0.0,0.0,1.0
1624163927716072439,105,1624163927715240001,0.0005239240374521614,-0.0005530103883302218,-1.8318382849713544e-05,0.0,0.0,0.0,1.0
1624163927761996824,106,1624163927761308908,0.0007107553383320919,-0.0008250967619005678,0.00045379881009210976,0.0,0.0,0.0,1.0
1624163927761996824,106,1624163927761308908,0.0007107553383320919,-0.0008250967619005678,0.00045379881009210976,0.0,0.0,0.0,1.0
1624163927815429355,107,1624163927813927888,0.00024300897189277748,-0.0008282696553578717,-0.00034080885627574276,0.0,0.0,0.0,1.0
1624163927815429355,107,1624163927813927888,0.00024300897189277748,-0.0008282696553578717,-0.00034080885627574276,0.0,0.0,0.0,1.0
1624163927886759173,108,1624163927886394977,0.0007236275982904772,-0.00042886095047833805,-0.00010573006327518897,0.0,0.0,0.0,1.0
1624163927886759173,108,1624163927886394977,0.0007236275982904772,-0.00042886095047833805,-0.00010573006327518897,0.0,0.0,0.0,1.0
1624163927931404269,109,1624163927931196928,0.0002706578795823589,-0.0008643935077543574,0.0002523591227188149,0.0,0.0,0.0,1.0
1624163927931404269,109,1624163927931196928,0.0002706578795823589,-0.0008643935077543574,0.0002523591227188149,0.0,0.0,0.0,1.0
1624163927973271718,110,1624163927972924947,0.0006860242206130351,-0.0003882392297782644,0.00026330712604050177,0.0,0.0,0.0,1.0
1624163927973271718,110,1624163927972924947,0.0006860242206130351,-0.0003882392297782644,0.00026330712604050177,0.0,0.0,0.0,1.0
1624163928018122020,111,1624163928017560005,0.0002063625240680267,-0.00040468755582878657,-0.00028572200529453085,0.0,0.0,0.0,1.0
1624163928018122020,111,1624163928017560005,0.0002063625240680267,-0.00040468755582878657,-0.00028572200529453085,0.0,0.0,0.0,1.0
1624163928058698855,112,1624163928058399915,0.00036634863363360637,-0.000142015773235471,9.506070784226495e-05,0.0,0.0,0.0,1.0
1624163928058698855,112,1624163928058399915,0.00036634863363360637,-0.000142015773235471,9.506070784226495e-05,0.0,0.0,0.0,1.0
1624163928114301679,113,1624163928114037990,0.00023100657108443556,-0.0004395107284835831,5.394656989210489e-05,0.0,0.0,0.0,1.0
1624163928114301679,113,1624163928114037990,0.00023100657108443556,-0.0004395107284835831,5.394656989210489e-05,0.0,0.0,0.0,1.0
1624163928164538603,114,1624163928164246082,3.424974306653894e-05,-0.00024474511269545474,0.00017125928060579554,0.0,0.0,0.0,1.0
1624163928164538603,114,1624163928164246082,3.424974306653894e-05,-0.00024474511269545474,0.00017125928060579554,0.0,0.0,0.0,1.0
1624163928213836439,115,1624163928213562965,0.00014044273348190472,7.464882128260797e-05,-0.00011602533820109784,0.0,0.0,0.0,1.0
1624163928213836439,115,1624163928213562965,0.00014044273348190472,7.464882128260797e-05,-0.00011602533820109784,0.0,0.0,0.0,1.0
1624163928267610845,116,1624163928267179965,0.00024042418885983352,-3.616568619690952e-06,0.00016967878942253378,0.0,0.0,0.0,1.0
1624163928267610845,116,1624163928267179965,0.00024042418885983352,-3.616568619690952e-06,0.00016967878942253378,0.0,0.0,0.0,1.0
1624163928314560538,117,1624163928314085006,0.00019402682983127306,-0.00039973871025722474,0.0004252963450142033,0.0,0.0,0.0,1.0
1624163928314560538,117,1624163928314085006,0.00019402682983127306,-0.00039973871025722474,0.0004252963450142033,0.0,0.0,0.0,1.0
1624163928364217527,118,1624163928363504886,0.0003739185196991457,-0.00012962956884621235,8.981778956140829e-05,0.0,0.0,0.0,1.0
1624163928364217527,118,1624163928363504886,0.0003739185196991457,-0.00012962956884621235,8.981778956140829e-05,0.0,0.0,0.0,1.0
1624163928408376478,119,1624163928408114910,0.00026794584096023755,-0.00039718436391922296,5.494791670912491e-05,0.0,0.0,0.0,1.0
1624163928408376478,119,1624163928408114910,0.00026794584096023755,-0.00039718436391922296,5.494791670912491e-05,0.0,0.0,0.0,1.0
1624163928459210141,120,1624163928458975076,2.0946212316630408e-05,-0.0006511610292818659,-0.00024082366721245307,0.0,0.0,0.0,1.0
1624163928459210141,120,1624163928458975076,2.0946212316630408e-05,-0.0006511610292818659,-0.00024082366721245307,0.0,0.0,0.0,1.0
1624163928508873719,121,1624163928508670091,9.106462289310002e-05,-0.0007387453117644327,7.529203102762949e-06,0.0,0.0,0.0,1.0
1624163928508873719,121,1624163928508670091,9.106462289310002e-05,-0.0007387453117644327,7.529203102762949e-06,0.0,0.0,0.0,1.0
1624163928558071085,122,1624163928557801008,0.00023627004020454478,-0.0004307626022637123,5.0101676634994874e-05,0.0,0.0,0.0,1.0
1624163928558071085,122,1624163928557801008,0.00023627004020454478,-0.0004307626022637123,5.0101676634994874e-05,0.0,0.0,0.0,1.0
1624163928612052149,123,1624163928611649036,0.00029501027415790304,-0.000506392561874236,1.5015717909960813e-05,0.0,0.0,0.0,1.0
1624163928612052149,123,1624163928611649036,0.00029501027415790304,-0.000506392561874236,1.5015717909960813e-05,0.0,0.0,0.0,1.0
1624163928659633540,124,1624163928659199953,0.0008027950136693107,-0.0005150603594756831,0.0011418935429574617,0.0,0.0,0.0,1.0
1624163928659633540,124,1624163928659199953,0.0008027950136693107,-0.0005150603594756831,0.0011418935429574617,0.0,0.0,0.0,1.0
1624163928709110099,125,1624163928708533048,0.00017305568371739355,-0.00032885158930184843,-0.00020747959651146175,0.0,0.0,0.0,1.0
1624163928709110099,125,1624163928708533048,0.00017305568371739355,-0.00032885158930184843,-0.00020747959651146175,0.0,0.0,0.0,1.0
1624163928759337047,126,1624163928758707046,0.0004375072153379733,0.00022815170791545825,0.0001663040121329118,0.0,0.0,0.0,1.0
1624163928759337047,126,1624163928758707046,0.0004375072153379733,0.00022815170791545825,0.0001663040121329118,0.0,0.0,0.0,1.0
1624163928810677730,127,1624163928810256958,0.0005840607716436352,5.465583762997994e-05,0.0004248986826915768,0.0,0.0,0.0,1.0
1624163928810677730,127,1624163928810256958,0.0005840607716436352,5.465583762997994e-05,0.0004248986826915768,0.0,0.0,0.0,1.0
1624163928866912454,128,1624163928866210937,0.0001364984127576463,6.98446208389214e-05,-0.00011571457378067862,0.0,0.0,0.0,1.0
1624163928866912454,128,1624163928866210937,0.0001364984127576463,6.98446208389214e-05,-0.00011571457378067862,0.0,0.0,0.0,1.0
1624163928917084259,129,1624163928916383028,0.0001734224911160709,-3.298251158412313e-05,-0.0001481646939467396,0.0,0.0,0.0,1.0
1624163928917084259,129,1624163928916383028,0.0001734224911160709,-3.298251158412313e-05,-0.0001481646939467396,0.0,0.0,0.0,1.0
1624163929007848941,130,1624163929007447957,0.0002971196381622576,0.0003581195430797379,-0.0007572150858159432,0.0,0.0,0.0,1.0
1624163929007848941,130,1624163929007447957,0.0002971196381622576,0.0003581195430797379,-0.0007572150858159432,0.0,0.0,0.0,1.0
1624163929049331163,131,1624163929048649072,8.567317195229407e-05,-0.0003276913942045212,0.00013440825243904442,0.0,0.0,0.0,1.0
1624163929049331163,131,1624163929048649072,8.567317195229407e-05,-0.0003276913942045212,0.00013440825243904442,0.0,0.0,0.0,1.0
1624163929091735019,132,1624163929091080904,0.00039861477443992044,0.0002574760869720194,-0.0004360905137374971,0.0,0.0,0.0,1.0
1624163929091735019,132,1624163929091080904,0.00039861477443992044,0.0002574760869720194,-0.0004360905137374971,0.0,0.0,0.0,1.0
1624163929129748747,133,1624163929129179954,0.0001703972563973366,-0.000367224675073885,9.074629503658116e-05,0.0,0.0,0.0,1.0
1624163929129748747,133,1624163929129179954,0.0001703972563973366,-0.000367224675073885,9.074629503658116e-05,0.0,0.0,0.0,1.0
1624163929176993487,134,1624163929176322937,0.0004229255744121474,-0.0001620106681912148,-0.0002718235603431651,0.0,0.0,0.0,1.0
1624163929176993487,134,1624163929176322937,0.0004229255744121474,-0.0001620106681912148,-0.0002718235603431651,0.0,0.0,0.0,1.0
1624163929218674463,135,1624163929217926025,0.00024830356869642856,-0.00012204924792058591,-0.00013595089454199183,0.0,0.0,0.0,1.0
1624163929218674463,135,1624163929217926025,0.00024830356869642856,-0.00012204924792058591,-0.00013595089454199183,0.0,0.0,0.0,1.0
1624163929267203067,136,1624163929266522884,7.750762938485423e-05,-0.0002824403125032404,-0.00019240698674494183,0.0,0.0,0.0,1.0
1624163929267203067,136,1624163929266522884,7.750762938485423e-05,-0.0002824403125032404,-0.00019240698674494183,0.0,0.0,0.0,1.0
1624163929316333042,137,1624163929315902948,-9.850663809629623e-05,-0.000542138069477005,0.00013441713860018467,0.0,0.0,0.0,1.0
1624163929316333042,137,1624163929315902948,-9.850663809629623e-05,-0.000542138069477005,0.00013441713860018467,0.0,0.0,0.0,1.0
1624163929359789146,138,1624163929359061956,0.00017020295445036027,-0.000373778941366254,0.00010003338104525028,0.0,0.0,0.0,1.0
1624163929359789146,138,1624163929359061956,0.00017020295445036027,-0.000373778941366254,0.00010003338104525028,0.0,0.0,0.0,1.0
1624163929415188760,139,1624163929414768934,7.438985994667746e-05,-0.00034139205990868504,0.00013523516728142226,0.0,0.0,0.0,1.0
1624163929415188760,139,1624163929414768934,7.438985994667746e-05,-0.00034139205990868504,0.00013523516728142226,0.0,0.0,0.0,1.0
1624163929468401516,140,1624163929468116998,3.29042270550417e-05,-0.00024808708985801786,0.0001738648482145777,0.0,0.0,0.0,1.0
1624163929468401516,140,1624163929468116998,3.29042270550417e-05,-0.00024808708985801786,0.0001738648482145777,0.0,0.0,0.0,1.0
1624163929514348612,141,1624163929514039993,4.783451913681347e-05,-0.0002789374232179398,0.0004911081746499235,0.0,0.0,0.0,1.0
1624163929514348612,141,1624163929514039993,4.783451913681347e-05,-0.0002789374232179398,0.0004911081746499235,0.0,0.0,0.0,1.0
1624163929567034567,142,1624163929566714048,0.0001261796630842582,-0.00033506805561955844,0.0004609047780519404,0.0,0.0,0.0,1.0
1624163929567034567,142,1624163929566714048,0.0001261796630842582,-0.00033506805561955844,0.0004609047780519404,0.0,0.0,0.0,1.0
1624163929614731075,143,1624163929614255905,0.00023846174076425086,-1.3933832860857365e-05,0.0001814670613740077,0.0,0.0,0.0,1.0
1624163929614731075,143,1624163929614255905,0.00023846174076425086,-1.3933832860857365e-05,0.0001814670613740077,0.0,0.0,0.0,1.0
1624163929667946114,144,1624163929667318105,0.0001656208039548801,-0.00037120702199899824,8.842907543638034e-05,0.0,0.0,0.0,1.0
1624163929667946114,144,1624163929667318105,0.0001656208039548801,-0.00037120702199899824,8.842907543638034e-05,0.0,0.0,0.0,1.0
1624163929709248228,145,1624163929708782911,0.00042624123034329386,-0.00020363892190289334,4.1387237043721825e-05,0.0,0.0,0.0,1.0
1624163929709248228,145,1624163929708782911,0.00042624123034329386,-0.00020363892190289334,4.1387237043721825e-05,0.0,0.0,0.0,1.0
1624163929767919516,146,1624163929766808032,8.41256660351064e-05,-0.0007090523095030221,0.000198548161307599,0.0,0.0,0.0,1.0
1624163929767919516,146,1624163929766808032,8.41256660351064e-05,-0.0007090523095030221,0.000198548161307599,0.0,0.0,0.0,1.0
1624163929815126673,147,1624163929814702987,0.00019843715813294693,-0.00036995470509282313,-0.00010378677636779798,0.0,0.0,0.0,1.0
1624163929815126673,147,1624163929814702987,0.00019843715813294693,-0.00036995470509282313,-0.00010378677636779798,0.0,0.0,0.0,1.0
1624163929867909876,148,1624163929867281913,0.0004687066684709862,-0.00028435125977921416,-1.4049623676015699e-05,0.0,0.0,0.0,1.0
1624163929867909876,148,1624163929867281913,0.0004687066684709862,-0.00028435125977921416,-1.4049623676015699e-05,0.0,0.0,0.0,1.0
1624163929910067398,149,1624163929909526109,6.963975215512619e-05,-0.000343411295716578,0.00013008189185725882,0.0,0.0,0.0,1.0
1624163929910067398,149,1624163929909526109,6.963975215512619e-05,-0.000343411295716578,0.00013008189185725882,0.0,0.0,0.0,1.0
1624163929965121517,150,1624163929964854001,0.00021567514932030463,-0.0004551162587631552,5.065188469188797e-05,0.0,0.0,0.0,1.0
1624163929965121517,150,1624163929964854001,0.00021567514932030463,-0.0004551162587631552,5.065188469188797e-05,0.0,0.0,0.0,1.0
1624163930014129034,151,1624163930013855934,0.00015725463549642882,-0.0003878961326790886,9.862650457037603e-05,0.0,0.0,0.0,1.0
1624163930014129034,151,1624163930013855934,0.00015725463549642882,-0.0003878961326790886,9.862650457037603e-05,0.0,0.0,0.0,1.0
1624163930068744799,152,1624163930068363904,0.00016770101319707464,-0.00040660219997334934,0.00039038470047714213,0.0,0.0,0.0,1.0
1624163930068744799,152,1624163930068363904,0.00016770101319707464,-0.00040660219997334934,0.00039038470047714213,0.0,0.0,0.0,1.0
1624163930115929745,153,1624163930115411043,0.0004709339209512109,-0.0002225606610863906,0.00039198090384218176,0.0,0.0,0.0,1.0
1624163930115929745,153,1624163930115411043,0.0004709339209512109,-0.0002225606610863906,0.00039198090384218176,0.0,0.0,0.0,1.0
1624163930168095787,154,1624163930167341947,0.0005354920042464073,0.00011060923702643777,-0.00023311720578433892,0.0,0.0,0.0,1.0
1624163930168095787,154,1624163930167341947,0.0005354920042464073,0.00011060923702643777,-0.00023311720578433892,0.0,0.0,0.0,1.0
1624163930214324499,155,1624163930213896036,0.0004950128611653781,0.00015321503360610222,0.00012809052798345988,0.0,0.0,0.0,1.0
1624163930214324499,155,1624163930213896036,0.0004950128611653781,0.00015321503360610222,0.00012809052798345988,0.0,0.0,0.0,1.0
1624163930263851900,156,1624163930263166904,0.0003223511671421875,-5.280540017338353e-05,0.00013540806281397977,0.0,0.0,0.0,1.0
1624163930263851900,156,1624163930263166904,0.0003223511671421875,-5.280540017338353e-05,0.00013540806281397977,0.0,0.0,0.0,1.0
1624163930314159810,157,1624163930313658952,0.0006995374058078596,0.00034758449328364804,0.00043877556089100267,0.0,0.0,0.0,1.0
1624163930314159810,157,1624163930313658952,0.0006995374058078596,0.00034758449328364804,0.00043877556089100267,0.0,0.0,0.0,1.0
1624163930365402019,158,1624163930365163087,0.00048187755305661994,-0.00024317551878993982,0.00019448038031910642,0.0,0.0,0.0,1.0
1624163930365402019,158,1624163930365163087,0.00048187755305661994,-0.00024317551878993982,0.00019448038031910642,0.0,0.0,0.0,1.0
1624163930416796346,159,1624163930416425943,0.00025732281574164517,-0.0004629536174434179,0.00037977450404369506,0.0,0.0,0.0,1.0
1624163930416796346,159,1624163930416425943,0.00025732281574164517,-0.0004629536174434179,0.00037977450404369506,0.0,0.0,0.0,1.0
1624163930467062961,160,1624163930466824054,0.00020239474656591483,3.137348585369182e-06,-0.00015166774030106467,0.0,0.0,0.0,1.0
1624163930467062961,160,1624163930466824054,0.00020239474656591483,3.137348585369182e-06,-0.00015166774030106467,0.0,0.0,0.0,1.0
1624163930514871596,161,1624163930513995885,0.00030104815368758864,-2.9585519541797112e-05,-0.00018152268384952208,0.0,0.0,0.0,1.0
1624163930514871596,161,1624163930513995885,0.00030104815368758864,-2.9585519541797112e-05,-0.00018152268384952208,0.0,0.0,0.0,1.0
1624163930566293603,162,1624163930565773963,0.00014244283670450386,7.066224338814209e-05,-0.00010675707098073417,0.0,0.0,0.0,1.0
1624163930566293603,162,1624163930565773963,0.00014244283670450386,7.066224338814209e-05,-0.00010675707098073417,0.0,0.0,0.0,1.0
1624163930614890660,163,1624163930614272117,0.00020614411437236413,1.1510875538078835e-05,-0.00015754990455008056,0.0,0.0,0.0,1.0
1624163930614890660,163,1624163930614272117,0.00020614411437236413,1.1510875538078835e-05,-0.00015754990455008056,0.0,0.0,0.0,1.0
1624163930667699609,164,1624163930667058944,0.00012379896952552372,-0.00014790746558901446,0.00018215681024358332,0.0,0.0,0.0,1.0
1624163930667699609,164,1624163930667058944,0.00012379896952552372,-0.00014790746558901446,0.00018215681024358332,0.0,0.0,0.0,1.0
1624163930716439661,165,1624163930715415000,0.0001531130642433709,7.883680336817633e-05,-0.00010052132938298541,0.0,0.0,0.0,1.0
1624163930716439661,165,1624163930715415000,0.0001531130642433709,7.883680336817633e-05,-0.00010052132938298541,0.0,0.0,0.0,1.0
1624163930768391292,166,1624163930767672061,-9.257593524125696e-05,-0.000164920019415149,-0.00040905242639155404,0.0,0.0,0.0,1.0
1624163930768391292,166,1624163930767672061,-9.257593524125696e-05,-0.000164920019415149,-0.00040905242639155404,0.0,0.0,0.0,1.0
1624163930815101939,167,1624163930814471960,0.00022891019398230128,-2.959850712613843e-05,0.00018813529625560932,0.0,0.0,0.0,1.0
1624163930815101939,167,1624163930814471960,0.00022891019398230128,-2.959850712613843e-05,0.00018813529625560932,0.0,0.0,0.0,1.0
1624163930867918529,168,1624163930867465019,-1.6447404050268233e-05,-0.000642956772026082,0.0004226001034126625,0.0,0.0,0.0,1.0
1624163930867918529,168,1624163930867465019,-1.6447404050268233e-05,-0.000642956772026082,0.0004226001034126625,0.0,0.0,0.0,1.0
1624163930916475518,169,1624163930914499998,0.00022409200551010144,-0.00044674456421489595,5.274777537422892e-05,0.0,0.0,0.0,1.0
1624163930916475518,169,1624163930914499998,0.00022409200551010144,-0.00044674456421489595,5.274777537422892e-05,0.0,0.0,0.0,1.0
1624163930966044957,170,1624163930965557098,0.00042239459207848995,-0.0006024508247719496,0.0006201196641448803,0.0,0.0,0.0,1.0
1624163930966044957,170,1624163930965557098,0.00042239459207848995,-0.0006024508247719496,0.0006201196641448803,0.0,0.0,0.0,1.0
1624163931016329666,171,1624163931015964984,0.00016820496102809557,-0.00037837019385733583,0.00010335748032019865,0.0,0.0,0.0,1.0
1624163931016329666,171,1624163931015964984,0.00016820496102809557,-0.00037837019385733583,0.00010335748032019865,0.0,0.0,0.0,1.0
1624163931066906317,172,1624163931066685914,3.512438138386642e-05,-0.00047358013353004935,-0.00023076360865204038,0.0,0.0,0.0,1.0
1624163931066906317,172,1624163931066685914,3.512438138386642e-05,-0.00047358013353004935,-0.00023076360865204038,0.0,0.0,0.0,1.0
1624163931166987380,174,1624163931166508913,0.00013328201544027252,-0.0003487425835828617,-0.00024625006013678785,0.0,0.0,0.0,1.0
1624163931166987380,174,1624163931166508913,0.00013328201544027252,-0.0003487425835828617,-0.00024625006013678785,0.0,0.0,0.0,1.0
1624163931215316427,175,1624163931214809894,0.00011762353051381069,-0.0002913743992394302,0.00013570418738240164,0.0,0.0,0.0,1.0
1624163931215316427,175,1624163931214809894,0.00011762353051381069,-0.0002913743992394302,0.00013570418738240164,0.0,0.0,0.0,1.0
1624163931263384807,176,1624163931262907028,0.00016626281490061956,-0.00037066040977151715,8.872389617309295e-05,0.0,0.0,0.0,1.0
1624163931263384807,176,1624163931262907028,0.00016626281490061956,-0.00037066040977151715,8.872389617309295e-05,0.0,0.0,0.0,1.0
1624163931315149287,177,1624163931314707040,0.00015539281753262912,-0.00038196516243260703,8.674078427262089e-05,0.0,0.0,0.0,1.0
1624163931315149287,177,1624163931314707040,0.00015539281753262912,-0.00038196516243260703,8.674078427262089e-05,0.0,0.0,0.0,1.0
1624163931364915790,178,1624163931364483118,0.00024102040606521768,-0.0004204341446438775,4.306071793536148e-05,0.0,0.0,0.0,1.0
1624163931364915790,178,1624163931364483118,0.00024102040606521768,-0.0004204341446438775,4.306071793536148e-05,0.0,0.0,0.0,1.0
1624163931415009863,179,1624163931414716958,-0.0001621078358766681,-0.0008927109454361926,4.734118147453614e-05,0.0,0.0,0.0,1.0
1624163931415009863,179,1624163931414716958,-0.0001621078358766681,-0.0008927109454361926,4.734118147453614e-05,0.0,0.0,0.0,1.0
1624163931465753261,180,1624163931465447902,-0.00014231066370484768,-0.0005338917371773277,-0.00019898639279958275,0.0,0.0,0.0,1.0
1624163931465753261,180,1624163931465447902,-0.00014231066370484768,-0.0005338917371773277,-0.00019898639279958275,0.0,0.0,0.0,1.0
1624163931514744877,181,1624163931514461040,-0.00033262553142776596,-0.0008153784153819288,0.0001353836528359409,0.0,0.0,0.0,1.0
1624163931514744877,181,1624163931514461040,-0.00033262553142776596,-0.0008153784153819288,0.0001353836528359409,0.0,0.0,0.0,1.0
1624163931567342113,182,1624163931567121982,-0.00020384951722007827,-0.0004614236308952968,-0.00016404229691246996,0.0,0.0,0.0,1.0
1624163931567342113,182,1624163931567121982,-0.00020384951722007827,-0.0004614236308952968,-0.00016404229691246996,0.0,0.0,0.0,1.0
1624163931617333791,183,1624163931616846084,6.011349341861205e-06,-0.00032198579924624937,-0.00025653771826839034,0.0,0.0,0.0,1.0
1624163931617333791,183,1624163931616846084,6.011349341861205e-06,-0.00032198579924624937,-0.00025653771826839034,0.0,0.0,0.0,1.0
1624163931667929656,184,1624163931667304992,0.00018739877782536496,-2.008995625146781e-05,-0.0001432038606914432,0.0,0.0,0.0,1.0
1624163931667929656,184,1624163931667304992,0.00018739877782536496,-2.008995625146781e-05,-0.0001432038606914432,0.0,0.0,0.0,1.0
1624163931714862825,185,1624163931714144945,0.00017461982042732416,-0.00038214630717448017,0.00011986071952918564,0.0,0.0,0.0,1.0
1624163931714862825,185,1624163931714144945,0.00017461982042732416,-0.00038214630717448017,0.00011986071952918564,0.0,0.0,0.0,1.0
1624163931766316663,186,1624163931765853881,0.0002940189328910492,-0.0002714068261866487,0.00040781676401380196,0.0,0.0,0.0,1.0
1624163931766316663,186,1624163931765853881,0.0002940189328910492,-0.0002714068261866487,0.00040781676401380196,0.0,0.0,0.0,1.0
1624163931816231159,187,1624163931815259933,6.790153747715522e-06,-0.0002809385694035882,0.00017745565630278293,0.0,0.0,0.0,1.0
1624163931816231159,187,1624163931815259933,6.790153747715522e-06,-0.0002809385694035882,0.00017745565630278293,0.0,0.0,0.0,1.0
1624163931867597270,188,1624163931867110967,0.0004982128648407524,5.0680579533946e-05,-0.00020886776373174598,0.0,0.0,0.0,1.0
1624163931867597270,188,1624163931867110967,0.0004982128648407524,5.0680579533946e-05,-0.00020886776373174598,0.0,0.0,0.0,1.0
1624163931915457920,189,1624163931915004968,-0.00025868033117149025,-0.0004813625721453718,-0.00047491917749198365,0.0,0.0,0.0,1.0
1624163931915457920,189,1624163931915004968,-0.00025868033117149025,-0.0004813625721453718,-0.00047491917749198365,0.0,0.0,0.0,1.0
1624163931968342774,190,1624163931967914104,0.00015573145992675563,-0.00040481990299667814,0.0001208612860388314,0.0,0.0,0.0,1.0
1624163931968342774,190,1624163931967914104,0.00015573145992675563,-0.00040481990299667814,0.0001208612860388314,0.0,0.0,0.0,1.0
1624163932048413908,191,1624163932048187017,0.00027783038922279957,-0.00010838000957846816,0.00014089430520414226,0.0,0.0,0.0,1.0
1624163932048413908,191,1624163932048187017,0.00027783038922279957,-0.00010838000957846816,0.00014089430520414226,0.0,0.0,0.0,1.0
1624163932092162078,192,1624163932091801881,0.00038765277713537216,-0.00016364170960514457,0.00040965749318999656,0.0,0.0,0.0,1.0
1624163932092162078,192,1624163932091801881,0.00038765277713537216,-0.00016364170960514457,0.00040965749318999656,0.0,0.0,0.0,1.0
1624163932130447863,193,1624163932130099058,0.0003267751985731593,-0.0005223834161824925,0.00033921738875619667,0.0,0.0,0.0,1.0
1624163932130447863,193,1624163932130099058,0.0003267751985731593,-0.0005223834161824925,0.00033921738875619667,0.0,0.0,0.0,1.0
1624163932177549710,194,1624163932177026033,-8.707331335244817e-05,-0.0005195481005557667,0.00012080029621586164,0.0,0.0,0.0,1.0
1624163932177549710,194,1624163932177026033,-8.707331335244817e-05,-0.0005195481005557667,0.00012080029621586164,0.0,0.0,0.0,1.0
1624163932222500128,195,1624163932222199916,0.0003746758191027766,-0.00015077534294505313,0.00036859991725890495,0.0,0.0,0.0,1.0
1624163932222500128,195,1624163932222199916,0.0003746758191027766,-0.00015077534294505313,0.00036859991725890495,0.0,0.0,0.0,1.0
1624163932264110328,196,1624163932263875007,0.0003107411214386957,-0.00012419701420185447,0.00046679890442646865,0.0,0.0,0.0,1.0
1624163932264110328,196,1624163932263875007,0.0003107411214386957,-0.00012419701420185447,0.00046679890442646865,0.0,0.0,0.0,1.0
1624163932393333882,197,1624163932392647981,0.00024162843396879907,-9.330315947408963e-05,-0.00018954424393768932,0.0,0.0,0.0,1.0
1624163932393333882,197,1624163932392647981,0.00024162843396879907,-9.330315947408963e-05,-0.00018954424393768932,0.0,0.0,0.0,1.0
1624163932479067339,198,1624163932478585958,0.0006050098818377592,0.00027850538072016207,0.00013217466360515573,0.0,0.0,0.0,1.0
1624163932479067339,198,1624163932478585958,0.0006050098818377592,0.00027850538072016207,0.00013217466360515573,0.0,0.0,0.0,1.0
1624163932522862727,199,1624163932522217988,0.00021820710207975935,-0.0001709765901978244,0.00013087977050574295,0.0,0.0,0.0,1.0
1624163932522862727,199,1624163932522217988,0.00021820710207975935,-0.0001709765901978244,0.00013087977050574295,0.0,0.0,0.0,1.0
1624163932566099902,200,1624163932565423011,0.0005284096444029274,9.177814058602962e-05,0.0002753223771208013,0.0,0.0,0.0,1.0
1624163932566099902,200,1624163932565423011,0.0005284096444029274,9.177814058602962e-05,0.0002753223771208013,0.0,0.0,0.0,1.0
1624163932614366933,201,1624163932613897085,0.0005923909832290519,8.659668264954234e-05,0.00039225651395469185,0.0,0.0,0.0,1.0
1624163932614366933,201,1624163932613897085,0.0005923909832290519,8.659668264954234e-05,0.00039225651395469185,0.0,0.0,0.0,1.0
1624163932668932373,202,1624163932668469905,0.00045432677552526,0.0001654215109283541,-0.00020579773558537795,0.0,0.0,0.0,1.0
1624163932668932373,202,1624163932668469905,0.00045432677552526,0.0001654215109283541,-0.00020579773558537795,0.0,0.0,0.0,1.0
1624163932713679367,203,1624163932713216066,0.0003043779704512417,0.0002664758371793141,-0.00011742434988093464,0.0,0.0,0.0,1.0
1624163932713679367,203,1624163932713216066,0.0003043779704512417,0.0002664758371793141,-0.00011742434988093464,0.0,0.0,0.0,1.0
1624163932767165839,204,1624163932766232013,0.000882521924268076,0.0004086152232503082,0.0004154333834804902,0.0,0.0,0.0,1.0
1624163932767165839,204,1624163932766232013,0.000882521924268076,0.0004086152232503082,0.0004154333834804902,0.0,0.0,0.0,1.0
1624163932815251301,205,1624163932814681053,0.0007746120415959012,0.0002850586283784651,0.000412369485243147,0.0,0.0,0.0,1.0
1624163932815251301,205,1624163932814681053,0.0007746120415959012,0.0002850586283784651,0.000412369485243147,0.0,0.0,0.0,1.0
1624163932868816697,206,1624163932868207931,0.000615718723338432,0.0003466276737071894,-0.00019595321267473764,0.0,0.0,0.0,1.0
1624163932868816697,206,1624163932868207931,0.000615718723338432,0.0003466276737071894,-0.00019595321267473764,0.0,0.0,0.0,1.0
1624163932914148123,207,1624163932913748979,0.00041967906327045057,-0.0002731212898652302,0.0003786016529794267,0.0,0.0,0.0,1.0
1624163932914148123,207,1624163932913748979,0.00041967906327045057,-0.0002731212898652302,0.0003786016529794267,0.0,0.0,0.0,1.0
1624163932964893248,208,1624163932964298963,0.000510105530565852,-0.0004049460189889942,0.0004801332834674099,0.0,0.0,0.0,1.0
1624163932964893248,208,1624163932964298963,0.000510105530565852,-0.0004049460189889942,0.0004801332834674099,0.0,0.0,0.0,1.0
1624163933013263372,209,1624163933012636899,0.00044055136118004157,-0.00030312762442008534,0.0007047633677181864,0.0,0.0,0.0,1.0
1624163933013263372,209,1624163933012636899,0.00044055136118004157,-0.00030312762442008534,0.0007047633677181864,0.0,0.0,0.0,1.0
1624163933068705417,210,1624163933068058013,0.00023852698154769314,-0.00030377905136447225,0.000606960372838472,0.0,0.0,0.0,1.0
1624163933068705417,210,1624163933068058013,0.00023852698154769314,-0.00030377905136447225,0.000606960372838472,0.0,0.0,0.0,1.0
1624163933115689416,211,1624163933115230083,0.0003728988867806038,-0.00018204572052127332,0.00041145648896900866,0.0,0.0,0.0,1.0
1624163933115689416,211,1624163933115230083,0.0003728988867806038,-0.00018204572052127332,0.00041145648896900866,0.0,0.0,0.0,1.0
1624163933171835237,212,1624163933171258926,0.0001894338665806572,-0.0003965469222748652,0.0004127636799147183,0.0,0.0,0.0,1.0
1624163933171835237,212,1624163933171258926,0.0001894338665806572,-0.0003965469222748652,0.0004127636799147183,0.0,0.0,0.0,1.0
1624163933214331397,213,1624163933213754892,0.0003318987237435067,-0.00017721219660415954,8.784861064370375e-05,0.0,0.0,0.0,1.0
1624163933214331397,213,1624163933213754892,0.0003318987237435067,-0.00017721219660415954,8.784861064370375e-05,0.0,0.0,0.0,1.0
1624163933267902704,214,1624163933267414093,0.0001994827150610945,-0.00038539282877536607,0.00041356478250165196,0.0,0.0,0.0,1.0
1624163933267902704,214,1624163933267414093,0.0001994827150610945,-0.00038539282877536607,0.00041356478250165196,0.0,0.0,0.0,1.0
1624163933313716963,215,1624163933313222885,0.00018263657443640113,-0.0004122625882700959,0.00042421343147580615,0.0,0.0,0.0,1.0
1624163933313716963,215,1624163933313222885,0.00018263657443640113,-0.0004122625882700959,0.00042421343147580615,0.0,0.0,0.0,1.0
1624163933368424121,216,1624163933367530107,0.0001732048974645295,-0.0001814927113628073,0.00031586949890893834,0.0,0.0,0.0,1.0
1624163933368424121,216,1624163933367530107,0.0001732048974645295,-0.0001814927113628073,0.00031586949890893834,0.0,0.0,0.0,1.0
1624163933415419453,217,1624163933414743900,0.0002064492834961129,3.608445081226819e-05,0.0005462673551122066,0.0,0.0,0.0,1.0
1624163933415419453,217,1624163933414743900,0.0002064492834961129,3.608445081226819e-05,0.0005462673551122066,0.0,0.0,0.0,1.0
1624163933469280436,218,1624163933468832969,0.0001413393297298171,-0.0003186505605299317,0.0004627143806779088,0.0,0.0,0.0,1.0
1624163933469280436,218,1624163933468832969,0.0001413393297298171,-0.0003186505605299317,0.0004627143806779088,0.0,0.0,0.0,1.0
1624163933513398504,219,1624163933513132095,9.573870011081453e-05,-0.00031801077534510114,0.00013740032206044361,0.0,0.0,0.0,1.0
1624163933513398504,219,1624163933513132095,9.573870011081453e-05,-0.00031801077534510114,0.00013740032206044361,0.0,0.0,0.0,1.0
1624163933565707219,220,1624163933565368890,0.00018193804612565145,-0.0004056152383782319,0.00041326397319707553,0.0,0.0,0.0,1.0
1624163933565707219,220,1624163933565368890,0.00018193804612565145,-0.0004056152383782319,0.00041326397319707553,0.0,0.0,0.0,1.0
1624163933614179773,221,1624163933613940000,-7.34610500785493e-05,-0.0009879766430458403,0.0003386309915072161,0.0,0.0,0.0,1.0
1624163933614179773,221,1624163933613940000,-7.34610500785493e-05,-0.0009879766430458403,0.0003386309915072161,0.0,0.0,0.0,1.0
1624163933676924464,222,1624163933676440954,-7.76015826886578e-06,-0.0006308299102784076,0.0004196467030368467,0.0,0.0,0.0,1.0
1624163933676924464,222,1624163933676440954,-7.76015826886578e-06,-0.0006308299102784076,0.0004196467030368467,0.0,0.0,0.0,1.0
1624163933721147589,223,1624163933720608949,0.0002940837734968227,-0.0004702445962720958,0.0006997485949753468,0.0,0.0,0.0,1.0
1624163933721147589,223,1624163933720608949,0.0002940837734968227,-0.0004702445962720958,0.0006997485949753468,0.0,0.0,0.0,1.0
1624163933768914310,224,1624163933768656015,0.00031565581093673245,-9.670333542999288e-05,0.0004348467697923297,0.0,0.0,0.0,1.0
1624163933768914310,224,1624163933768656015,0.00031565581093673245,-9.670333542999288e-05,0.0004348467697923297,0.0,0.0,0.0,1.0
1624163933814631943,225,1624163933814331054,-0.00024447729401799734,-0.00042366530419712944,0.00020402533368013565,0.0,0.0,0.0,1.0
1624163933814631943,225,1624163933814331054,-0.00024447729401799734,-0.00042366530419712944,0.00020402533368013565,0.0,0.0,0.0,1.0
1624163933867145675,226,1624163933866906881,-0.000337540858254215,4.5953432618262013e-05,-0.0006441985858600674,0.0,0.0,0.0,1.0
1624163933867145675,226,1624163933866906881,-0.000337540858254215,4.5953432618262013e-05,-0.0006441985858600674,0.0,0.0,0.0,1.0
1624163933915046342,227,1624163933914699077,8.260870231424633e-05,0.00014163022706270567,-6.669816021442898e-05,0.0,0.0,0.0,1.0
1624163933915046342,227,1624163933914699077,8.260870231424633e-05,0.00014163022706270567,-6.669816021442898e-05,0.0,0.0,0.0,1.0
1624163933965360292,228,1624163933965003013,-6.39818244962953e-05,-0.00021604073026537662,0.00020773297070419972,0.0,0.0,0.0,1.0
1624163933965360292,228,1624163933965003013,-6.39818244962953e-05,-0.00021604073026537662,0.00020773297070419972,0.0,0.0,0.0,1.0
1624163934017888817,229,1624163934017602920,0.00023465515619136568,-0.0001616109498172591,0.0003916947366278123,0.0,0.0,0.0,1.0
1624163934017888817,229,1624163934017602920,0.00023465515619136568,-0.0001616109498172591,0.0003916947366278123,0.0,0.0,0.0,1.0
1624163934070186214,230,1624163934069464921,9.494410574006906e-05,-0.0003181179292823799,0.00013619982195223201,0.0,0.0,0.0,1.0
1624163934070186214,230,1624163934069464921,9.494410574006906e-05,-0.0003181179292823799,0.00013619982195223201,0.0,0.0,0.0,1.0
1624163934115125531,231,1624163934114691019,-0.00012216896107020148,-0.0005679698738276784,0.00013189562318771664,0.0,0.0,0.0,1.0
1624163934115125531,231,1624163934114691019,-0.00012216896107020148,-0.0005679698738276784,0.00013189562318771664,0.0,0.0,0.0,1.0
1624163934164636968,232,1624163934164118051,8.399577609452535e-06,-0.0006125009692823369,0.00042035962103526003,0.0,0.0,0.0,1.0
1624163934164636968,232,1624163934164118051,8.399577609452535e-06,-0.0006125009692823369,0.00042035962103526003,0.0,0.0,0.0,1.0
1624163934214740231,233,1624163934213840961,0.00047283063963732275,-0.00021018940378780826,0.0003770656816044493,0.0,0.0,0.0,1.0
1624163934214740231,233,1624163934213840961,0.00047283063963732275,-0.00021018940378780826,0.0003770656816044493,0.0,0.0,0.0,1.0
1624163934267349807,234,1624163934266751050,0.00028478672197707056,-0.00042999217794204014,0.00037832886252076037,0.0,0.0,0.0,1.0
1624163934267349807,234,1624163934266751050,0.00028478672197707056,-0.00042999217794204014,0.00037832886252076037,0.0,0.0,0.0,1.0
1624163934316932269,235,1624163934316246032,0.00017715137892082566,-0.0004128444836624112,0.00041569451225598186,0.0,0.0,0.0,1.0
1624163934316932269,235,1624163934316246032,0.00017715137892082566,-0.0004128444836624112,0.00041569451225598186,0.0,0.0,0.0,1.0
1624163934368586222,236,1624163934368125915,0.0003151611574594426,-0.00011229761594222509,0.00045688796545562127,0.0,0.0,0.0,1.0
1624163934368586222,236,1624163934368125915,0.0003151611574594426,-0.00011229761594222509,0.00045688796545562127,0.0,0.0,0.0,1.0
1624163934414770776,237,1624163934414139032,0.0004533323199211736,0.0001934844653987966,0.0004906776981243866,0.0,0.0,0.0,1.0
1624163934414770776,237,1624163934414139032,0.0004533323199211736,0.0001934844653987966,0.0004906776981243866,0.0,0.0,0.0,1.0
