%time,field.header.seq,field.header.stamp,field.pose.position.x,field.pose.position.y,field.pose.position.z,field.pose.orientation.x,field.pose.orientation.y,field.pose.orientation.z,field.pose.orientation.w
1609045357449438164,194,1609045357449018001,-0.00013518677181068028,-7.718981207993636e-05,-7.536920714201756e-06,0.0,0.0,0.0,0.0
1609045357494679629,195,1609045357494191884,-2.002957829105867e-05,-0.00012156478790359415,-3.3579764950886215e-05,0.0,0.0,0.0,0.0
1609045357550302456,196,1609045357549185037,1.106042477871938e-05,-3.908347236780685e-05,-4.608186136323411e-05,0.0,0.0,0.0,0.0
1609045357601879945,197,1609045357601622104,-7.712252561020705e-05,-8.682134140158837e-05,0.00010267863762258855,0.0,0.0,0.0,0.0
1609045357650239658,198,1609045357649873018,-0.00011107183037850632,-0.00023124778421568237,8.325652622254154e-05,0.0,0.0,0.0,0.0
1609045357700867721,199,1609045357700387954,-7.801628372661185e-05,-0.00020925684545325396,2.9985282237632305e-05,0.0,0.0,0.0,0.0
1609045357752000494,200,1609045357751406908,-6.480541645004223e-05,-0.00010562597403129814,6.640134843038936e-05,0.0,0.0,0.0,0.0
1609045357798564280,201,1609045357797975063,-0.00018446202682653734,-0.00017874110038285096,3.0030527142344e-05,0.0,0.0,0.0,0.0
1609045357852032271,202,1609045357851775884,-0.00012040507626309704,-8.21014284291266e-05,0.00019282368384487825,0.0,0.0,0.0,0.0
1609045357897832605,203,1609045357897521018,-0.00016246270946851382,-9.059570592384603e-05,3.930396579931994e-05,0.0,0.0,0.0,0.0
1609045357944944294,204,1609045357944648981,-0.00012338873640516113,-8.31321520440298e-05,0.00019821269024333787,0.0,0.0,0.0,0.0
1609045357996240365,205,1609045357995953083,-0.00023552337125209988,5.67058457718872e-05,0.00027624823638916496,0.0,0.0,0.0,0.0
1609045358045796565,206,1609045358045279979,-0.00023867145765166242,-0.00013635370007314407,0.00016512678918445545,0.0,0.0,0.0,0.0
1609045358094079627,207,1609045358093714952,-6.235772649532123e-05,5.659861255224996e-06,0.00012917836490800028,0.0,0.0,0.0,0.0
1609045358144458414,208,1609045358144144058,-0.00017932319630631355,8.755525047732249e-05,0.0001816983015405782,0.0,0.0,0.0,0.0
1609045358195272986,209,1609045358194766044,-7.973330798805023e-05,5.044938295384327e-05,0.0001914665557372075,0.0,0.0,0.0,0.0
1609045358247447657,210,1609045358247030019,-3.4610741995066974e-05,0.00019498130258632784,0.0001884265715066391,0.0,0.0,0.0,0.0
1609045358297580438,211,1609045358296374082,3.6171415835895004e-05,4.493128344051911e-05,-4.559475998178186e-05,0.0,0.0,0.0,0.0
1609045358345808853,212,1609045358345005035,-7.734692109195862e-05,5.6778746646557465e-05,0.00019050593379432712,0.0,0.0,0.0,0.0
1609045358395822261,213,1609045358395042896,-8.409834507361325e-05,6.778474671342849e-05,0.00021081606545259035,0.0,0.0,0.0,0.0
1609045358445609249,214,1609045358444175958,-0.00016825902770634116,8.533653775089078e-05,0.00015803884969045612,0.0,0.0,0.0,0.0
1609045358495447996,215,1609045358494852066,3.883692959050222e-05,7.512881405347116e-05,-3.259540539346517e-05,0.0,0.0,0.0,0.0
1609045358545703060,216,1609045358544924974,7.794386057113911e-05,0.00013591428786341453,-7.446201095540061e-05,0.0,0.0,0.0,0.0
1609045358595025527,217,1609045358594485998,-9.434109884765007e-05,-0.0001053461568449876,-0.00010702695302811094,0.0,0.0,0.0,0.0
1609045358645793330,218,1609045358645397901,-0.000107997401080695,5.961368107243459e-05,2.0878650317968095e-05,0.0,0.0,0.0,0.0
1609045358694927640,219,1609045358694538116,3.63990228642308e-05,1.595726449110657e-05,-6.368304902970578e-05,0.0,0.0,0.0,0.0
1609045358744403873,220,1609045358744090080,-6.817579164319909e-05,-0.00011056361480399346,7.019288622522879e-05,0.0,0.0,0.0,0.0
1609045358815433626,221,1609045358815011978,-0.00020741917098376916,-2.2801051594356636e-05,0.00017120234928391653,0.0,0.0,0.0,0.0
1609045358855748896,222,1609045358855021953,-0.00017057220802030315,5.802178895031318e-05,0.000146082976042905,0.0,0.0,0.0,0.0
1609045358898833142,223,1609045358898322105,-0.0001307056636576931,-2.1903764844566354e-05,1.7066484073069432e-05,0.0,0.0,0.0,0.0
1609045358944794934,224,1609045358944361925,-0.0001629796150233176,-5.194809308939341e-05,6.386142587544441e-05,0.0,0.0,0.0,0.0
1609045358994524401,225,1609045358994096040,-0.00022430804058615195,-6.57811405542219e-05,0.0001791049837027714,0.0,0.0,0.0,0.0
1609045359043871345,226,1609045359043414115,-0.00017024576924029589,8.154654758207869e-05,0.00015973876471164772,0.0,0.0,0.0,0.0
1609045359094985996,227,1609045359094511985,-0.00012187891602621903,3.254059005719512e-05,0.00026555084250290406,0.0,0.0,0.0,0.0
1609045359147112580,228,1609045359146437883,-9.173656120609053e-05,3.2885833856965974e-05,0.00020498269071111963,0.0,0.0,0.0,0.0
1609045359195809928,229,1609045359194897890,-0.00011534809487301345,7.802870834794362e-05,4.69049993618853e-05,0.0,0.0,0.0,0.0
1609045359246067415,230,1609045359245471000,-0.0001789875522852924,8.281732780446305e-05,0.0001781386450492306,0.0,0.0,0.0,0.0
1609045359296299947,231,1609045359296011924,5.8874484242465996e-05,-3.483142158167141e-05,9.32486441662661e-05,0.0,0.0,0.0,0.0
1609045359346291356,232,1609045359345885992,-6.409297422038662e-05,1.852630076015771e-06,0.0001303606916760458,0.0,0.0,0.0,0.0
1609045359394839573,233,1609045359394464969,-0.00011336606520018222,4.2039856014142174e-05,2.1010769469143042e-05,0.0,0.0,0.0,0.0
1609045359445077481,234,1609045359444780111,-2.1910699594229754e-05,0.00022410039299636253,0.00018053700604525602,0.0,0.0,0.0,0.0
1609045359495221678,235,1609045359494980096,-0.00019296156642667484,-4.6034476859802e-05,0.0001279139416592301,0.0,0.0,0.0,0.0
1609045359546974117,236,1609045359546622037,-0.00010493579863890545,5.9224910758715055e-05,1.4468862147509753e-05,0.0,0.0,0.0,0.0
1609045359595155493,237,1609045359594794034,-0.00019426630822039215,-0.00019226898173485552,4.1568450695805836e-05,0.0,0.0,0.0,0.0
1609045359644244680,238,1609045359643886089,-0.00019609982169299656,-0.0002460061726843321,1.2569594526112837e-05,0.0,0.0,0.0,0.0
1609045359697059231,239,1609045359696568965,-0.00018161024856766517,-0.00017565814634501464,2.6156149585787603e-05,0.0,0.0,0.0,0.0
1609045359747196770,240,1609045359746943950,-7.586282510985143e-05,-0.00015428036246234456,5.909324965713836e-05,0.0,0.0,0.0,0.0
1609045359797196698,241,1609045359796619892,-0.00019701638339597594,-0.0002171650082090082,3.1965791638555174e-05,0.0,0.0,0.0,0.0
1609045359870335630,242,1609045359870008945,-0.00025720665004413945,-0.00021536601669502886,0.00015442568425072523,0.0,0.0,0.0,0.0
1609045359908636730,243,1609045359908210992,-0.00021844867765707932,-8.504935191666618e-05,0.00015556647223569087,0.0,0.0,0.0,0.0
1609045359997190767,244,1609045359996820926,-0.00017006436630850885,-4.5983640426072725e-05,8.177588662583446e-05,0.0,0.0,0.0,0.0
1609045360039878551,245,1609045360039484024,-0.0002136925004379009,-5.3268973651654505e-05,0.000165313230745312,0.0,0.0,0.0,0.0
1609045360114418106,246,1609045360114106893,-0.00016532363737908895,-6.918318681492508e-05,5.81010620646083e-05,0.0,0.0,0.0,0.0
1609045360163639715,247,1609045360163403987,-0.00014513727995080217,-0.00017813010410527852,0.00018426395085135994,0.0,0.0,0.0,0.0
1609045360215597541,248,1609045360215038061,-0.00018490012628902264,6.440344284186494e-05,0.0001788563391809106,0.0,0.0,0.0,0.0
1609045360257939098,249,1609045360257577896,-8.796424690871163e-05,-0.00020537846107515634,5.240356396285506e-05,0.0,0.0,0.0,0.0
1609045360311067317,250,1609045360310436964,-0.00023933803398890063,0.00010232222458661511,0.0003116963919662652,0.0,0.0,0.0,0.0
1609045360357355372,251,1609045360357115030,-0.00016369432226781555,-4.9000086146833155e-05,0.0003002519625425748,0.0,0.0,0.0,0.0
1609045360406918243,252,1609045360406465053,-6.19208075995914e-05,-0.00012352837924645144,4.9692287431568616e-05,0.0,0.0,0.0,0.0
1609045360456972865,253,1609045360456501007,-0.00015396996997196766,2.280866134185544e-06,7.869071251853654e-05,0.0,0.0,0.0,0.0
1609045360522486897,254,1609045360522175073,-0.0001365347807258388,-0.00013521191413090605,0.000193031772713681,0.0,0.0,0.0,0.0
1609045360568711689,255,1609045360568289995,-6.135295321740841e-05,-2.575799223158981e-05,0.00010803592309294174,0.0,0.0,0.0,0.0
1609045360656449246,256,1609045360655994892,-0.00026696663235270535,0.00013903566175521576,0.0001565881117411294,0.0,0.0,0.0,0.0
1609045360700614966,257,1609045360700357913,-0.00022827189706831064,0.00013778392889562951,7.780372748378284e-05,0.0,0.0,0.0,0.0
1609045360745947392,258,1609045360745348930,-0.00010726635329305623,6.991773643250099e-05,0.00025882924338027635,0.0,0.0,0.0,0.0
1609045360807691146,259,1609045360807389974,-0.00012442636699105947,-0.00023279522975627742,0.00010924246589638642,0.0,0.0,0.0,0.0
1609045360852705273,260,1609045360852385997,5.378867719230129e-06,-2.744192458159489e-05,0.0002056107761010395,0.0,0.0,0.0,0.0
1609045360899908940,261,1609045360899405956,-0.00013525006356474023,-0.0003649529123492812,5.06572633760527e-05,0.0,0.0,0.0,0.0
1609045360950998025,262,1609045360950668096,-0.00021533555086605816,-0.0001398710193658559,0.00011593290493294717,0.0,0.0,0.0,0.0
1609045361002729133,263,1609045361002254009,-0.00019455364365938976,-0.0002056234777523258,3.402238429650595e-05,0.0,0.0,0.0,0.0
1609045361055440149,264,1609045361055136919,-0.00020329751147940556,-0.00019816686290674568,5.619001996670647e-05,0.0,0.0,0.0,0.0
1609045361100444192,265,1609045361100155115,-7.898292530938988e-05,-7.38113508340632e-05,0.0001143458310526313,0.0,0.0,0.0,0.0
1609045361151142483,266,1609045361150757074,-0.00025915319685410054,-0.00016998423956771092,0.0001859631036484899,0.0,0.0,0.0,0.0
1609045361202781171,267,1609045361202246904,-7.04356679861462e-05,-5.6901491678473803e-05,0.0001074004229799641,0.0,0.0,0.0,0.0
1609045361253119082,268,1609045361252753019,-0.00014868486564978411,-5.9713880967038335e-05,3.031310273371446e-05,0.0,0.0,0.0,0.0
1609045361304670967,269,1609045361304344892,-0.00012211509875825755,-8.041081592224941e-05,0.00019730038335907807,0.0,0.0,0.0,0.0
1609045361350841559,270,1609045361350133895,-7.861235253159293e-05,-1.3887525124545164e-05,0.00015005968611703224,0.0,0.0,0.0,0.0
1609045361403301120,271,1609045361402973890,-0.00016660718249283946,7.241552711789723e-05,0.00014684612676241215,0.0,0.0,0.0,0.0
1609045361446864488,272,1609045361446557044,-3.800797478703544e-05,5.6468660570629936e-05,0.00011099588592244913,0.0,0.0,0.0,0.0
1609045361494127690,273,1609045361493863105,4.353834031078918e-05,-2.9592407585710134e-05,-0.00010579288364098716,0.0,0.0,0.0,0.0
1609045361545894533,274,1609045361545176029,-0.000138980219233531,-7.516619430880667e-05,1.3432310925765023e-06,0.0,0.0,0.0,0.0
1609045361594159607,275,1609045361593553066,-0.00015396940241174661,-7.610368258248457e-05,3.0996173695285734e-05,0.0,0.0,0.0,0.0
1609045361649187761,276,1609045361648401021,-9.442840965334653e-05,-0.00014915423981598508,9.9646924002883e-05,0.0,0.0,0.0,0.0
1609045361695579023,277,1609045361695343971,-0.0001718503550414141,-0.00019399844562961732,-4.682175493542218e-06,0.0,0.0,0.0,0.0
1609045361745248000,278,1609045361744791030,-2.0795529685813108e-05,-0.00012806718880042922,-3.5991702430848704e-05,0.0,0.0,0.0,0.0
1609045361796909793,279,1609045361796559095,-0.00013183182554143968,-7.177489884924171e-05,0.0002221474964141379,0.0,0.0,0.0,0.0
1609045361849630532,280,1609045361849342107,-0.00014360357196352425,0.0001803159427815615,0.00016611659873788653,0.0,0.0,0.0,0.0
1609045361895012943,281,1609045361894572019,-0.0001269349092360983,0.00010203542382747344,0.00031803127757612515,0.0,0.0,0.0,0.0
1609045361946686219,282,1609045361946424961,-0.00016710619174276076,9.411993459274015e-05,0.0003942159662724265,0.0,0.0,0.0,0.0
1609045361994950581,283,1609045361994579076,-0.0001766549247648186,8.430900382627726e-05,0.00017434284307782377,0.0,0.0,0.0,0.0
1609045362048115261,284,1609045362047810077,-0.0001206510360312052,0.00020643119958663192,0.000135726426972127,0.0,0.0,0.0,0.0
1609045362094636809,285,1609045362094151020,-0.00016525687982493764,4.628674173368097e-05,0.0001282249931371382,0.0,0.0,0.0,0.0
1609045362145604044,286,1609045362145236968,-3.6430286520783284e-06,0.00010342281792397046,7.027415949245608e-05,0.0,0.0,0.0,0.0
1609045362197057246,287,1609045362195466041,-3.087462981810063e-05,0.00020454536234026932,0.00018671272507653214,0.0,0.0,0.0,0.0
1609045362244974080,288,1609045362244407892,-1.6725180817189766e-05,5.56339480741741e-05,6.757450833028145e-05,0.0,0.0,0.0,0.0
1609045362296488633,289,1609045362296168088,-0.0001050450222841448,3.7501971149822566e-05,1.4715976366375116e-06,0.0,0.0,0.0,0.0
1609045362344453831,290,1609045362344182968,-3.287193209899897e-05,-2.6357001683408043e-06,6.467720837299851e-05,0.0,0.0,0.0,0.0
1609045362394695379,291,1609045362394486904,-6.424985719633014e-05,7.103947710795921e-05,0.00017277468102960825,0.0,0.0,0.0,0.0
1609045362446331572,292,1609045362445761919,-0.000215977261852629,4.126464535936236e-05,-5.7149174583770446e-06,0.0,0.0,0.0,0.0
1609045362495224407,293,1609045362494906902,1.8431490943271456e-05,0.00017665281551160206,7.03224364748678e-05,0.0,0.0,0.0,0.0
1609045362546301645,294,1609045362545661926,2.6795360515308175e-05,-8.65134306469173e-05,0.0001264850460636069,0.0,0.0,0.0,0.0
1609045362595502091,295,1609045362595221996,-0.00011799719236549322,-0.000257381664793499,8.131957551427149e-05,0.0,0.0,0.0,0.0
1609045362648087210,296,1609045362647672891,3.427139477807373e-05,-0.00012683998970608457,-0.00014627748679707508,0.0,0.0,0.0,0.0
1609045362695022555,297,1609045362694770097,-2.3104075967950166e-05,-0.0001548268549456111,-4.7618637120550034e-05,0.0,0.0,0.0,0.0
1609045362745289205,298,1609045362745013952,-0.0002770906051026145,-1.8861705086692382e-07,0.00032544557051039646,0.0,0.0,0.0,0.0
1609045362798502158,299,1609045362798254013,-0.00022304844263842938,-0.00022718728930470888,7.835768329123027e-05,0.0,0.0,0.0,0.0
1609045362848068910,300,1609045362847723960,-0.00020562222749020975,-0.00012916223912995406,0.00010286307930762462,0.0,0.0,0.0,0.0
1609045362894967830,301,1609045362894774913,-3.316603356751102e-05,-9.463302578183175e-05,9.294219129429848e-06,0.0,0.0,0.0,0.0
1609045362945763882,302,1609045362945352077,-0.00021671935585843016,-0.0004422619775219516,-6.526208630042163e-05,0.0,0.0,0.0,0.0
1609045362995191857,303,1609045362994893074,-0.00010924475593299121,-9.709896344922697e-05,0.00016119507100853525,0.0,0.0,0.0,0.0
1609045363045364958,304,1609045363044976949,-0.00016113609559553765,-0.00023980835236514508,-5.415823902943373e-05,0.0,0.0,0.0,0.0
1609045363101559811,305,1609045363101133108,-2.357951637677047e-05,-0.0001391232096992212,-3.710523360744844e-05,0.0,0.0,0.0,0.0
1609045363150705043,306,1609045363150429010,-0.00011548834573815725,-0.00013508269283057928,0.0001506731012845819,0.0,0.0,0.0,0.0
1609045363201169864,307,1609045363200804948,-7.086586169080533e-05,-0.00028742702294515254,-3.1993992747558764e-05,0.0,0.0,0.0,0.0
1609045363250433491,308,1609045363250077962,-0.00026320446763605787,-0.0002788867301273257,0.00012787077296749771,0.0,0.0,0.0,0.0
1609045363304287740,309,1609045363304034948,-0.00022903981778910065,-0.00021512493342257244,9.777770422125798e-05,0.0,0.0,0.0,0.0
1609045363350467379,310,1609045363350181102,-3.793100443871822e-05,-0.00019991160794674556,-4.515405404070805e-05,0.0,0.0,0.0,0.0
1609045363400144287,311,1609045363399806976,-0.00015302226027458232,-0.00019599029927164224,-4.385793674188676e-05,0.0,0.0,0.0,0.0
1609045363449776187,312,1609045363449456930,-5.140935558856086e-05,-0.0002352404457575119,-3.947264226944469e-05,0.0,0.0,0.0,0.0
1609045363501088521,313,1609045363500853061,-7.966983821106055e-05,-0.00013239622240313054,8.00848536339771e-05,0.0,0.0,0.0,0.0
1609045363551801820,314,1609045363551542997,-4.481913840947982e-05,-0.0002684645909347694,0.00016017733417506008,0.0,0.0,0.0,0.0
1609045363601715825,315,1609045363601277112,-9.088151041680703e-05,-0.00020958918131341875,5.572379694918084e-05,0.0,0.0,0.0,0.0
1609045363650868677,316,1609045363650464057,-0.00018451406457842268,-5.944157318538146e-05,0.0001027231028896125,0.0,0.0,0.0,0.0
1609045363700580393,317,1609045363700124979,-0.00010066402221298176,-0.0002204224321964432,6.88573364762135e-05,0.0,0.0,0.0,0.0
1609045363752240376,318,1609045363751950979,-8.06970349032099e-05,-5.916001816963501e-05,0.00012671675682085493,0.0,0.0,0.0,0.0
1609045363801951383,319,1609045363801486015,-0.000169162666622924,-0.00023093110646854598,-3.2572728452251454e-05,0.0,0.0,0.0,0.0
1609045363854423984,320,1609045363854129076,-0.00021148074963406316,-0.00017661957556214247,8.580066686292298e-05,0.0,0.0,0.0,0.0
1609045363900810780,321,1609045363900405883,-9.690872596834765e-05,-0.0002447719314098151,4.647013635583619e-05,0.0,0.0,0.0,0.0
1609045363945565470,322,1609045363945333957,-2.0116870288688915e-05,-0.00029093872064756,9.669469444872902e-05,0.0,0.0,0.0,0.0
1609045363998059810,323,1609045363997637987,-0.00013869093507423713,-0.00021515914898806443,0.0001487355306935001,0.0,0.0,0.0,0.0
1609045364049985315,324,1609045364049644947,-0.00019016682562167375,-5.040294120739475e-05,0.00011962071096505156,0.0,0.0,0.0,0.0
1609045364095150722,325,1609045364094690084,-9.626640374094109e-05,-0.0001797509821130916,8.473648019169389e-05,0.0,0.0,0.0,0.0
1609045364145308518,326,1609045364144269943,-9.254105910727617e-05,-8.37814350020949e-05,0.00013561751195467764,0.0,0.0,0.0,0.0
1609045364194606473,327,1609045364194340944,-0.00011094440755599067,-0.0002188813848036375,9.052383626340088e-05,0.0,0.0,0.0,0.0
1609045364247456513,328,1609045364247081995,-0.00017431871680884115,-0.0003520958562432952,0.00013725623885996185,0.0,0.0,0.0,0.0
1609045364298180956,329,1609045364297365903,-0.00011007605948520904,-0.000249443502420732,7.017768756867326e-05,0.0,0.0,0.0,0.0
1609045364345061129,330,1609045364344738006,-0.00012619520082068902,-0.00019360575454285822,0.0001366536918574468,0.0,0.0,0.0,0.0
1609045364396610230,331,1609045364396343946,-0.00028912814845227786,-0.00016954790260292896,0.00024666953876106845,0.0,0.0,0.0,0.0
1609045364447569956,332,1609045364446907043,-0.00010898749224352855,-6.125705795057002e-05,0.00018248455824831922,0.0,0.0,0.0,0.0
1609045364495397771,333,1609045364495074033,-0.0001448354819473252,-8.479428872654182e-05,7.291243164786465e-06,0.0,0.0,0.0,0.0
1609045364545353035,334,1609045364544795036,-0.00023842290869069416,-0.00017832567250763987,0.0001390877870264262,0.0,0.0,0.0,0.0
1609045364596898930,335,1609045364596165895,-0.00023590060433065219,-0.00017394609242238346,0.0001366666389728266,0.0,0.0,0.0,0.0
1609045364648429544,336,1609045364648119926,-0.00015012911994105593,-0.00020522775187004072,0.0001778418119204872,0.0,0.0,0.0,0.0
1609045364695049078,337,1609045364694607973,-0.0001361259660619396,-0.00010757051603782486,-2.4128238457876705e-05,0.0,0.0,0.0,0.0
1609045364745169467,338,1609045364744606971,-0.0001798879970529299,-0.00033507882018390944,0.00015883972813313108,0.0,0.0,0.0,0.0
1609045364798195988,339,1609045364797895908,-0.00014846071654517345,-0.00021838774394211669,0.0001664705441282166,0.0,0.0,0.0,0.0
1609045364850099479,340,1609045364849781036,-0.00023257916205920992,-0.0001811474822748238,0.00012558772560744558,0.0,0.0,0.0,0.0
1609045364895226628,341,1609045364894953012,-9.702520125998149e-05,-0.00022069825314652292,6.135238590587733e-05,0.0,0.0,0.0,0.0
1609045364946516320,342,1609045364946161985,-0.00018449941699572037,-0.00024254497424891497,-8.71490793130647e-06,0.0,0.0,0.0,0.0
1609045364996372267,343,1609045364995922088,-7.604278254191854e-05,-0.00022376905592480512,1.717622068753144e-05,0.0,0.0,0.0,0.0
1609045365048076456,344,1609045365047739028,-0.00013574781890568488,-0.0002382166339813807,0.00012877195015903453,0.0,0.0,0.0,0.0
1609045365101641273,345,1609045365101330995,-0.00017234658393405766,-0.00029917634959630846,0.00016547793179277903,0.0,0.0,0.0,0.0
1609045365144340476,346,1609045365144090890,-0.00014364584216508547,-0.00022403310095242546,0.00015332710839288666,0.0,0.0,0.0,0.0
1609045365194621470,347,1609045365194237947,-0.00014375015196321783,-0.00020186614244899204,0.00016702483619468467,0.0,0.0,0.0,0.0
1609045365247512226,348,1609045365247097015,-0.00014339705512966816,-0.00022222081100942148,0.00015392814232662033,0.0,0.0,0.0,0.0
1609045365298776883,349,1609045365298052072,-0.0002899737773027766,-0.00016416104340422066,0.00025165230593948706,0.0,0.0,0.0,0.0
1609045365352591957,350,1609045365352263927,-0.00023860897539407233,-0.00014654551700310492,0.00015879957780029486,0.0,0.0,0.0,0.0
1609045365399423230,351,1609045365399132013,-0.00016473871671252027,5.119521806307148e-05,0.00013016681607780356,0.0,0.0,0.0,0.0
1609045365446382693,352,1609045365445996999,-0.00016171879248361165,9.344259522059417e-05,0.0001497836159050081,0.0,0.0,0.0,0.0
1609045365495333928,353,1609045365495037078,-0.00015213881320619294,-0.00022350120548786379,0.00017077566923440202,0.0,0.0,0.0,0.0
1609045365547092292,354,1609045365546487092,-0.00011740324552533821,-8.945950504113398e-05,0.00018229382422241258,0.0,0.0,0.0,0.0
1609045365598344484,355,1609045365597881078,-0.00013021532458168394,-6.241357593772534e-05,-8.57046246238724e-06,0.0,0.0,0.0,0.0
1609045365646533425,356,1609045365646147012,-4.319306497890807e-05,-9.694509474655888e-05,2.8105321609572798e-05,0.0,0.0,0.0,0.0
1609045365695835682,357,1609045365695560932,1.206426421163087e-05,-0.00025437945640405246,5.405055240181866e-05,0.0,0.0,0.0,0.0
1609045365746125468,358,1609045365745069026,3.679207460649536e-05,-0.0001735191626508481,5.3389696908823225e-05,0.0,0.0,0.0,0.0
1609045365796561841,359,1609045365796155929,-0.0002333317159113335,-0.0003334269775638887,3.44522618576093e-05,0.0,0.0,0.0,0.0
1609045365846948084,360,1609045365846621990,-0.0001736645024195127,-0.00021501029534398697,-1.3808672823856227e-05,0.0,0.0,0.0,0.0
1609045365897467264,361,1609045365897126913,-0.00012295964223696387,-4.456781131345622e-05,-1.234212326828299e-05,0.0,0.0,0.0,0.0
1609045365945285300,362,1609045365944921016,-0.00023836558665379926,-0.00018036914235963764,0.00013772886034146836,0.0,0.0,0.0,0.0
1609045365995603760,363,1609045365995239973,-0.00014361155135844683,-0.0003573415429745097,7.214795006760255e-05,0.0,0.0,0.0,0.0
1609045366048431168,364,1609045366048154115,-0.00023520683437538992,-0.0001568961578435335,0.00014564175368114718,0.0,0.0,0.0,0.0
1609045366097620954,365,1609045366096672058,-0.00031869338118184487,-0.00016826545473769272,7.39084378444943e-05,0.0,0.0,0.0,0.0
1609045366150605256,366,1609045366150182962,-0.00015506979025659007,-0.0002086224315753782,0.00018573853867032142,0.0,0.0,0.0,0.0
1609045366195006915,367,1609045366194458961,-6.179688977780984e-05,-0.00012497689149171265,4.8561082691023216e-05,0.0,0.0,0.0,0.0
1609045366249181628,368,1609045366248718976,-0.00016422361541401642,-5.1924685017468164e-05,6.63840120278536e-05,0.0,0.0,0.0,0.0
1609045366305017176,369,1609045366304267883,-0.00020703154090995213,-0.00018958448178985066,6.894104225452224e-05,0.0,0.0,0.0,0.0
1609045366351897425,370,1609045366351551055,-0.00012894706149779722,-0.00022961182259884083,0.00012029472179264644,0.0,0.0,0.0,0.0
1609045366400864320,371,1609045366400369882,-0.00015159386290619636,-0.00035440059747848807,9.003248158379051e-05,0.0,0.0,0.0,0.0
1609045366450495313,372,1609045366449961900,-0.0001902989676025868,-0.00011944014495135491,7.788129501662411e-05,0.0,0.0,0.0,0.0
1609045366495105186,373,1609045366494605064,-0.0001608713496246139,-0.0002522078039906006,-6.223631030799481e-05,0.0,0.0,0.0,0.0
1609045366546445409,374,1609045366545605897,-2.996284722200926e-05,-9.234810607594568e-05,4.22577687331227e-06,0.0,0.0,0.0,0.0
1609045366602525412,375,1609045366602046012,-4.782735592101517e-05,-4.956728858296344e-05,6.627671698744564e-05,0.0,0.0,0.0,0.0
1609045366650479468,376,1609045366650130987,5.0131481106774345e-05,-9.418525299409453e-05,7.47634742577219e-05,0.0,0.0,0.0,0.0
1609045366701160143,377,1609045366700925111,-2.7054598739084668e-06,-0.0002144038109879176,0.00010815421708620931,0.0,0.0,0.0,0.0
1609045366750928734,378,1609045366750487089,-0.0001407116950673526,-0.0001907955432614017,0.00016763407637476746,0.0,0.0,0.0,0.0
1609045366807643341,379,1609045366807352066,-3.89327976080267e-06,-0.0002407285639396406,9.453217124288926e-05,0.0,0.0,0.0,0.0
1609045366851462647,380,1609045366851094961,-0.00011703125935014214,-0.0002162018946521016,-0.00012872510833972228,0.0,0.0,0.0,0.0
1609045366901175906,381,1609045366900850057,-8.003245104859502e-05,-7.60757769171505e-05,-0.00011806843527573108,0.0,0.0,0.0,0.0
1609045366952534979,382,1609045366952191114,-4.191514216245196e-05,-0.0002593078549555372,-7.325952636527688e-05,0.0,0.0,0.0,0.0
1609045367003178305,383,1609045367002896070,-0.0001073342340411898,-7.018390928870133e-05,-5.9434261887147954e-05,0.0,0.0,0.0,0.0
1609045367050206800,384,1609045367049942970,-0.00010964316788886208,-0.00013570566509102377,0.0001385080688081075,0.0,0.0,0.0,0.0
1609045367100801186,385,1609045367100313901,-1.5676654641083587e-06,-0.0002755831868679337,6.863599880446714e-05,0.0,0.0,0.0,0.0
1609045367152497978,386,1609045367152076959,-8.077206942758153e-05,-9.256422989167845e-05,0.00010654312899660567,0.0,0.0,0.0,0.0
1609045367196439057,387,1609045367196168899,-9.417716595550019e-05,-8.752961050184638e-05,0.00013663589595758197,0.0,0.0,0.0,0.0
1609045367245997318,388,1609045367245516061,-0.00013981596766399207,-0.00023944998948799423,0.00013622437719007507,0.0,0.0,0.0,0.0
1609045367297328324,389,1609045367297106027,-0.00014447429504471643,-0.00023160494516183405,0.00015039052144949494,0.0,0.0,0.0,0.0
1609045367347026300,390,1609045367346702098,-0.00012045891362433281,-8.279241413688965e-05,-4.064214343202366e-05,0.0,0.0,0.0,0.0
1609045367397417852,391,1609045367397196054,-3.527646758882952e-05,-0.00011194943455627993,3.0134394322089975e-06,0.0,0.0,0.0,0.0
1609045367447090990,392,1609045367446767091,-0.00012069118928437206,-7.936467504521261e-05,-3.808820064854501e-05,0.0,0.0,0.0,0.0
1609045367495229923,393,1609045367494817972,5.4441265277205275e-05,2.2533236840871496e-06,-0.00010840010159007818,0.0,0.0,0.0,0.0
1609045367545720773,394,1609045367545432090,-3.483052770292261e-05,-9.970014299831575e-05,9.567321349379654e-06,0.0,0.0,0.0,0.0
1609045367597499918,395,1609045367597018003,-9.256247287936503e-05,-0.00011503932851653076,0.00011664174041747799,0.0,0.0,0.0,0.0
1609045367643464505,396,1609045367643223047,-5.698560097044947e-05,-9.245464766216571e-05,5.864799570787227e-05,0.0,0.0,0.0,0.0
1609045367694641857,397,1609045367694324016,-0.0001458963076750308,-0.00022469177618766878,0.00015746409841277398,0.0,0.0,0.0,0.0
1609045367744394967,398,1609045367743917942,-0.00021319883697756836,-0.0001521304579359395,0.00010416527524270691,0.0,0.0,0.0,0.0
1609045367797773389,399,1609045367797389030,-0.00022004737115466355,-0.00017049949520142604,0.00010679780541700268,0.0,0.0,0.0,0.0
1609045367846926651,400,1609045367846642971,-0.00014674854751461908,-0.00020084590656921364,0.0001736914595600325,0.0,0.0,0.0,0.0
1609045367896610995,401,1609045367896296024,-9.565579943071612e-05,-0.00024102784675328337,4.622185184466332e-05,0.0,0.0,0.0,0.0
1609045367945862267,402,1609045367945487022,-0.00012980696285680438,-0.0002003007573971871,0.0001398627558693022,0.0,0.0,0.0,0.0
1609045367995260470,403,1609045367995004892,-0.00013956541159032554,-0.00022699984739915635,0.00014329437840387982,0.0,0.0,0.0,0.0
1609045368046617527,404,1609045368046353101,-0.00014476807697150207,-0.00022717065644428658,0.00015368091201217737,0.0,0.0,0.0,0.0
1609045368094880990,405,1609045368094629049,-0.0001393548789430099,-0.0002204494843969229,0.00014685540249814721,0.0,0.0,0.0,0.0
1609045368146761967,406,1609045368146452903,-0.00019096964510367798,-0.0003788644223394755,0.00015454366493550253,0.0,0.0,0.0,0.0
1609045368194859182,407,1609045368194587945,-0.00022989133001871664,-0.00018938605341745074,0.00011515534555250895,0.0,0.0,0.0,0.0
1609045368246611904,408,1609045368246311902,-0.0001493633574156661,-0.00021493684311835182,0.00017039028639942444,0.0,0.0,0.0,0.0
1609045368297114336,409,1609045368296722888,-7.880213167155148e-05,-0.0002304297503439301,1.8687379416348904e-05,0.0,0.0,0.0,0.0
1609045368346788855,410,1609045368346062898,-0.0001425883344197132,-0.0002150685725990087,0.00015664921487257288,0.0,0.0,0.0,0.0
1609045368397467476,411,1609045368397198915,-0.00012621112455235561,-0.00039101934436303054,1.657205754490576e-05,0.0,0.0,0.0,0.0
1609045368450327702,412,1609045368449963092,-0.00027545829268049715,-0.0003421149756110964,0.00011410854659565928,0.0,0.0,0.0,0.0
1609045368495262849,413,1609045368495065927,-9.130074446161984e-05,-0.00023616234484080678,4.0400923250416554e-05,0.0,0.0,0.0,0.0
1609045368546068704,414,1609045368545789957,-0.00014055391525147343,-0.00021847486653392423,0.00015047454149375028,0.0,0.0,0.0,0.0
1609045368596564135,415,1609045368595798969,-5.672243581145153e-05,-0.0002576461974701516,0.00019076104981152753,0.0,0.0,0.0,0.0
1609045368649028851,416,1609045368648766994,-0.00022915540053602967,-0.00020083089969702428,0.00010670788079814031,0.0,0.0,0.0,0.0
1609045368695008579,417,1609045368694628000,-0.00018540300274949573,-0.00021337675469013107,1.0854095796375418e-05,0.0,0.0,0.0,0.0
1609045368746084103,418,1609045368745754003,-0.0001421380765727065,-0.00022422685671763531,0.00015016901529385507,0.0,0.0,0.0,0.0
1609045368797421222,419,1609045368797188043,-0.0002297331144696102,-0.0001996546300340185,0.00010858845713102028,0.0,0.0,0.0,0.0
1609045368847822030,420,1609045368847440958,-9.92179533483295e-05,-7.498592470156495e-05,0.00015443220016209125,0.0,0.0,0.0,0.0
1609045368895868045,421,1609045368895617008,-0.00016414575277678978,-0.00021232240066915153,-3.136629595168472e-05,0.0,0.0,0.0,0.0
1609045368946107425,422,1609045368945471048,-5.6462103781740325e-05,-0.00024972154232294486,0.00019505784047169072,0.0,0.0,0.0,0.0
1609045368995313035,423,1609045368994884014,-8.864851739787127e-05,-0.00028267126346648297,6.755376249500955e-06,0.0,0.0,0.0,0.0
1609045369047927044,424,1609045369047439098,-0.00023209565336301807,-0.0002024660048718374,0.00011164162817856038,0.0,0.0,0.0,0.0
1609045369095437885,425,1609045369094839096,-0.00014516458567470636,-0.00022968310680404613,0.00015295173044549415,0.0,0.0,0.0,0.0
1609045369146826657,426,1609045369146532058,-0.00014554449603210173,-0.0002355619216096727,0.0001501408357054146,0.0,0.0,0.0,0.0
1609045369196488099,427,1609045369196144104,-0.00016146125767591002,-0.0002699492642328494,0.0001613120876111651,0.0,0.0,0.0,0.0
1609045369251193099,428,1609045369250893115,-0.0002645370921321444,-0.0003056443902043071,0.00011427743117486955,0.0,0.0,0.0,0.0
1609045369303019891,429,1609045369302752017,-9.102164961660719e-05,-0.00029868595209237014,1.796532606235246e-06,0.0,0.0,0.0,0.0
1609045369348509256,430,1609045369347803115,-0.00016495963097895583,-0.00022426411021392312,-3.699102592769066e-05,0.0,0.0,0.0,0.0
1609045369396586567,431,1609045369395608901,-0.0001742875206893757,-0.0002473012496650995,-3.219946983534783e-05,0.0,0.0,0.0,0.0
1609045369445129027,432,1609045369444648027,-0.0002079961026844046,-0.0003033745257212672,0.00023480633380579263,0.0,0.0,0.0,0.0
1609045369497970177,433,1609045369497534990,-0.00032271194918109813,-0.00020898455774798208,5.723604472507304e-05,0.0,0.0,0.0,0.0
1609045369547376168,434,1609045369547123908,-7.672864728647255e-05,-0.0002466682155723987,4.626431813647969e-06,0.0,0.0,0.0,0.0
1609045369597105608,435,1609045369596710920,-0.00020203220440251357,-0.00033852611079154826,-3.176089618150968e-05,0.0,0.0,0.0,0.0
1609045369645288180,436,1609045369644989967,-0.0002614105199434391,-0.00030050961143324173,0.00011109731001823775,0.0,0.0,0.0,0.0
1609045369696593414,437,1609045369696306943,-0.00018570616743573964,-4.8892365777319924e-05,0.00011154552999315115,0.0,0.0,0.0,0.0
1609045369746175593,438,1609045369745867967,-9.487039362809924e-05,-0.00011082124405525917,0.0001238618289161053,0.0,0.0,0.0,0.0
1609045369797606834,439,1609045369797364950,-6.809227351567415e-05,-0.0001372037939599835,5.38153148195164e-05,0.0,0.0,0.0,0.0
1609045369846566016,440,1609045369845715999,-0.00018131595102133247,-0.0003447918575751885,0.00015580923434832528,0.0,0.0,0.0,0.0
1609045369895869592,441,1609045369895571947,-0.0001271208561135495,-0.0003418651785676019,4.831325809817599e-05,0.0,0.0,0.0,0.0
1609045369948874795,442,1609045369948359012,-0.0002881869946058657,-0.0003913519323557324,0.00010981688182809535,0.0,0.0,0.0,0.0
1609045369994772408,443,1609045369994493007,-0.0001865710010591215,-0.00037664655095959176,0.0001470238153284953,0.0,0.0,0.0,0.0
1609045370046617459,444,1609045370046333074,-0.0002266372993666721,-0.000364610785037911,0.00023513543368558487,0.0,0.0,0.0,0.0
1609045370095069251,445,1609045370094522953,-0.0002628737205014886,-0.0003107701915663341,0.00010780473566107673,0.0,0.0,0.0,0.0
1609045370147643735,446,1609045370147363901,-0.00023895731100154194,-0.0003580291814806458,0.00026398181060294235,0.0,0.0,0.0,0.0
1609045370196537944,447,1609045370196008920,-0.00023136049038896545,-0.0005212738092144065,0.00014934045242576133,0.0,0.0,0.0,0.0
1609045370244634115,448,1609045370244359970,-0.00020282553796135971,-0.00036517083982445797,0.0001867811914717521,0.0,0.0,0.0,0.0
1609045370297453046,449,1609045370297214984,-0.00020961596561974716,-0.0003697176157828608,0.0001977068049772157,0.0,0.0,0.0,0.0
1609045370346839896,450,1609045370346579074,-0.00019822135110203476,-8.572430350994864e-05,0.00011437010915571477,0.0,0.0,0.0,0.0
1609045370397269676,451,1609045370397032976,-0.00023324288478931976,-0.000196224894217778,0.00011775223862819928,0.0,0.0,0.0,0.0
1609045370447885609,452,1609045370447462081,-0.0002482542849513436,-8.441244568224704e-05,0.00021605327045293166,0.0,0.0,0.0,0.0
1609045370495304802,453,1609045370494847059,-0.0001996443206202514,-0.00017244264778071283,0.0002976312992348795,0.0,0.0,0.0,0.0
1609045370546397598,454,1609045370545682907,-0.0001479273293760741,-0.00025178411353188324,0.00014507520589290834,0.0,0.0,0.0,0.0
1609045370597536809,455,1609045370597202062,-6.995583226299118e-05,-0.00021292469278044734,1.1501004676617299e-05,0.0,0.0,0.0,0.0
1609045370648379499,456,1609045370648118972,-0.0001317283325406038,-0.0001917055188531691,0.00014896667626018711,0.0,0.0,0.0,0.0
1609045370696424602,457,1609045370696156024,-8.122079657724157e-05,-0.00019216814957090378,4.68441567385014e-05,0.0,0.0,0.0,0.0
1609045370745870022,458,1609045370745609045,-0.00023881435271988494,-7.37143663869233e-05,0.00020352812094692752,0.0,0.0,0.0,0.0
1609045370795380346,459,1609045370795074939,-0.00019068082445983237,-6.774323366087742e-05,0.0001101063301955918,0.0,0.0,0.0,0.0
1609045370847423010,460,1609045370847141981,-0.00022829950752978334,-3.33296469712252e-05,0.00020689868274281764,0.0,0.0,0.0,0.0
1609045370894918636,461,1609045370894500017,-0.00022311513486528156,-0.0001930792394695402,9.92449743115742e-05,0.0,0.0,0.0,0.0
1609045370945606141,462,1609045370945274114,-0.0001496041244344326,-0.00025304583675023196,0.00014768854708080426,0.0,0.0,0.0,0.0
1609045370996433765,463,1609045370996049880,-0.00020281377270237044,-0.0003688365176337527,0.00018452713628391848,0.0,0.0,0.0,0.0
1609045371044828131,464,1609045371044399023,-0.00028801714346826657,-0.0003498247813773503,0.00013474090938281336,0.0,0.0,0.0,0.0
1609045371096770006,465,1609045371096139907,-0.00015579347528671406,-0.00026268161763454145,0.00015430571134089632,0.0,0.0,0.0,0.0
1609045371145827263,466,1609045371145315885,-0.0001977605319218867,-0.00040803107531495186,0.00015049062599636898,0.0,0.0,0.0,0.0
1609045371195984765,467,1609045371195727109,-0.0002853708569645619,-0.00038495280202965887,0.00010803194736297428,0.0,0.0,0.0,0.0
1609045371244693468,468,1609045371243956089,-0.00027040426065738643,-0.00034454642231374066,0.00010243838946877304,0.0,0.0,0.0,0.0
1609045371297891819,469,1609045371297611951,-0.0001838215674503374,-0.00037831921252617917,0.0001404622488543339,0.0,0.0,0.0,0.0
1609045371346547716,470,1609045371346275091,-0.00028687278143735284,-0.00037576254403504095,0.00011665203034993965,0.0,0.0,0.0,0.0
1609045371395731295,471,1609045371395315885,-0.00023721622540406884,-0.0005271554996433281,0.00015756921918175237,0.0,0.0,0.0,0.0
1609045371445730859,472,1609045371445228099,-0.0002728798190752002,-0.000650300491916056,0.00015455645304918164,0.0,0.0,0.0,0.0
1609045371494887354,473,1609045371494592905,-0.00031617292526320284,-0.0004941823233881593,0.00010368195583332351,0.0,0.0,0.0,0.0
1609045371547620738,474,1609045371547236919,-0.0002902801670998656,-0.00038812227214890527,0.00011600251611554313,0.0,0.0,0.0,0.0
1609045371596908232,475,1609045371596625089,-0.0002830156677120499,-0.00035778394640573197,0.00011981345017275657,0.0,0.0,0.0,0.0
1609045371645131300,476,1609045371644913911,-0.0002734895682010574,-0.00034898340765643354,0.00010595988334038964,0.0,0.0,0.0,0.0
1609045371695374447,477,1609045371695144891,-0.00023352463195536188,-0.00022208231278675328,0.00010258754418934757,0.0,0.0,0.0,0.0
1609045371751287251,478,1609045371750948905,-0.0002647504952726365,-0.00031473044077579004,0.00010917943803612218,0.0,0.0,0.0,0.0
1609045371797734590,479,1609045371797373056,-0.0002927456757682023,-0.0003445478722134965,0.0001474860519667942,0.0,0.0,0.0,0.0
1609045371846138358,480,1609045371845388889,-0.00028690369977368846,-0.0003397975132255482,0.0001385967435769686,0.0,0.0,0.0,0.0
1609045371895415590,481,1609045371894927978,-0.0001624831096691537,-0.00021681811877094503,0.00019569988842249586,0.0,0.0,0.0,0.0
1609045371949166261,482,1609045371948846101,-0.00014467681796048737,-0.00022810952749985347,0.00015292564939173303,0.0,0.0,0.0,0.0
1609045371996424972,483,1609045371996140003,-0.0002168242228890449,-0.00023598408934688564,0.00029361070034461534,0.0,0.0,0.0,0.0
1609045372044848395,484,1609045372044559001,-0.00023535499982330066,-0.0002939559394974367,0.00029570309160931174,0.0,0.0,0.0,0.0
1609045372095612273,485,1609045372095201969,-0.00019338860087003695,-8.32564942783165e-05,0.0001061270849067597,0.0,0.0,0.0,0.0
1609045372148266685,486,1609045372147974014,-0.00022274171055869374,-0.00018638704828788377,0.00010256384791418327,0.0,0.0,0.0,0.0
1609045372196669124,487,1609045372196378946,-0.00011568790718285982,-0.00028568906075499,5.943994595192237e-05,0.0,0.0,0.0,0.0
1609045372245245362,488,1609045372244915962,-0.0001298289824269716,-0.00035938891509168513,4.311178578397801e-05,0.0,0.0,0.0,0.0
1609045372297520664,489,1609045372297142982,-9.298416345515648e-05,-0.0002973325245427816,6.577096501203528e-06,0.0,0.0,0.0,0.0
1609045372348130378,490,1609045372347764015,-0.00027318603932258156,-0.0003479323280064506,0.00010598737099343225,0.0,0.0,0.0,0.0
1609045372395136666,491,1609045372394587039,-0.0001061619147222359,-0.0004021444243811345,0.00020253067302711258,0.0,0.0,0.0,0.0
1609045372445445152,492,1609045372445144891,-0.00017557232659015654,-0.00031189830849243094,0.00016424166704531729,0.0,0.0,0.0,0.0
1609045372494768139,493,1609045372494394063,-0.00018557010825048792,-0.00036358327125718404,0.00015295380188362628,0.0,0.0,0.0,0.0
1609045372546511340,494,1609045372546199083,-0.00018480682745547483,-0.00037887136444147984,0.0001421129446246283,0.0,0.0,0.0,0.0
1609045372597857553,495,1609045372597534894,-0.0002768375575818993,-0.00035011809955065587,0.00011202027185142072,0.0,0.0,0.0,0.0
1609045372644536726,496,1609045372644280910,-0.00016448721408224287,-0.00021035749427689154,0.00020367186061243103,0.0,0.0,0.0,0.0
1609045372695130326,497,1609045372694899082,-0.00018006354269672897,-0.00021846585994467205,-3.0085110864774833e-06,0.0,0.0,0.0,0.0
1609045372747547582,498,1609045372747231960,-0.000141680282936818,-0.0002278689868013828,0.0001470299021875121,0.0,0.0,0.0,0.0
1609045372797942519,499,1609045372797720909,-0.000121668295435029,-0.0003919591313295001,0.0002399943903643731,0.0,0.0,0.0,0.0
1609045372845353223,500,1609045372844830989,-0.00019833683890624343,-0.0003661311618916585,0.0001771460107082845,0.0,0.0,0.0,0.0
1609045372895634813,501,1609045372895323991,-0.00017135391000522304,-0.00037948712212632074,0.00011461233797227521,0.0,0.0,0.0,0.0
1609045372948103665,502,1609045372947765111,-0.00023685335788314887,-0.00022436579514462096,0.00010791009590427336,0.0,0.0,0.0,0.0
1609045372998315516,503,1609045372997663021,-0.00019178504523509332,-0.0003737986164598084,0.00015927002278637303,0.0,0.0,0.0,0.0
1609045373045553703,504,1609045373045212030,-0.00024292436295425546,-0.000468402225141773,0.00020482604627503065,0.0,0.0,0.0,0.0
1609045373094761527,505,1609045373094475030,-0.00022614913072516174,-0.00036299387574523223,1.9802449617856155e-06,0.0,0.0,0.0,0.0
1609045373147509253,506,1609045373147219896,-0.000336071042550401,-0.00032697876036280604,0.0002455362665383376,0.0,0.0,0.0,0.0
1609045373197460656,507,1609045373196997880,-0.00010446647645423468,-0.00039923412062847774,0.00020088277586616243,0.0,0.0,0.0,0.0
1609045373245242187,508,1609045373244755029,-0.0002656071267388427,-0.00029667871398864065,0.00012189007374807659,0.0,0.0,0.0,0.0
1609045373299629035,509,1609045373298949003,-0.00018430077410513945,-0.00036295746702563747,0.00015077512057004583,0.0,0.0,0.0,0.0
1609045373346784972,510,1609045373346467971,-5.874678778283737e-05,-0.00024815302504954673,0.0002006189518137802,0.0,0.0,0.0,0.0
1609045373401662872,511,1609045373401412963,-0.0002639606002894368,-0.0003164973477343125,0.00010651166975605975,0.0,0.0,0.0,0.0
1609045373445497752,512,1609045373445137977,-0.00017070904493721173,-0.00037675352507804405,0.00011497526747206166,0.0,0.0,0.0,0.0
1609045373494412710,513,1609045373493690967,-0.0001911762385162774,-0.00037661706458358424,0.00015632760296391268,0.0,0.0,0.0,0.0
1609045373547617444,514,1609045373547179937,-0.00018648793562903165,-0.0003683588341942823,0.00015189885808908343,0.0,0.0,0.0,0.0
1609045373598335754,515,1609045373597877979,-0.0001652167309131869,-0.0005079214178884683,2.4094834262911036e-05,0.0,0.0,0.0,0.0
1609045373647779167,516,1609045373646017074,-0.0002501602223219379,-0.000482289466940955,-2.218738358017447e-05,0.0,0.0,0.0,0.0
1609045373695989272,517,1609045373694861888,-0.0001742922505769684,-0.0005393092615548767,2.3297285739687368e-05,0.0,0.0,0.0,0.0
1609045373747480354,518,1609045373746897935,-0.00017367889905983702,-0.0005412773415400807,2.086314211524609e-05,0.0,0.0,0.0,0.0
1609045373799997327,519,1609045373799546003,-3.7802229890360195e-05,-0.00041543901624230273,5.660441614097067e-05,0.0,0.0,0.0,0.0
1609045373847416776,520,1609045373847152948,-2.1729527954761352e-05,-0.0003520869427919848,6.274164136854665e-05,0.0,0.0,0.0,0.0
1609045373894424919,521,1609045373894117116,-9.55583214796718e-05,-0.00028284991482330213,2.057919516218476e-05,0.0,0.0,0.0,0.0
1609045373945108706,522,1609045373944835901,-0.0003562465053370545,-0.000349216342682368,3.953169448145388e-05,0.0,0.0,0.0,0.0
1609045373996651426,523,1609045373996256113,-0.0002125111813171543,-0.00035928030714593717,-2.3259136264996982e-05,0.0,0.0,0.0,0.0
1609045374047502364,524,1609045374046961069,-0.00022877104826335426,-0.00022779432436870195,8.952716877885791e-05,0.0,0.0,0.0,0.0
1609045374095231616,525,1609045374094890117,-0.00018811654802775024,-0.0003659654611585239,0.00015663895040418652,0.0,0.0,0.0,0.0
1609045374145780208,526,1609045374145410060,-0.00027176510194593106,-0.00034091439222727615,0.00010739219649558152,0.0,0.0,0.0,0.0
1609045374195099175,527,1609045374194787025,-0.00019007988181840574,-0.0003711904745813399,0.0001574186709145664,0.0,0.0,0.0,0.0
1609045374248936552,528,1609045374248600959,-0.0001945258818381035,-0.0003697685439902898,0.0001672485973926996,0.0,0.0,0.0,0.0
1609045374297375445,529,1609045374297053098,-0.00019372961692809554,-0.00037150286702036794,0.0001645878100386966,0.0,0.0,0.0,0.0
1609045374345351228,530,1609045374344753026,-0.00019490611428452098,-0.00039504853040561727,0.00015263407549248598,0.0,0.0,0.0,0.0
1609045374396944126,531,1609045374396481037,-0.00017736667248158255,-0.000378646811956429,0.0001272475116458338,0.0,0.0,0.0,0.0
1609045374449370139,532,1609045374447832107,-0.00012488981380087694,-0.0003849017078181305,1.7629981812206097e-05,0.0,0.0,0.0,0.0
1609045374495352141,533,1609045374494695901,-0.0003277848820104623,-0.0005005574977943184,0.00012321715284180357,0.0,0.0,0.0,0.0
1609045374545146454,534,1609045374544497013,-0.00019976062931448269,-0.0004841802577573162,0.00010819221665592238,0.0,0.0,0.0,0.0
1609045374596428746,535,1609045374595689058,-0.00025295524670809755,-0.0005118555142846759,-3.454017030257717e-05,0.0,0.0,0.0,0.0
1609045374645881474,536,1609045374645555019,-0.00012255154450002692,-0.00039057999014957545,9.460405898664703e-06,0.0,0.0,0.0,0.0
1609045374699351967,537,1609045374698991060,-1.6363723045031975e-05,-0.0002630598371364812,-0.00012706218411118186,0.0,0.0,0.0,0.0
1609045374744539249,538,1609045374744071960,-0.0001203941479985815,-0.00038841941081457776,6.4249130868887505e-06,0.0,0.0,0.0,0.0
1609045374859693562,539,1609045374859023094,-0.0002012658621382002,-0.00032831445436976026,-2.7093029755675957e-05,0.0,0.0,0.0,0.0
1609045374898229520,540,1609045374897727012,-0.0001646821769192286,-0.00020687524167328775,-2.697042248200887e-05,0.0,0.0,0.0,0.0
1609045374946654230,541,1609045374946129083,-0.00019883379174601146,-0.0003269848408322673,-3.118793821599297e-05,0.0,0.0,0.0,0.0
1609045374994893977,542,1609045374994579076,-0.00013026448455732975,-0.00039805617972810126,2.0463620380439806e-05,0.0,0.0,0.0,0.0
1609045375045513457,543,1609045375045233011,-0.00017700896412620182,-0.0002353946113089478,-1.9467682500717842e-05,0.0,0.0,0.0,0.0
1609045375097472846,544,1609045375096934080,-0.00020534877408096008,-0.0001652900101412058,8.032983395089843e-05,0.0,0.0,0.0,0.0
1609045375144639057,545,1609045375144406080,-0.00011596173430916679,-6.365388910190006e-05,-3.8065174949863945e-05,0.0,0.0,0.0,0.0
1609045375193982856,546,1609045375193680047,-0.00021141843079419687,-3.921517565430577e-05,-6.387525759876667e-05,0.0,0.0,0.0,0.0
1609045375247766243,547,1609045375247442007,-0.0001296144819846745,-6.688776433527721e-05,-1.2504281947656182e-05,0.0,0.0,0.0,0.0
1609045375299312943,548,1609045375299036979,6.761368016583447e-06,-0.00026303849512743227,5.9474497367872914e-05,0.0,0.0,0.0,0.0
1609045375346303755,549,1609045375345236063,-3.240051738373495e-05,-9.554027323588343e-05,7.198668878771741e-06,0.0,0.0,0.0,0.0
1609045375397572236,550,1609045375397099018,-1.7774340392406884e-05,-4.432552912447818e-05,8.868995200472796e-06,0.0,0.0,0.0,0.0
1609045375444709846,551,1609045375444350957,-0.00016131108284156426,-0.00019352041219455884,-2.5642092477795586e-05,0.0,0.0,0.0,0.0
1609045375495814669,552,1609045375495584964,-1.0033612941384717e-05,-0.00026010869511061685,9.512154466584377e-05,0.0,0.0,0.0,0.0
1609045375546166617,553,1609045375545770883,-5.208737078632453e-05,-8.671621519340533e-05,5.2263031916410796e-05,0.0,0.0,0.0,0.0
1609045375596685552,554,1609045375596366882,-0.00026316076877463956,-0.00031349969309779624,0.00010672280029133674,0.0,0.0,0.0,0.0
1609045375646238128,555,1609045375645979881,-0.00014365046645181678,-0.0003744148899400557,6.183845478879846e-05,0.0,0.0,0.0,0.0
1609045375698995969,556,1609045375698548078,-0.00018420168420973937,-0.00034065057981713665,0.00016414763950933775,0.0,0.0,0.0,0.0
1609045375744775853,557,1609045375744400024,-0.00013832501178967505,-0.0002152550171583556,0.00014793936610857372,0.0,0.0,0.0,0.0
1609045375797381668,558,1609045375797063112,-0.0001570120686942289,-0.0003300720696088888,0.00011575984025036234,0.0,0.0,0.0,0.0
1609045375848889937,559,1609045375848639011,-0.00011845724634440558,-0.0003716562840967441,1.2718613897177988e-05,0.0,0.0,0.0,0.0
1609045375898646904,560,1609045375898194074,-0.00025255974196625175,-0.00018786113330016008,-7.136309842969979e-05,0.0,0.0,0.0,0.0
1609045375945933658,561,1609045375945521116,-0.0001254294044059634,-0.00023061716755812256,0.0001125901729626122,0.0,0.0,0.0,0.0
1609045375997465168,562,1609045375996925115,-0.00023869992642389093,-0.00022011575138058959,0.00011421936203426242,0.0,0.0,0.0,0.0
1609045376060689435,563,1609045376060342073,-0.00016832825182078182,-0.00017673815183094632,-1.2820721817519143e-06,0.0,0.0,0.0,0.0
1609045376101116053,564,1609045376100802898,-6.572540251781334e-05,-0.0002112881167484204,3.966787208042888e-06,0.0,0.0,0.0,0.0
1609045376145475932,565,1609045376144969940,-7.467178227216209e-05,-0.00023109743080063083,9.952950764002821e-06,0.0,0.0,0.0,0.0
1609045376196007133,566,1609045376195314884,-5.879376042727813e-05,-0.0002453481078354969,0.00020242030526418375,0.0,0.0,0.0,0.0
1609045376262106236,567,1609045376261466979,-0.00014179267769875992,-0.00022439418101249942,0.00014937075813037382,0.0,0.0,0.0,0.0
1609045376303667691,568,1609045376303250074,-0.00023127942056788697,-0.00019194978976067034,0.00011639434730703613,0.0,0.0,0.0,0.0
1609045376345933895,569,1609045376345372915,-0.00023046181078356653,-0.00018399812932123893,0.00011958390473232328,0.0,0.0,0.0,0.0
1609045376394594704,570,1609045376394061088,-0.00023349049887855244,-0.0001877189768570986,0.00012342691017863672,0.0,0.0,0.0,0.0
1609045376445222170,571,1609045376444808959,-0.00014699011691376995,-0.00038641290110597026,6.127240908782028e-05,0.0,0.0,0.0,0.0
1609045376498970814,572,1609045376498387098,-0.00017060884669461984,-0.00033836202690018524,0.00013813194761702619,0.0,0.0,0.0,0.0
1609045376544713930,573,1609045376544451951,-0.0001227567287642728,-0.000393627041509248,8.020218702498028e-06,0.0,0.0,0.0,0.0
1609045376597054918,574,1609045376596111059,-4.883858958848464e-05,-0.00030988441680257495,0.00014308048302069665,0.0,0.0,0.0,0.0
1609045376645102603,575,1609045376644843101,-0.0002464827219803567,-0.00023542568521328633,0.00012059709595746426,0.0,0.0,0.0,0.0
1609045376697734112,576,1609045376697427034,-0.0003245876515407531,-0.0004981612340735353,0.00011822829258534284,0.0,0.0,0.0,0.0
1609045376745789159,577,1609045376745548009,-0.0003063015436524097,-0.00044466906471996026,0.00011390276067224647,0.0,0.0,0.0,0.0
1609045376797166743,578,1609045376796905994,-0.00018957792712370747,-0.00036778619780442057,0.00015847782725053605,0.0,0.0,0.0,0.0
1609045376844384798,579,1609045376844100952,-0.00020614750907554935,-0.00040839191817809706,0.00016718231451484655,0.0,0.0,0.0,0.0
1609045376898254091,580,1609045376897999048,-0.00019148722018513809,-0.0003695724904577702,0.0001612408210629468,0.0,0.0,0.0,0.0
1609045376944319107,581,1609045376943955898,-0.0001966931296735197,-0.0003916690052427896,0.00015829357126762034,0.0,0.0,0.0,0.0
1609045376996547740,582,1609045376996313095,-0.000303453943729437,-0.00043249628367547643,0.00011556721286787308,0.0,0.0,0.0,0.0
1609045377045285157,583,1609045377044645071,-0.00019074986069256283,-0.00036877774877730474,0.00016023758178285163,0.0,0.0,0.0,0.0
1609045377098048433,584,1609045377097724914,-0.00020247755953306523,-0.000472301675509712,0.0001208977660400734,0.0,0.0,0.0,0.0
1609045377145997911,585,1609045377145401000,-0.0001869634225144523,-0.00036748703799460714,0.00015338804528752803,0.0,0.0,0.0,0.0
1609045377197481311,586,1609045377196898937,-0.00018935110859530369,-0.00036015984461279515,0.00016266062248071478,0.0,0.0,0.0,0.0
1609045377244772939,587,1609045377244501113,-0.0002745778361870066,-0.00033751870376796944,0.00011512975701677419,0.0,0.0,0.0,0.0
1609045377299100158,588,1609045377298620939,-0.00032931954039128186,-0.0003201617343702168,0.0002360703737362968,0.0,0.0,0.0,0.0
1609045377347008618,589,1609045377346426010,-0.0001882893176059497,-0.00036213015640562674,0.00015932085288383746,0.0,0.0,0.0,0.0
1609045377397454821,590,1609045377396325111,-0.00010023142725046341,-0.000391701036157599,0.0001969267538957098,0.0,0.0,0.0,0.0
1609045377445466922,591,1609045377444871902,-0.0001919620393344701,-0.0003675656032484653,0.00016341929250529574,0.0,0.0,0.0,0.0
1609045377496706967,592,1609045377495747089,-0.00034089602611331316,-0.00048727245826185595,0.00015773709787225698,0.0,0.0,0.0,0.0
1609045377547424702,593,1609045377547000885,-0.0002710980842728361,-0.00039043621425705055,0.0003090724115608623,0.0,0.0,0.0,0.0
1609045377596834989,594,1609045377596565961,-0.0003162369665368203,-0.0003601292314154847,0.0004185307189850107,0.0,0.0,0.0,0.0
1609045377645177693,595,1609045377644913911,-0.00033848944559977667,-0.00031629050411297044,0.00025691590169607537,0.0,0.0,0.0,0.0
1609045377696704859,596,1609045377696410894,-0.00021640830820501833,-0.00022589477184098428,0.0002989109070945517,0.0,0.0,0.0,0.0
1609045377749438391,597,1609045377749126911,-0.00021430392738608361,-0.0002226087211152361,0.0002966670581479036,0.0,0.0,0.0,0.0
1609045377799142417,598,1609045377798710107,-0.00023260181631457044,-0.0001845154187591902,0.0001235841947817562,0.0,0.0,0.0,0.0
1609045377846241438,599,1609045377845784902,-0.0002576102245512857,-0.00034678195347837004,0.00030843663886948036,0.0,0.0,0.0,0.0
1609045377895281161,600,1609045377894594907,-0.00028798513524819214,-0.00028994965653339477,0.0001711066923171245,0.0,0.0,0.0,0.0
1609045377948231348,601,1609045377947829961,-0.00022745581798133685,-0.00018886566098430535,0.00011056109754647991,0.0,0.0,0.0,0.0
1609045377996328479,602,1609045377995965003,-0.00014105698685895618,-0.00020824378095163354,0.00015771397875852244,0.0,0.0,0.0,0.0
1609045378047340446,603,1609045378046899080,-0.00015780325339775914,-0.00021052716487801604,0.00019009127990621266,0.0,0.0,0.0,0.0
1609045378097106080,604,1609045378096461057,-0.0001802149332128522,-0.00033861402017443254,0.0001573480034746666,0.0,0.0,0.0,0.0
1609045378146184177,605,1609045378145754098,-0.00013228571610923723,-5.653966124263832e-05,-8.218653686498101e-07,0.0,0.0,0.0,0.0
1609045378196681667,606,1609045378196264982,-0.000273694481649045,-0.0003494130002916762,0.00010611168498186885,0.0,0.0,0.0,0.0
1609045378245778558,607,1609045378245448112,-0.00018825341803463402,-0.00035941245264403676,0.00016090201443752505,0.0,0.0,0.0,0.0
1609045378298249267,608,1609045378297920942,-0.00014502371579894202,-0.00021437558717529726,0.0001619814757649607,0.0,0.0,0.0,0.0
1609045378346654300,609,1609045378346129894,-0.00013943365229707183,-0.0004291870852295432,2.0010962431982193e-05,0.0,0.0,0.0,0.0
1609045378396096436,610,1609045378395502090,-0.0001859808785056316,-0.0003806127348511268,0.00014342075170858948,0.0,0.0,0.0,0.0
1609045378445620848,611,1609045378445118904,-0.0001451522019095819,-0.0005434378372459747,0.0001951823780252937,0.0,0.0,0.0,0.0
1609045378497236183,612,1609045378496375083,-0.0002317067800348127,-0.0005100314926451688,0.00015687880296866297,0.0,0.0,0.0,0.0
1609045378548029863,613,1609045378547460079,-0.00027684591836774075,-0.00033328551623235114,0.00012227866841385548,0.0,0.0,0.0,0.0
1609045378596541041,614,1609045378596270084,-0.00022679462092156655,-0.00021848954032144263,9.120340433454999e-05,0.0,0.0,0.0,0.0
1609045378645852937,615,1609045378645562887,-0.00019152696824065174,-0.0003668847660467378,0.0001629562743925561,0.0,0.0,0.0,0.0
1609045378697250167,616,1609045378696988105,-0.0002580058114176609,-0.0003439535868405841,0.00031095519842772035,0.0,0.0,0.0,0.0
1609045378745601754,617,1609045378745137929,-0.00027641618279616864,-0.0003395109395452067,0.00011762439276807868,0.0,0.0,0.0,0.0
1609045378811833991,618,1609045378811500072,-0.00014166393166092917,-0.0002449448997285941,0.00013660719959318612,0.0,0.0,0.0,0.0
1609045378844700921,619,1609045378844343900,-9.506245788415413e-05,-0.0002235663968317425,5.564971752747283e-05,0.0,0.0,0.0,0.0
1609045378897713073,620,1609045378897191047,-0.00014621110049262143,-0.00021653348368033676,0.000163062713117057,0.0,0.0,0.0,0.0
1609045378946256230,621,1609045378945806980,-3.687356070258829e-05,-0.00018465237723397365,0.00019515139348058597,0.0,0.0,0.0,0.0
1609045378997805275,622,1609045378997303962,-9.976054544935664e-05,-6.509263618426075e-05,0.00016154589367012306,0.0,0.0,0.0,0.0
1609045379045944793,623,1609045379045480012,-0.00017587308555278014,-4.60365669638918e-05,9.345613175071321e-05,0.0,0.0,0.0,0.0
1609045379096158062,624,1609045379095868110,-9.851955311290794e-05,-6.535816230801572e-05,0.00015888204332803468,0.0,0.0,0.0,0.0
1609045379149540298,625,1609045379149281978,-0.0002192495638446701,-0.00015579334422177737,0.00011413705784413253,0.0,0.0,0.0,0.0
1609045379196621556,626,1609045379196321964,-9.912796897282306e-05,-6.26195857851286e-05,0.00016177513472293015,0.0,0.0,0.0,0.0
1609045379246639150,627,1609045379245899915,-0.00011601846610531652,-0.00011012054816816885,0.00016693029432346407,0.0,0.0,0.0,0.0
1609045379298669756,628,1609045379297871112,-0.0001270676080835642,-5.7716304274535446e-05,-1.2059274389741859e-05,0.0,0.0,0.0,0.0
1609045379347208911,629,1609045379346678972,-1.614113018533203e-05,7.609716219647567e-05,7.884795023471725e-05,0.0,0.0,0.0,0.0
1609045379396589338,630,1609045379395890951,-9.72509114234299e-05,-6.730122883347178e-05,0.00015514173259845165,0.0,0.0,0.0,0.0
1609045379446141599,631,1609045379445354938,-0.00015506429833322954,-2.8549062754734678e-05,0.0002952942267366865,0.0,0.0,0.0,0.0
1609045379495548108,632,1609045379495228052,-0.00018982395080868741,-3.5138435762860354e-05,0.00012821713949051627,0.0,0.0,0.0,0.0
1609045379548104872,633,1609045379547849893,-0.00014115460177421824,-5.363654546997054e-05,1.882725148405484e-05,0.0,0.0,0.0,0.0
1609045379597561750,634,1609045379597284078,-4.5450327437634996e-05,-7.622916616512043e-05,4.526133271376409e-05,0.0,0.0,0.0,0.0
1609045379644850882,635,1609045379644557952,-3.7230765137508115e-05,-8.325056882618753e-05,2.441572874190001e-05,0.0,0.0,0.0,0.0
1609045379694948014,636,1609045379694416999,-0.00018500084333439304,-3.7341047887551326e-05,0.00011715181210369963,0.0,0.0,0.0,0.0
1609045379745816010,637,1609045379745194911,-2.948953741466198e-05,-8.79385286491896e-05,5.954425187582046e-06,0.0,0.0,0.0,0.0
1609045379800038629,638,1609045379799496889,-9.348513445672779e-05,-0.0002910568300720229,1.1405570354838801e-05,0.0,0.0,0.0,0.0
1609045379848408738,639,1609045379847719907,-0.00018031614673574836,-0.0003235660122928863,0.00016670786655836878,0.0,0.0,0.0,0.0
1609045379895172860,640,1609045379894694089,-0.0001398317817766781,-0.0003821800310817025,4.941410513836786e-05,0.0,0.0,0.0,0.0
1609045379945536996,641,1609045379945230960,-0.00019496019111642227,-0.00024675332386614457,9.817108784559991e-06,0.0,0.0,0.0,0.0
1609045379997315680,642,1609045379997067928,-0.000147306723548013,-0.00021746249286280772,0.0001647066375767281,0.0,0.0,0.0,0.0
1609045380047634025,643,1609045380047360897,-0.00014632392946012374,-0.0002165634615138856,0.00016327197764098855,0.0,0.0,0.0,0.0
1609045380095566411,644,1609045380095144033,-0.0002902469387073836,-0.0001599533135507869,0.00025476331421536713,0.0,0.0,0.0,0.0
1609045380145255879,645,1609045380144865989,-0.0002926429411616027,-0.0001673212417596659,0.00025511154278134995,0.0,0.0,0.0,0.0
1609045380195381821,646,1609045380194926977,-0.00027003343151932313,-0.00030632951769149486,0.00012494321423517363,0.0,0.0,0.0,0.0
1609045380250669933,647,1609045380249620914,-0.00010271285482232884,-5.854387331183375e-05,0.00017148346072026754,0.0,0.0,0.0,0.0
1609045380298398349,648,1609045380297921895,-0.00012786444854384627,-0.00018703647901574527,0.00014401655279527859,0.0,0.0,0.0,0.0
1609045380347036983,649,1609045380346463918,-0.0002650025652428667,-0.00013931308651571328,0.0002164195707567984,0.0,0.0,0.0,0.0
1609045380397311300,650,1609045380396819114,-0.000270738303477458,-0.0001755465284745128,0.00020593868272733573,0.0,0.0,0.0,0.0
1609045380447732639,651,1609045380447268962,-0.0001222187952905074,-0.0002194025009103484,0.00011293992910665906,0.0,0.0,0.0,0.0
1609045380498548922,652,1609045380498025894,-2.9643693057579412e-05,-0.0003657833216230699,7.036599950360767e-05,0.0,0.0,0.0,0.0
1609045380546417511,653,1609045380546175003,-0.00016487124646147322,-0.0002046760424594396,-2.525111605677921e-05,0.0,0.0,0.0,0.0
1609045380596363312,654,1609045380596021890,-0.00019864031854055497,-0.00032396640877685456,-2.9741541174743702e-05,0.0,0.0,0.0,0.0
