%time,field.header.seq,field.header.stamp,field.pose.position.x,field.pose.position.y,field.pose.position.z,field.pose.orientation.x,field.pose.orientation.y,field.pose.orientation.z,field.pose.orientation.w
1624165701299761952,2,1624165701299392890,0.00015326849461416714,3.135518454655539e-05,-0.00027879485232773504,0.0,0.0,0.0,1.0
1624165701348051759,3,1624165701347559881,0.00022173360775923356,0.000105046891803795,-0.00027125034491604083,0.0,0.0,0.0,1.0
1624165701399026546,4,1624165701398383092,0.0002055905988527229,0.00022954340852265886,-0.0002361801962749155,0.0,0.0,0.0,1.0
1624165701450840296,5,1624165701450185012,0.00015623066997250135,3.367046588209632e-05,-0.0002771775690071365,0.0,0.0,0.0,1.0
1624165701498175633,6,1624165701497682046,4.5031143599771895e-05,-9.213726502821373e-05,-0.00028038226922078024,0.0,0.0,0.0,1.0
1624165701548765399,7,1624165701548237037,0.00028258839211048326,4.4491989001471666e-05,-0.0003247799151182562,0.0,0.0,0.0,1.0
1624165701598221668,8,1624165701597536039,3.1672637533119996e-05,-0.0001534444975277438,-0.0002124635861022739,0.0,0.0,0.0,1.0
1624165701653019227,9,1624165701652361106,0.00015618903194081213,-0.000264271440983066,-8.332614797623705e-05,0.0,0.0,0.0,1.0
1624165701702474086,10,1624165701701806974,0.0004182947498065914,-6.92554149281932e-05,-0.0001722827107073499,0.0,0.0,0.0,1.0
1624165701750791379,11,1624165701750067901,0.0001455206793252728,0.0001620608932171308,-0.0002386199978161585,0.0,0.0,0.0,1.0
1624165701802156407,12,1624165701801577043,8.02374320301169e-05,-0.00018717574494075961,-0.00032656912195605514,0.0,0.0,0.0,1.0
1624165701849055214,13,1624165701848489952,8.447243317277753e-06,-0.00013207647816670942,-0.0002835813945907262,0.0,0.0,0.0,1.0
1624165701903000049,14,1624165701902363014,8.108672000162187e-05,-0.0001931994720507646,-0.00031621704610174106,0.0,0.0,0.0,1.0
1624165701950037904,15,1624165701949536037,0.00021165135603951057,9.964481910174072e-05,-0.0005270421807459513,0.0,0.0,0.0,1.0
1624165701999491691,16,1624165701998918008,0.0002838482225797634,4.413684177961841e-05,-0.00032211094109513283,0.0,0.0,0.0,1.0
1624165702047717538,17,1624165702047292900,0.0002201123438680952,-2.972750098706456e-05,-0.0003213524647946997,0.0,0.0,0.0,1.0
1624165702098385634,18,1624165702097452116,0.00024924577132878767,8.229515151469968e-05,-0.00019079170435176707,0.0,0.0,0.0,1.0
1624165702150115938,19,1624165702149675083,0.00022051796713640215,0.00010837367722160707,-0.0002782380458974387,0.0,0.0,0.0,1.0
1624165702198883804,20,1624165702197632980,0.00015310090680031863,0.00016579042630837648,-0.00047785794249222135,0.0,0.0,0.0,1.0
1624165702248216849,21,1624165702247976016,0.0002178883319174929,0.00011232180963816063,-0.000288550665736409,0.0,0.0,0.0,1.0
1624165702298253653,22,1624165702298004102,0.00014500516726911883,0.0001706982839095872,-0.0004988910766421384,0.0,0.0,0.0,1.0
1624165702350471241,23,1624165702350176048,0.00032195000926549255,0.0004223639466545137,-0.000569900286102154,0.0,0.0,0.0,1.0
1624165702400946426,24,1624165702400539112,0.00025768917930690804,7.468294506907114e-05,-0.0006584132251639119,0.0,0.0,0.0,1.0
1624165702449313558,25,1624165702448826980,0.00027319791615809663,0.0004785972250829218,-0.0004893859552161928,0.0,0.0,0.0,1.0
1624165702501683823,26,1624165702501028966,0.00027669828432408394,0.00017954421969079704,-0.0002878703171056429,0.0,0.0,0.0,1.0
1624165702549642124,27,1624165702549112033,5.486357167683309e-05,-8.150877783918986e-05,-0.0002793661104334433,0.0,0.0,0.0,1.0
1624165702604500225,28,1624165702604022932,0.00043206075997659354,0.0002149391712009674,-0.00032244926876145996,0.0,0.0,0.0,1.0
1624165702650387280,29,1624165702649780941,0.0004993054860733537,0.00015226852701744065,-0.0003619767594251755,0.0,0.0,0.0,1.0
1624165702703003451,30,1624165702702388000,7.329321601901029e-05,0.00022536501205649984,-0.00020850829585938868,0.0,0.0,0.0,1.0
1624165702748706178,31,1624165702748160076,-6.791591022192733e-05,-5.480112213263055e-05,-0.0005277877361500316,0.0,0.0,0.0,1.0
1624165702798977755,32,1624165702797841024,0.00019114239125883614,0.00013205431241658516,-0.0003632407972631313,0.0,0.0,0.0,1.0
1624165702850011759,33,1624165702849467945,0.0001878038003724214,0.00013144408831067267,-0.00036801975098654793,0.0,0.0,0.0,1.0
1624165702897066984,34,1624165702896484088,8.489042170367611e-05,0.0001368441828617506,-0.00030450807130932844,0.0,0.0,0.0,1.0
1624165702949636108,35,1624165702949159097,1.552205640109605e-05,-0.00012919614619022468,-0.0002758012201411475,0.0,0.0,0.0,1.0
1624165703001251860,36,1624165703000647020,2.415689459667192e-05,2.2767071413909434e-05,-0.00023918080718488,0.0,0.0,0.0,1.0
1624165703055105794,37,1624165703054479074,0.0003057579981486924,-5.927008191974892e-05,-0.00013192680997420325,0.0,0.0,0.0,1.0
1624165703099929233,38,1624165703099256944,0.0003856099824588455,-2.9551117677328875e-05,-3.998530708315684e-05,0.0,0.0,0.0,1.0
1624165703150634395,39,1624165703149879884,0.00016200752816075692,0.00016089247310446808,-0.00020883675062677298,0.0,0.0,0.0,1.0
1624165703201443763,40,1624165703201149892,0.0004335513565365545,0.00021345370305425604,-0.000317716287934644,0.0,0.0,0.0,1.0
1624165703250255703,41,1624165703249983978,8.513065040460788e-05,0.00022682841313326207,-0.00019052841497924078,0.0,0.0,0.0,1.0
1624165703302761449,42,1624165703302375030,0.00024175610155907634,-5.405868023444782e-06,-0.00032048395262052054,0.0,0.0,0.0,1.0
1624165703348629488,43,1624165703348240089,8.24780909169931e-05,-0.00018642225927578693,-0.00032387034857350727,0.0,0.0,0.0,1.0
1624165703398641181,44,1624165703398004007,0.00012394542795846064,6.530166183438268e-05,-0.00037888748488512647,0.0,0.0,0.0,1.0
1624165703448205593,45,1624165703447543096,0.0001427486292868707,0.00015605486578351702,-0.00023445654719367326,0.0,0.0,0.0,1.0
1624165703501095542,46,1624165703500640106,0.00022817083731752064,-2.2120251060187002e-05,-0.0003188876406916563,0.0,0.0,0.0,1.0
1624165703549551710,47,1624165703548743915,3.789393917941197e-05,-2.72821239377663e-05,-0.000388423834003504,0.0,0.0,0.0,1.0
1624165703599683530,48,1624165703598916959,-0.00016133873259605025,-0.0003072507101933297,-0.00031348516147033934,0.0,0.0,0.0,1.0
1624165703649795348,49,1624165703649317932,-2.344176709812018e-05,-1.2409937653501402e-05,-0.000514787550400797,0.0,0.0,0.0,1.0
1624165703702681501,50,1624165703702015113,-0.0003035743441159866,-0.0001434102100574819,-0.0007977791658682065,0.0,0.0,0.0,1.0
1624165703753060524,51,1624165703752537918,-7.405285236927739e-05,-6.174936493152927e-05,-3.471081700112677e-05,0.0,0.0,0.0,1.0
1624165703799180025,52,1624165703798306894,0.00011591315410441894,-0.00023165918150880316,-0.00044670906349608686,0.0,0.0,0.0,1.0
1624165703850476874,53,1624165703849969100,-0.000357145142970694,-0.000173449446037921,-0.000844521357706185,0.0,0.0,0.0,1.0
1624165703916009530,54,1624165703915385913,-0.000188174146842357,-0.00022514771626447327,-0.00048054995741608764,0.0,0.0,0.0,1.0
1624165703956106835,55,1624165703955594968,-0.00010355791073379805,6.972376218072895e-05,-0.0005259412484264203,0.0,0.0,0.0,1.0
1624165704009248286,56,1624165704008357000,-8.155344562510436e-05,-4.0602335047879023e-05,-0.0005719887488915276,0.0,0.0,0.0,1.0
1624165704047649532,57,1624165704047352027,7.196343699433783e-05,-0.00017107413623307366,-0.0001178330970610375,0.0,0.0,0.0,1.0
1624165704096951188,58,1624165704096678924,0.00024535022544114327,-0.0003356993909164885,-7.260921240259677e-05,0.0,0.0,0.0,1.0
1624165704149266575,59,1624165704149034929,0.00021087164122945978,-0.00031632282093596586,-0.00015993265949632018,0.0,0.0,0.0,1.0
1624165704199391214,60,1624165704199165058,3.956557384299231e-05,-0.00028587035376403946,-3.2218498802194517e-06,0.0,0.0,0.0,1.0
1624165704248438747,61,1624165704248199892,-5.110118854645407e-05,-0.00015080419984769833,-0.0006038444661520259,0.0,0.0,0.0,1.0
1624165704298759068,62,1624165704298474979,-0.0005245402876425942,-0.0004965182426985848,-0.0008982939322415007,0.0,0.0,0.0,1.0
1624165704347343408,63,1624165704346660089,-0.00021212429669503763,-0.0003344611900502059,-0.0006062932336590166,0.0,0.0,0.0,1.0
1624165704402866550,64,1624165704402049970,-6.0876573115820065e-06,-0.00010905612043643487,-0.00034235371254354163,0.0,0.0,0.0,1.0
1624165704451085411,65,1624165704450408887,-0.00019500095504554338,-0.00036416908528735803,-0.0002866059343560323,0.0,0.0,0.0,1.0
1624165704501701775,66,1624165704501136016,0.00012321495705691632,0.00018379573020865791,-0.0005553368757809096,0.0,0.0,0.0,1.0
1624165704550090975,67,1624165704549523067,-0.0001474890621011582,1.8912570567408693e-05,-0.0005255675376787394,0.0,0.0,0.0,1.0
1624165704603810532,68,1624165704603363943,-0.0001398260931182449,-0.00032580177889940387,-2.8225454435926167e-06,0.0,0.0,0.0,1.0
1624165704651887247,69,1624165704651379060,0.0001480270068441314,0.00016963079406195902,-0.00024554799847820163,0.0,0.0,0.0,1.0
1624165704699052494,70,1624165704698455047,0.0001858909988641244,8.041998853514087e-06,-0.00018880981373570194,0.0,0.0,0.0,1.0
1624165704748796884,71,1624165704748548936,0.0002622752576826315,1.891535248432774e-05,-0.0003215285180786509,0.0,0.0,0.0,1.0
1624165704798753326,72,1624165704798531961,0.00032127882127497287,-6.139901915958035e-05,-0.00010236697664822714,0.0,0.0,0.0,1.0
1624165704849886700,73,1624165704849652004,-5.3026264595246175e-05,-6.522316175505694e-05,-0.0002404177808621455,0.0,0.0,0.0,1.0
1624165704903656333,74,1624165704903267097,1.4709947663504863e-05,-0.0001253834254839603,-0.00028282077208530154,0.0,0.0,0.0,1.0
1624165704948165388,75,1624165704947586965,0.00047930244886629225,0.00021367347062550834,6.4387125249254495e-06,0.0,0.0,0.0,1.0
1624165704998435736,76,1624165704997558069,4.774764374815277e-05,0.00039485623915425094,-0.000502589858751179,0.0,0.0,0.0,1.0
1624165705052004085,77,1624165705051310968,-0.0001755443581714644,-0.0003264129470608168,-0.00030932463319999215,0.0,0.0,0.0,1.0
1624165705152269501,79,1624165705151903104,1.161241425506887e-05,-0.00011350931958986621,-0.0003056491782977844,0.0,0.0,0.0,1.0
1624165705201434198,80,1624165705200905990,0.00015160146062953572,3.516089782351628e-05,-0.0002872588426257039,0.0,0.0,0.0,1.0
1624165705250297966,81,1624165705249938917,-9.52796349338314e-05,-0.0001129087825120223,-0.00024181040164705792,0.0,0.0,0.0,1.0
1624165705305279307,82,1624165705304877948,-0.0002440798973566416,-2.4354190372832818e-05,-0.0006259577677703021,0.0,0.0,0.0,1.0
1624165705350535630,83,1624165705350291919,-1.558278336233343e-05,0.00031186181240627775,-0.0004876421030175493,0.0,0.0,0.0,1.0
1624165705398935944,84,1624165705398548078,6.529440770464134e-05,6.562163775925e-05,-0.000479165894255118,0.0,0.0,0.0,1.0
1624165705448111388,85,1624165705447730970,0.00024227919675468002,0.0004364085514225735,-0.0004796198333245627,0.0,0.0,0.0,1.0
1624165705498432646,86,1624165705498094034,0.0003827197399459692,0.0002999017194724729,-0.00028541613509602826,0.0,0.0,0.0,1.0
1624165705549878118,87,1624165705549184989,-9.236241567123216e-07,0.00018718104183790274,-0.0007715845715026148,0.0,0.0,0.0,1.0
1624165705598502719,88,1624165705597839069,0.00017644375225245312,0.00011233955478928692,-0.0006057245789001797,0.0,0.0,0.0,1.0
1624165705650713555,89,1624165705650287103,0.00010033389457930753,0.00022302719889921718,-0.00015903655374316372,0.0,0.0,0.0,1.0
1624165705697996221,90,1624165705697389078,-0.00021762291680715862,-0.00025716424647725944,-0.00023669903137601978,0.0,0.0,0.0,1.0
1624165705752768953,91,1624165705752242994,0.0002926639617726323,5.6106024430846446e-05,-0.0003248071142820663,0.0,0.0,0.0,1.0
1624165705801823244,92,1624165705801398944,-8.045821232371964e-05,-3.298883484603721e-05,-0.000581382416655174,0.0,0.0,0.0,1.0
1624165705850984697,93,1624165705850573015,1.7738353790264227e-05,-0.00012283455748729466,-0.0002814362014156302,0.0,0.0,0.0,1.0
1624165705902089240,94,1624165705901719045,8.681569852342363e-05,-0.00018278089783052565,-7.524890173726817e-05,0.0,0.0,0.0,1.0
1624165705949976937,95,1624165705949676942,8.262807205028366e-05,-0.00018729552562035678,-0.0003223238911651549,0.0,0.0,0.0,1.0
1624165706003626210,96,1624165706003284883,0.00034195745502074715,-8.515791773788806e-05,-3.2047083980302205e-05,0.0,0.0,0.0,1.0
1624165706050944160,97,1624165706050507974,-8.189409527403768e-06,-0.00019523278183442017,-0.00021850689987701344,0.0,0.0,0.0,1.0
1624165706098438786,98,1624165706098006916,-4.314676971262088e-05,-3.197367868779111e-05,-0.0002727695576965061,0.0,0.0,0.0,1.0
1624165706149013273,99,1624165706148340892,1.1882987564604264e-05,-7.56848230594187e-05,-0.0006077387605536444,0.0,0.0,0.0,1.0
1624165706200291359,100,1624165706199870061,-5.660451324729365e-05,-5.644207180921512e-05,-0.0005061131540315955,0.0,0.0,0.0,1.0
1624165706249072719,101,1624165706248835992,4.6313613438542234e-05,-0.00023023531775834272,-0.00032062767096263656,0.0,0.0,0.0,1.0
1624165706298172925,102,1624165706297873926,3.823695874416444e-05,-0.00022977997696216335,-8.842057536995185e-05,0.0,0.0,0.0,1.0
1624165706385398240,103,1624165706385050964,-0.00015615545248692797,-0.00031907327684166376,-0.00028718363112645307,0.0,0.0,0.0,1.0
1624165706454594300,104,1624165706454162073,-6.983748562561232e-06,-0.00011367302317921713,-0.000583673925767414,0.0,0.0,0.0,1.0
1624165706501527078,105,1624165706501083087,0.00010383764288235398,-0.00021728930323661189,-0.0002418820539809019,0.0,0.0,0.0,1.0
1624165706549589153,106,1624165706548814010,-5.074427690487937e-06,-0.00048663134566595545,-2.8956244499056538e-05,0.0,0.0,0.0,1.0
1624165706604296191,107,1624165706603594017,2.7214127840125002e-08,-0.0002768261094843183,-0.00033050193855643784,0.0,0.0,0.0,1.0
1624165706652569711,108,1624165706651989889,1.982889079954475e-05,-0.00012384626688799472,-0.0005230053922424815,0.0,0.0,0.0,1.0
1624165706701105444,109,1624165706700559091,0.00014856438042443187,-0.00024721669706195826,-0.0003681432829623077,0.0,0.0,0.0,1.0
1624165706748428101,110,1624165706748171997,0.00018389245337857574,-6.778446049793274e-05,-0.00032671562929564857,0.0,0.0,0.0,1.0
1624165706798607722,111,1624165706798252058,-4.065837811140227e-05,-8.289163793051557e-05,5.337849973230391e-05,0.0,0.0,0.0,1.0
1624165706847482181,112,1624165706847258996,0.00010245280805065704,-0.00021331198513507843,-0.0002501196128257277,0.0,0.0,0.0,1.0
1624165706902174147,113,1624165706901920986,0.0003854444646549382,8.21890132556291e-05,-0.00045211302270686815,0.0,0.0,0.0,1.0
1624165706948982056,114,1624165706948400926,5.4483418352901936e-05,-0.00016151992576851626,-0.0004083296396544256,0.0,0.0,0.0,1.0
1624165707002640769,115,1624165707002124977,-0.00011626295145106269,8.211585509343422e-05,-0.0008125035465091912,0.0,0.0,0.0,1.0
1624165707050625601,116,1624165707049935054,8.323573501911596e-05,-0.00018929393218058976,-0.00031833493867239326,0.0,0.0,0.0,1.0
1624165707104062456,117,1624165707103467893,-0.000120175748861584,-0.00010592714079393772,-0.00029449894924127307,0.0,0.0,0.0,1.0
1624165707150702056,118,1624165707150206041,1.7007092083076714e-05,-0.00012503425955401326,-0.0005260505834243645,0.0,0.0,0.0,1.0
1624165707202627836,119,1624165707201864910,4.9623183031144436e-05,-7.032071880530566e-05,-0.0005514488783475713,0.0,0.0,0.0,1.0
1624165707249844647,120,1624165707249160003,0.0005729052938932,9.182815711028525e-05,-0.0006406101307980805,0.0,0.0,0.0,1.0
1624165707313798215,121,1624165707313290071,0.0002926537954408559,4.409582106745802e-05,0.00018618510697976376,0.0,0.0,0.0,1.0
1624165707353294241,122,1624165707352580022,0.00022112592114353902,-0.00014170527970236435,-0.00015405405405743977,0.0,0.0,0.0,1.0
1624165707397828304,123,1624165707397488069,0.00045294177175492223,0.00024332445286745497,-0.00032888688996024484,0.0,0.0,0.0,1.0
1624165707449402765,124,1624165707449087095,0.00020819711380681838,0.00012201233585074078,-7.274665831857874e-05,0.0,0.0,0.0,1.0
1624165707497640679,125,1624165707497000885,8.018272296794748e-05,-0.00018348863704886753,-0.00033211408043243296,0.0,0.0,0.0,1.0
1624165707549944013,126,1624165707549584102,0.00024100070277199848,5.971725840936415e-06,-0.00033859255706403246,0.0,0.0,0.0,1.0
1624165707598322900,127,1624165707597870063,0.00017886591535898333,-0.00027783725226981915,-0.00027130295979915786,0.0,0.0,0.0,1.0
1624165707651158731,128,1624165707650701951,0.00033731446865203907,5.201382919040043e-06,-0.0004201804023509226,0.0,0.0,0.0,1.0
1624165707702499812,129,1624165707701915931,0.00034623317333171144,-0.0002943718636743142,-0.00020867043827976772,0.0,0.0,0.0,1.0
1624165707752921573,130,1624165707752462100,-2.3680849380980362e-05,-1.6622170733171515e-05,-0.0005089661337471796,0.0,0.0,0.0,1.0
1624165707802677401,131,1624165707802349996,0.00024575795100645337,-1.3702190244657686e-06,-0.0003196412320569664,0.0,0.0,0.0,1.0
1624165707849586294,132,1624165707849239063,0.00010367853906245728,-0.00022082659552324913,-0.00023692243895112597,0.0,0.0,0.0,1.0
1624165707901795562,133,1624165707901507091,7.354480976573541e-05,-0.00017733273898556945,-0.0005991342417566159,0.0,0.0,0.0,1.0
1624165707952335307,134,1624165707951939058,0.00018562817240308505,0.00013223404926065996,-0.0003728900368997756,0.0,0.0,0.0,1.0
1624165708002400188,135,1624165708001836013,0.00021047989775979659,0.0001141628383720672,-0.0005505020476235245,0.0,0.0,0.0,1.0
1624165708048302863,136,1624165708047081899,0.0001530965848814958,9.547618196847907e-05,-0.000620519575875278,0.0,0.0,0.0,1.0
1624165708097964299,137,1624165708097293090,-6.435908744606422e-06,-9.853048095465056e-05,-0.0006051316041819632,0.0,0.0,0.0,1.0
1624165708149259113,138,1624165708148769092,0.0001883689158148627,0.00012490127119235694,-0.000604005627124593,0.0,0.0,0.0,1.0
1624165708208806016,139,1624165708208162975,-0.00015832819212846516,-0.00032271912618853094,-0.000285490057613913,0.0,0.0,0.0,1.0
1624165708248645153,140,1624165708248136949,0.00011711128922797798,-9.235234369953105e-05,-0.00040402962160257516,0.0,0.0,0.0,1.0
1624165708298079421,141,1624165708297587108,-0.00013293309598338965,-0.0002899646490277519,-0.0002907076249663021,0.0,0.0,0.0,1.0
1624165708351304241,142,1624165708350825023,0.00021998764805175597,0.00010902919302679948,-0.00028010974543946077,0.0,0.0,0.0,1.0
1624165708403736851,143,1624165708403310012,0.00023308295976676163,8.688748880558705e-05,-0.0002250863003112613,0.0,0.0,0.0,1.0
1624165708452045968,144,1624165708451355886,3.572714604160865e-06,-0.00010187924408455729,-0.0003365267309263231,0.0,0.0,0.0,1.0
1624165708502601502,145,1624165708502057981,0.00019453067534414004,2.3511947802035138e-05,-0.00019698198364537234,0.0,0.0,0.0,1.0
1624165708551076808,146,1624165708550225925,0.00042595407512635575,-6.862231975901523e-05,-0.0001601848815688811,0.0,0.0,0.0,1.0
1624165708602763537,147,1624165708602084112,8.538027259419323e-06,9.17402348932228e-06,-0.0002456602438272171,0.0,0.0,0.0,1.0
1624165708652933100,148,1624165708652442884,0.00012451587008399656,0.000192916173091362,-0.0005666086445721419,0.0,0.0,0.0,1.0
1624165708701943207,149,1624165708701497030,6.018226645210234e-05,0.00025758445326573565,-0.0005250810944730233,0.0,0.0,0.0,1.0
1624165708748948531,150,1624165708748506975,0.0001690522483386303,0.0001528172153939522,-0.0004315315492959826,0.0,0.0,0.0,1.0
1624165708798539021,151,1624165708797826004,0.00041705359831212263,-0.00011608493332460057,-0.00010515103251407254,0.0,0.0,0.0,1.0
1624165708851964666,152,1624165708851350975,0.00028435665535653243,4.827611815017008e-05,-0.0003273661589702215,0.0,0.0,0.0,1.0
1624165708902287668,153,1624165708901705932,0.000322374194411168,0.00031075586866791127,-0.00015753161397569215,0.0,0.0,0.0,1.0
1624165708947027405,154,1624165708946436119,0.00018985253063874552,0.0001286234407871234,-0.000606984604250016,0.0,0.0,0.0,1.0
1624165708999427448,155,1624165708998990011,7.702163384237792e-05,0.00022581020380130212,-0.00020282193966636441,0.0,0.0,0.0,1.0
1624165709050864445,156,1624165709050281000,1.4577266938431421e-05,-0.00012382260933918587,-0.00028535441974852915,0.0,0.0,0.0,1.0
1624165709102854412,157,1624165709102424097,0.0003967687073327397,3.6251073879611795e-05,-0.0003649181437381799,0.0,0.0,0.0,1.0
1624165709152412180,158,1624165709151872110,7.750955978735874e-05,0.00023457939846593945,-0.00021495793701475918,0.0,0.0,0.0,1.0
1624165709200971468,159,1624165709200190973,0.00010754876439023064,0.00020525384297798155,-0.00012047891701882918,0.0,0.0,0.0,1.0
1624165709249932943,160,1624165709249665927,-0.00014974483246987802,0.00014933055945220985,-0.0007222423377655218,0.0,0.0,0.0,1.0
1624165709299548496,161,1624165709299323034,0.00014409319464903092,-0.00011617353334258951,-0.00032289233759641434,0.0,0.0,0.0,1.0
1624165709350763730,162,1624165709350470018,0.00015362014028141857,-0.0002503989860542788,-0.0003548345406763076,0.0,0.0,0.0,1.0
1624165709397909348,163,1624165709397623014,-5.735686613661528e-05,-6.69631820073846e-05,-0.00024521426414736425,0.0,0.0,0.0,1.0
1624165709449251434,164,1624165709448743057,0.0003160466205827106,2.1691858137273812e-05,-0.0004807546801259832,0.0,0.0,0.0,1.0
1624165709498609835,165,1624165709498160076,0.0002348301354686555,0.0001623857285721897,-0.00033374627533433454,0.0,0.0,0.0,1.0
1624165709550057620,166,1624165709549642038,0.00036004685034640715,0.0002672216453447618,-0.000275677407167052,0.0,0.0,0.0,1.0
1624165709599808828,167,1624165709599044990,9.312576185038779e-05,0.0004990902505142003,-0.0005794908141041333,0.0,0.0,0.0,1.0
1624165709651636099,168,1624165709651188087,0.00020161766201454157,0.0001230614034284372,-0.00033211808950284194,0.0,0.0,0.0,1.0
1624165709701938403,169,1624165709701415014,0.00010376523982813524,0.00021002391622459982,-0.0006272148664479005,0.0,0.0,0.0,1.0
1624165709753880022,170,1624165709752686929,-8.025118563637079e-05,-4.485301406020881e-05,-0.0008101075836961513,0.0,0.0,0.0,1.0
1624165709802676559,171,1624165709802288961,0.00014655670929641929,0.00016231027393587283,-0.00023722573108386769,0.0,0.0,0.0,1.0
1624165709848625527,172,1624165709848185014,0.00037511972300308116,0.00038403173311962746,-0.0006693654961296147,0.0,0.0,0.0,1.0
1624165709901678168,173,1624165709901052904,0.0001714483639716491,0.00015499652931794117,-0.0006772976318991653,0.0,0.0,0.0,1.0
1624165709949876886,174,1624165709949438047,-7.647101188013039e-05,0.00029669565788026375,-0.0008154481948352554,0.0,0.0,0.0,1.0
1624165710001531773,175,1624165710000944089,-2.9230001928226557e-05,-7.977695349836722e-05,-0.0006716485693090135,0.0,0.0,0.0,1.0
1624165710049955717,176,1624165710049040031,0.00021534590905503137,0.0001152791066942882,-0.0002972498049196304,0.0,0.0,0.0,1.0
1624165710099329420,177,1624165710098453950,0.00014717683643539203,-0.00011176948623869976,-0.0003241568743987955,0.0,0.0,0.0,1.0
1624165710149428308,178,1624165710148848009,-5.140606890563504e-05,-6.180101740937971e-05,-0.0004893433034567352,0.0,0.0,0.0,1.0
1624165710200442406,179,1624165710199597072,0.00011728928257070947,0.00019037556694456725,-0.0005751493872914182,0.0,0.0,0.0,1.0
1624165710249419353,180,1624165710248794984,0.00017765581151252263,6.618440761485544e-05,-0.00028879438850992756,0.0,0.0,0.0,1.0
1624165710299625540,181,1624165710297929000,-1.2111916703361203e-05,-9.74663714714552e-05,-0.0006163636705629472,0.0,0.0,0.0,1.0
1624165710350230023,182,1624165710349642944,0.00019240789606556064,0.00013864907737115573,-0.0006174601201749397,0.0,0.0,0.0,1.0
1624165710403100023,183,1624165710402485084,0.00012364823169264128,0.00019049473098675662,-0.0005645047353652899,0.0,0.0,0.0,1.0
1624165710451057187,184,1624165710450396013,-0.0004862578155098163,-1.3103552419124753e-05,-0.0010546918491627366,0.0,0.0,0.0,1.0
1624165710503249461,185,1624165710501975965,-0.0001386275391723757,-0.00011435047554186895,-0.0008066848569434626,0.0,0.0,0.0,1.0
1624165710549996928,186,1624165710549514961,-5.820519027111004e-05,-0.0003481005239791557,-0.0005708288121688554,0.0,0.0,0.0,1.0
1624165710599579466,187,1624165710598972988,-0.00016030358870011696,-0.0003010546529367275,-0.0005675075389532935,0.0,0.0,0.0,1.0
1624165710648997235,188,1624165710648761940,-0.00014732815429852053,2.0220974192852736e-05,-0.0007738482440338146,0.0,0.0,0.0,1.0
1624165710697042060,189,1624165710696748924,-0.00020763489806086,7.894478994785459e-05,-0.0007166790089101482,0.0,0.0,0.0,1.0
1624165710748293752,190,1624165710747982931,0.00011699593028424715,0.00016871986372279935,-0.0005436284192867902,0.0,0.0,0.0,1.0
1624165710798366671,191,1624165710798086118,0.00010918938119175436,0.00013167960310056515,-0.000502144725494702,0.0,0.0,0.0,1.0
1624165710852140334,192,1624165710851659011,-0.00010410896447865525,6.852757815067889e-05,-0.0005251102713579314,0.0,0.0,0.0,1.0
1624165710899120656,193,1624165710898543071,0.00016017029588510923,0.00029786876325488265,-0.0006611190595222638,0.0,0.0,0.0,1.0
1624165710948123196,194,1624165710947545003,0.00014332344994727464,0.00016906714472497697,-0.00025271858907771616,0.0,0.0,0.0,1.0
1624165711000742274,195,1624165711000128936,-1.0732886494224658e-05,0.0003236828420085658,-0.000743487550163735,0.0,0.0,0.0,1.0
1624165711052184930,196,1624165711051634025,5.5145713758975035e-05,0.0002536120284730714,-0.0005277780293759804,0.0,0.0,0.0,1.0
1624165711102641908,197,1624165711102108907,0.0003490010460609483,8.453614304926305e-05,-0.0002709758068561996,0.0,0.0,0.0,1.0
1624165711150922314,198,1624165711150342893,0.00019204962154617533,-0.0001974548322323244,-0.0003677242532234004,0.0,0.0,0.0,1.0
1624165711200808979,199,1624165711200267982,0.0002182185949095583,0.00011836013004540291,-0.00029691703256773394,0.0,0.0,0.0,1.0
1624165711250366105,200,1624165711250117969,0.0001970378013993468,0.00022098508156886965,-0.0002380799685255397,0.0,0.0,0.0,1.0
1624165711302619106,201,1624165711302379083,0.0002937421511433058,5.162023194316134e-05,-0.0003163395854350881,0.0,0.0,0.0,1.0
1624165711349781867,202,1624165711349386882,5.801311226605321e-05,-9.102641934077838e-05,-1.3308912421905461e-05,0.0,0.0,0.0,1.0
1624165711398865476,203,1624165711398558092,8.508556425113056e-05,0.00010754782420008269,-0.00026085784760354613,0.0,0.0,0.0,1.0
1624165711447538041,204,1624165711447145891,-0.00017877185109682614,8.936141966842115e-06,-0.0005640490831133604,0.0,0.0,0.0,1.0
1624165711503102922,205,1624165711502508115,0.00022081017345954024,0.00010798025641634013,-0.0005237816455299082,0.0,0.0,0.0,1.0
1624165711549620318,206,1624165711548958969,0.0002589183775398851,0.0001552020125927811,-0.00028213350707417817,0.0,0.0,0.0,1.0
1624165711602185824,207,1624165711601644945,-7.580348938063253e-05,-4.9485101271784515e-05,-0.00030244813835267337,0.0,0.0,0.0,1.0
1624165711649918119,208,1624165711649528932,-0.00013275886658448144,0.0001148376622950309,-0.00039571625951140277,0.0,0.0,0.0,1.0
1624165711702989554,209,1624165711702700090,-0.0002766748914382333,0.00012248968573658203,-0.00040530691876483615,0.0,0.0,0.0,1.0
1624165711748753950,210,1624165711748403024,5.5574947964487365e-05,0.0002571198326677404,-0.0005322342542086744,0.0,0.0,0.0,1.0
1624165711802356570,211,1624165711801972103,0.0004229902758652315,-7.320575082303549e-05,-0.0004050755933029393,0.0,0.0,0.0,1.0
1624165711849827286,212,1624165711849352073,-2.1411096213341807e-05,3.3214854511243175e-05,-0.00033217154274112204,0.0,0.0,0.0,1.0
1624165711903084557,213,1624165711902331066,-8.477710866827692e-05,5.213852318775025e-05,-0.0004679808383514228,0.0,0.0,0.0,1.0
1624165711951325793,214,1624165711950900983,0.00012823361521441257,0.00019919889632546983,-0.0005695718969143115,0.0,0.0,0.0,1.0
1624165711999211146,215,1624165711998446893,0.00015176521674220567,0.0005104736708290147,-0.0004965369689138299,0.0,0.0,0.0,1.0
1624165712048672267,216,1624165712048068952,0.0006151056481940032,0.0006115959029102669,-0.0005974588191897112,0.0,0.0,0.0,1.0
1624165712098739402,217,1624165712098121118,0.00014829845463282254,0.0001707190399429237,-0.0002466951788910876,0.0,0.0,0.0,1.0
1624165712151411572,218,1624165712151065063,0.00012239678744663252,0.00029267662239362835,-0.00047109947690060494,0.0,0.0,0.0,1.0
1624165712198263239,219,1624165712197992992,0.0002803726390538941,0.00023654867732147977,-0.0006125269938124234,0.0,0.0,0.0,1.0
1624165712250037820,220,1624165712249770116,0.0003574033773929841,-1.057511485669238e-05,-0.00036266785638261467,0.0,0.0,0.0,1.0
1624165712300405651,221,1624165712300018978,0.0002673108670023794,-5.16202619564865e-05,-0.0004552872738976532,0.0,0.0,0.0,1.0
1624165712351965282,222,1624165712351644945,0.00021078212898828497,-0.0002985303192417632,-0.0004330178461877665,0.0,0.0,0.0,1.0
1624165712404502198,223,1624165712403733921,0.00033286523762399156,6.703030067001237e-06,-0.00042997197083494143,0.0,0.0,0.0,1.0
1624165712450156384,224,1624165712449543905,0.00044957257068745093,-9.898331632030022e-05,-7.51001314611699e-05,0.0,0.0,0.0,1.0
1624165712503154557,225,1624165712502365064,0.00034845146751649736,-0.00034911805096271564,-0.00012394554831374194,0.0,0.0,0.0,1.0
1624165712550347444,226,1624165712549423885,0.00038093048124210327,-0.00045871356019233644,-0.00015324879836242644,0.0,0.0,0.0,1.0
1624165712599645080,227,1624165712598655891,0.0008855135235990019,-0.00014614545420954528,-3.3930240554980173e-06,0.0,0.0,0.0,1.0
1624165712649476385,228,1624165712648899030,0.00035520874234862276,-0.00042716299276435166,-0.0004902960495734021,0.0,0.0,0.0,1.0
1624165712698313390,229,1624165712697942924,0.0005866020273970207,-0.00019998884408778395,-0.0004324413299023888,0.0,0.0,0.0,1.0
1624165712748454619,230,1624165712748183917,0.0007031679822375736,-0.0003041319414478494,-0.0005733406904830929,0.0,0.0,0.0,1.0
1624165712798663582,231,1624165712798395109,0.0005564483165017009,-0.0004711123390279681,-0.000576111364669174,0.0,0.0,0.0,1.0
1624165712851750145,232,1624165712851212930,0.0006327313353722275,-0.0009961771520465845,-0.0004097935902969141,0.0,0.0,0.0,1.0
1624165712899398867,233,1624165712898649883,0.0010913980579516647,-0.0010817425691129756,3.996369859038396e-06,0.0,0.0,0.0,1.0
1624165712950611927,234,1624165712950092983,0.0009076398137040087,-0.0009034530444296252,-0.0005723389422129799,0.0,0.0,0.0,1.0
1624165713002970582,235,1624165713001875114,0.001333715268629021,-0.0012799330329471559,-3.0472879650744744e-05,0.0,0.0,0.0,1.0
1624165713050620376,236,1624165713050055932,0.0012501167873324448,-0.001628588608582504,-0.0003970758137405994,0.0,0.0,0.0,1.0
1624165713102987233,237,1624165713102559995,0.0011607184885633615,-0.0018380559911292949,-0.00023947097432497344,0.0,0.0,0.0,1.0
1624165713149516757,238,1624165713149188947,0.001496999647542907,-0.0021240195483187563,1.575360873218301e-05,0.0,0.0,0.0,1.0
1624165713199411190,239,1624165713199174118,0.00161557833621373,-0.0019285726978068851,-0.00031809594679188535,0.0,0.0,0.0,1.0
1624165713251340602,240,1624165713250868034,0.0015157744517182437,-0.002098570472526262,1.0071821574086925e-05,0.0,0.0,0.0,1.0
1624165713297185093,241,1624165713296821069,0.0013985926043460495,-0.0017440686833651853,-0.0004669111369004497,0.0,0.0,0.0,1.0
1624165713350247438,242,1624165713349641990,0.0009460296889756137,-0.0013642977880863327,-7.220364407700686e-05,0.0,0.0,0.0,1.0
1624165713398996983,243,1624165713398589086,0.0007428186086144706,-0.0007602664416026528,-0.0003246608922751193,0.0,0.0,0.0,1.0
1624165713448742375,244,1624165713447899055,0.0005393542821821029,-0.00025450928524151095,-0.00043222748521998255,0.0,0.0,0.0,1.0
1624165713504207800,245,1624165713503714036,0.00018277197591487493,0.00026192767518296023,-0.0003228943467092904,0.0,0.0,0.0,1.0
1624165713548270914,246,1624165713547810983,8.349941117558046e-05,0.0009763884945641621,-0.0003151169087374228,0.0,0.0,0.0,1.0
1624165713599281595,247,1624165713598783922,-0.0003650774945072044,0.0010380178184732358,-0.0004297135091277937,0.0,0.0,0.0,1.0
1624165713650864548,248,1624165713650387001,-0.0003138485797080648,0.0010028051851804776,-0.00029047413413962886,0.0,0.0,0.0,1.0
1624165713703485297,249,1624165713702969026,-1.067451171365974e-05,0.0007307000557830179,-0.0003587199173082922,0.0,0.0,0.0,1.0
1624165713751478224,250,1624165713751026105,0.00019390941861274769,-0.00019634368686638481,-0.00036620242747176235,0.0,0.0,0.0,1.0
1624165713802245652,251,1624165713801917982,0.0005856688289895828,-0.0006185388756421162,-0.0005550217465639662,0.0,0.0,0.0,1.0
1624165713850075817,252,1624165713849813890,0.0013305623283486057,-0.0012830271091388568,-3.126323683488863e-05,0.0,0.0,0.0,1.0
1624165713902282596,253,1624165713902024936,0.0018367869120083924,-0.0024268663823932,-0.00019135448827967139,0.0,0.0,0.0,1.0
1624165713951716908,254,1624165713951339912,0.002719904555078756,-0.003321497164279208,-7.855922036270613e-05,0.0,0.0,0.0,1.0
1624165713997902937,255,1624165713997419071,0.0033061787312362867,-0.0038207040556699212,-6.910315010344448e-05,0.0,0.0,0.0,1.0
1624165714046910735,256,1624165714046436977,0.003610747371567413,-0.00475989728283821,0.00011159344267142046,0.0,0.0,0.0,1.0
1624165714096616768,257,1624165714096320104,0.0037545391876392387,-0.004636152902776303,-7.33359885494167e-05,0.0,0.0,0.0,1.0
1624165714148228652,258,1624165714147895050,0.0036196152605043608,-0.00482759791702847,0.00022680275365871694,0.0,0.0,0.0,1.0
1624165714198291476,259,1624165714198029947,0.003115394863243637,-0.003760583438406684,1.0595234776644702e-05,0.0,0.0,0.0,1.0
1624165714249612208,260,1624165714249359083,0.001241117044855855,-0.0016066005885022605,-0.00019827443573205983,0.0,0.0,0.0,1.0
1624165714302067501,261,1624165714301732015,0.0003601488947424514,-9.459870966566086e-05,1.2869138355853238e-05,0.0,0.0,0.0,1.0
1624165714352285824,262,1624165714352026891,-0.0007390652751837479,0.0015816089387499233,-0.00039014197057696265,0.0,0.0,0.0,1.0
1624165714402569960,263,1624165714402275037,-0.0015826066885438195,0.003263909185761804,-0.000367046943114957,0.0,0.0,0.0,1.0
1624165714449879570,264,1624165714449555110,-0.002490331408807833,0.004980009209248237,-9.887738002589685e-06,0.0,0.0,0.0,1.0
1624165714503156669,265,1624165714502678108,-0.0030242541220104613,0.005142510382938781,7.43732043453349e-05,0.0,0.0,0.0,1.0
1624165714550529341,266,1624165714549906921,-0.0027715368444205524,0.005213619215737708,0.000399268224647642,0.0,0.0,0.0,1.0
1624165714603374297,267,1624165714602827978,-0.0027000472282452392,0.005152914894551941,0.00011744780494638007,0.0,0.0,0.0,1.0
1624165714657011377,268,1624165714655885887,-0.0019500906785197003,0.003785760617347478,0.0009488182184753668,0.0,0.0,0.0,1.0
1624165714699077786,269,1624165714698584985,-0.0006954484606467304,0.002872482333032167,0.0029545583212247095,0.0,0.0,0.0,1.0
1624165714749267703,270,1624165714748613071,0.00025885802801894897,0.0021118572726663842,0.006443563219892923,0.0,0.0,0.0,1.0
1624165714817058611,271,1624165714816343975,0.003418036611947173,-0.00025182739318552194,0.02099411200525836,0.0,0.0,0.0,1.0
1624165714898897024,272,1624165714898173046,0.007911590447747585,-0.002114394871341574,0.050175277441702804,0.0,0.0,0.0,1.0
1624165714939827906,273,1624165714939398002,0.010786835504859482,-0.0029029318927769054,0.06860410541635886,0.0,0.0,0.0,1.0
1624165715022273424,274,1624165715021587085,0.016225706245450056,-0.003981030826935239,0.11437289311041354,0.0,0.0,0.0,1.0
1624165715069187946,275,1624165715068577003,0.01940817134709505,-0.0045828166807950765,0.1415146856132239,0.0,0.0,0.0,1.0
1624165715106920257,276,1624165715106336069,0.02380354777346838,-0.004719947969306304,0.1740368616851029,0.0,0.0,0.0,1.0
1624165715152249979,277,1624165715151601028,0.027302281241645687,-0.004796608088781795,0.20745002429789494,0.0,0.0,0.0,1.0
1624165715208690014,278,1624165715207946014,0.03152582982261265,-0.004204093819225818,0.24487685875110898,0.0,0.0,0.0,1.0
1624165715250193967,279,1624165715249949884,0.036673702781854445,-0.003942697843967835,0.2871753605093552,0.0,0.0,0.0,1.0
1624165715301163385,280,1624165715300959062,0.04727157932757109,-0.0018942195943054685,0.3816762835866925,0.0,0.0,0.0,1.0
1624165715349271946,281,1624165715348958921,0.05252724019055677,0.0012239490254160046,0.42957097590891635,0.0,0.0,0.0,1.0
1624165715405172861,282,1624165715404756975,0.05924532876952071,0.004413074861531641,0.4814758043054148,0.0,0.0,0.0,1.0
1624165715455246238,283,1624165715454703044,0.06484734839091288,0.007586903609990259,0.5358216649387302,0.0,0.0,0.0,1.0
1624165715507206540,284,1624165715506528091,0.07302255724607676,0.013972678199934307,0.5961824166469114,0.0,0.0,0.0,1.0
1624165715555245709,285,1624165715554809999,0.08497573510726397,0.023348639282403383,0.7172546785269276,0.0,0.0,0.0,1.0
1624165715607163454,286,1624165715606393051,0.09275155272507618,0.027344398184141028,0.7859832182158897,0.0,0.0,0.0,1.0
1624165715655498220,287,1624165715654926967,0.099431673931349,0.03429550971259232,0.8499560744581274,0.0,0.0,0.0,1.0
1624165715707105310,288,1624165715706519079,0.10807210666575884,0.04020494897622484,0.9193751983037828,0.0,0.0,0.0,1.0
1624165715754186174,289,1624165715753452014,0.12320264449795104,0.0540874411826735,1.0581049208317488,0.0,0.0,0.0,1.0
1624165715806572148,290,1624165715806005907,0.12893570153937617,0.06253353409283591,1.1248206995709609,0.0,0.0,0.0,1.0
1624165715854702887,291,1624165715853989076,0.14013973382543554,0.07404782993012304,1.1987697370346062,0.0,0.0,0.0,1.0
1624165715908639033,292,1624165715908072900,0.14510503900032745,0.07723068754921769,1.2725795533355395,0.0,0.0,0.0,1.0
1624165715955537016,293,1624165715955300045,0.15927077394871958,0.09344906533692665,1.422089700967284,0.0,0.0,0.0,1.0
1624165716054278830,295,1624165716053924036,0.1760860455403872,0.10861319054606611,1.5731133547291236,0.0,0.0,0.0,1.0
1624165716107366894,296,1624165716106992912,0.1816394227416822,0.1167418964114404,1.6440440948114343,0.0,0.0,0.0,1.0
1624165716156879351,297,1624165716156429958,0.18980751552749098,0.12687309010311765,1.7157224252305028,0.0,0.0,0.0,1.0
1624165716207716163,298,1624165716207114887,0.20447252972508068,0.143928612179252,1.86162861542077,0.0,0.0,0.0,1.0
1624165716254490841,299,1624165716254122924,0.21106238746961026,0.15442434158899232,1.9353664347448039,0.0,0.0,0.0,1.0
1624165716307007654,300,1624165716306718063,0.217066253793746,0.16279070714585941,2.004746383799745,0.0,0.0,0.0,1.0
1624165716364793401,301,1624165716364475917,0.23099901364798825,0.18129021210529572,2.143970278216269,0.0,0.0,0.0,1.0
1624165716414230636,302,1624165716413937044,0.2376174290718609,0.19066110028757066,2.2096798105499715,0.0,0.0,0.0,1.0
1624165716454857560,303,1624165716454300117,0.24530214068158784,0.19984728019289832,2.275172654745628,0.0,0.0,0.0,1.0
1624165716504707595,304,1624165716504441928,0.25118307865091083,0.20869232332847787,2.334524551027723,0.0,0.0,0.0,1.0
1624165716554059271,305,1624165716553790998,0.25757983811581653,0.21629554525998174,2.3929692470674944,0.0,0.0,0.0,1.0
1624165716606040024,306,1624165716605528068,0.2632619238740972,0.22576243179719313,2.4463746383293845,0.0,0.0,0.0,1.0
1624165716657934311,307,1624165716657293987,0.27445669547068974,0.2440417774382695,2.549133057443637,0.0,0.0,0.0,1.0
1624165716705828709,308,1624165716705371093,0.27840853815200717,0.25254610531465005,2.596821721592999,0.0,0.0,0.0,1.0
1624165716755480609,309,1624165716754996013,0.28183373653064336,0.26109806327053775,2.637047605379845,0.0,0.0,0.0,1.0
1624165716805955756,310,1624165716805242013,0.2866006945855588,0.27145875048245216,2.683407305788627,0.0,0.0,0.0,1.0
1624165716857482495,311,1624165716856507015,0.2953081773746362,0.2910617527090835,2.765245486282378,0.0,0.0,0.0,1.0
1624165716905715615,312,1624165716905473899,0.2986165047138911,0.2996739583470571,2.8053923229097535,0.0,0.0,0.0,1.0
1624165716953042090,313,1624165716952795934,0.3006835378696451,0.3101442862703152,2.846410703826024,0.0,0.0,0.0,1.0
1624165717008755391,314,1624165717008367967,0.3018717473889865,0.31862609027803046,2.8893401425126015,0.0,0.0,0.0,1.0
1624165717067703203,315,1624165717067304086,0.3053738508956485,0.33712376704988856,2.9690327070745894,0.0,0.0,0.0,1.0
1624165717115820976,316,1624165717115210008,0.3067324890191685,0.3464909859412728,3.004735280266022,0.0,0.0,0.0,1.0
1624165717158177425,317,1624165717157729101,0.3062606635223801,0.3550259248675047,3.04187226955467,0.0,0.0,0.0,1.0
1624165717208588251,318,1624165717208142948,0.3066171677280636,0.36372070295897174,3.0768374303807065,0.0,0.0,0.0,1.0
1624165717253585472,319,1624165717252917957,0.30415614268986246,0.3713111193080749,3.1104054993222583,0.0,0.0,0.0,1.0
1624165717307809051,320,1624165717307042074,0.3031444340372218,0.379191591685867,3.143324246269355,0.0,0.0,0.0,1.0
1624165717360889191,321,1624165717360532951,0.29732442852014174,0.3936665463029385,3.206769051330994,0.0,0.0,0.0,1.0
1624165717404467542,322,1624165717404098939,0.29369631791996653,0.40092724635019295,3.2393014869948757,0.0,0.0,0.0,1.0
1624165717453944714,323,1624165717453643035,0.2890145696176205,0.4080219131828926,3.2687126918149687,0.0,0.0,0.0,1.0
1624165717504109041,324,1624165717503435087,0.28325529396465754,0.41422780666380277,3.299457386704624,0.0,0.0,0.0,1.0
1624165717594125332,325,1624165717593273115,0.2644839438339659,0.4322629940584193,3.3791333714299974,0.0,0.0,0.0,1.0
1624165717640687611,326,1624165717640112113,0.25648514886506746,0.4389481038681424,3.4047856693669623,0.0,0.0,0.0,1.0
1624165717690030199,327,1624165717689614009,0.24851205026106982,0.44470585641283833,3.429846395024171,0.0,0.0,0.0,1.0
1624165717769908987,328,1624165717769344043,0.22909898597049505,0.45514455629790973,3.477786569293869,0.0,0.0,0.0,1.0
1624165717819278451,329,1624165717818102073,0.21867386771327801,0.4584875153259418,3.500191919643701,0.0,0.0,0.0,1.0
1624165717868682247,330,1624165717868402910,0.20682452973369436,0.4638958886405362,3.5221622230875305,0.0,0.0,0.0,1.0
1624165717916667913,331,1624165717915388059,0.19593223247397873,0.46811113066519283,3.542483474775036,0.0,0.0,0.0,1.0
1624165717964806618,332,1624165717964549970,0.18357005977532026,0.4724280512475616,3.5622487842578785,0.0,0.0,0.0,1.0
1624165718014741504,333,1624165718013498973,0.1561988757821382,0.4787941870429222,3.602360604561248,0.0,0.0,0.0,1.0
1624165718063162843,334,1624165718061637115,0.14112340308633975,0.48134258147069886,3.621735667548485,0.0,0.0,0.0,1.0
1624165718113883739,335,1624165718113623094,0.12467526081445612,0.4842086510388981,3.640659070501041,0.0,0.0,0.0,1.0
1624165718160002379,336,1624165718159602117,0.10845194287503546,0.4862230444821307,3.6572984622714735,0.0,0.0,0.0,1.0
1624165718211538566,337,1624165718211276006,0.09016390372494243,0.4877648497838436,3.674847106876392,0.0,0.0,0.0,1.0
1624165718260719755,338,1624165718260456991,0.055160147255719494,0.49065835519331813,3.7050390743782557,0.0,0.0,0.0,1.0
1624165718375899310,339,1624165718374460887,-0.003415543020082623,0.49220512599708854,3.7464741169436167,0.0,0.0,0.0,1.0
1624165718415930473,340,1624165718413901042,-0.024900775909145523,0.4904506712107377,3.7577699285467254,0.0,0.0,0.0,1.0
1624165718459686250,341,1624165718459188890,-0.046041476807431536,0.49002937990508144,3.768610534392135,0.0,0.0,0.0,1.0
1624165718506765617,342,1624165718506063890,-0.07006358675312185,0.48640352881375293,3.775859097198751,0.0,0.0,0.0,1.0
1624165718555169081,343,1624165718554413986,-0.09085337029841867,0.48746161302119617,3.7818282455720897,0.0,0.0,0.0,1.0
1624165718605388839,344,1624165718604777050,-0.11554627606437862,0.48321988504562796,3.7871483004895445,0.0,0.0,0.0,1.0
1624165718655695650,345,1624165718655234050,-0.13654406744444714,0.4833712003999153,3.792032910782357,0.0,0.0,0.0,1.0
1624165718707072933,346,1624165718706443023,-0.1857661986994117,0.47815870645854375,3.800572449457679,0.0,0.0,0.0,1.0
1624165718755171311,347,1624165718754739952,-0.20955359358231362,0.47582769024893423,3.8042063406543782,0.0,0.0,0.0,1.0
1624165718821900598,348,1624165718821192932,-0.25827394319230734,0.46936980994360056,3.8100804270671773,0.0,0.0,0.0,1.0
1624165718905664873,349,1624165718905425024,-0.30426963221248116,0.4638053632440915,3.8134445385199385,0.0,0.0,0.0,1.0
1624165718983540209,350,1624165718983222913,-0.3535516976589861,0.4557899039446056,3.814012550003813,0.0,0.0,0.0,1.0
1624165719024161784,351,1624165719023838949,-0.3767325054604953,0.4518717281780482,3.813835982880594,0.0,0.0,0.0,1.0
1624165719069472864,352,1624165719068872880,-0.4021045122308351,0.44782852267394446,3.813761180599027,0.0,0.0,0.0,1.0
1624165719116643870,353,1624165719116050910,-0.4243798539259842,0.4446223435172669,3.811675388110796,0.0,0.0,0.0,1.0
1624165719163305941,354,1624165719162804079,-0.44542484528415116,0.4399411625411176,3.814533315664953,0.0,0.0,0.0,1.0
1624165719214819706,355,1624165719214208078,-0.46748474418859587,0.43643519357897276,3.8122954279686994,0.0,0.0,0.0,1.0
1624165719266405080,356,1624165719265736055,-0.4888551216381529,0.4320761579735972,3.8131572168502252,0.0,0.0,0.0,1.0
1624165719314224128,357,1624165719313660097,-0.5297125681813668,0.4261805266519332,3.8124100869532,0.0,0.0,0.0,1.0
1624165719361156198,358,1624165719360506010,-0.547838591168329,0.4225111024029502,3.8129254666875703,0.0,0.0,0.0,1.0
1624165719411767004,359,1624165719410984945,-0.5668780659909771,0.4189606389995788,3.8120155493727985,0.0,0.0,0.0,1.0
1624165719453670036,360,1624165719453353118,-0.5846004606157749,0.4151886676079357,3.8110125149918552,0.0,0.0,0.0,1.0
1624165719507678685,361,1624165719507277917,-0.6020426956124538,0.4111568031585193,3.810454596797751,0.0,0.0,0.0,1.0
1624165719554924182,362,1624165719554708909,-0.6340587684501315,0.4040882282245093,3.81022104602145,0.0,0.0,0.0,1.0
1624165719606382642,363,1624165719605930042,-0.6478333165262029,0.4013833679196068,3.8107042954006083,0.0,0.0,0.0,1.0
1624165719657316449,364,1624165719656542015,-0.6631491903485767,0.3966338688574069,3.810834759311362,0.0,0.0,0.0,1.0
1624165719708387288,365,1624165719707664918,-0.676898346111102,0.3918048424368408,3.8119460881474083,0.0,0.0,0.0,1.0
1624165719755005147,366,1624165719753981065,-0.7024441133755772,0.3836066841847696,3.8130096980231123,0.0,0.0,0.0,1.0
1624165719806149877,367,1624165719805767965,-0.7142131763876023,0.38025716454080793,3.811312755515722,0.0,0.0,0.0,1.0
1624165719855050354,368,1624165719854751062,-0.724783564533027,0.3736857597029939,3.8163475743053183,0.0,0.0,0.0,1.0
1624165719906239456,369,1624165719906013917,-0.7345369267452497,0.3689305056877856,3.8179369031088264,0.0,0.0,0.0,1.0
1624165719955846856,370,1624165719955606889,-0.7439749896243484,0.36382783939438923,3.8187936535810287,0.0,0.0,0.0,1.0
1624165720008311161,371,1624165720007858943,-0.7615240004556654,0.35269787125821495,3.8216315206542824,0.0,0.0,0.0,1.0
1624165720060077416,372,1624165720059572887,-0.7682543696621451,0.3475733195543853,3.823095198632373,0.0,0.0,0.0,1.0
1624165720111675835,373,1624165720111051988,-0.7753784929525409,0.34110356910491646,3.8244253254001066,0.0,0.0,0.0,1.0
1624165720158549695,374,1624165720158028078,-0.7822930820682359,0.33401130793276934,3.8263983757100988,0.0,0.0,0.0,1.0
1624165720214947049,375,1624165720214519929,-0.7925543591256883,0.3209299012194151,3.8318141855608587,0.0,0.0,0.0,1.0
1624165720260542760,376,1624165720259624910,-0.7963817696454498,0.3144308272278522,3.834912025309695,0.0,0.0,0.0,1.0
1624165720311974601,377,1624165720311372947,-0.8005906842499826,0.3065255254184649,3.8388412218317107,0.0,0.0,0.0,1.0
1624165720360538396,378,1624165720360092115,-0.8032546802144225,0.300062103118762,3.842484784547871,0.0,0.0,0.0,1.0
1624165720445622649,379,1624165720445062112,-0.8092044820218689,0.2753520288213167,3.85568050505632,0.0,0.0,0.0,1.0
1624165720485616023,380,1624165720484945011,-0.8108791430554447,0.26736781828526546,3.859977553988365,0.0,0.0,0.0,1.0
1624165720528380022,381,1624165720527984094,-0.8124448451412718,0.2598941707033191,3.864728713805409,0.0,0.0,0.0,1.0
1624165720579760581,382,1624165720579411935,-0.8118378944366214,0.2541463769839538,3.869649228356966,0.0,0.0,0.0,1.0
1624165720650550899,383,1624165720650313091,-0.8147352362561833,0.23488716754013694,3.878391786696799,0.0,0.0,0.0,1.0
1624165720696211494,384,1624165720694658946,-0.813654713272399,0.22630918807135458,3.8829767167081535,0.0,0.0,0.0,1.0
1624165720731626814,385,1624165720731173944,-0.8134281301936426,0.21759869213519778,3.8861242383024575,0.0,0.0,0.0,1.0
1624165720773904304,386,1624165720773354005,-0.8126474699515711,0.20824984360388044,3.8903397225305376,0.0,0.0,0.0,1.0
1624165720861413735,387,1624165720860648107,-0.8104953321421817,0.19137405441779265,3.895127038973836,0.0,0.0,0.0,1.0
1624165720908476845,388,1624165720907767009,-0.8093699997359636,0.18175526811933196,3.8974209786793352,0.0,0.0,0.0,1.0
1624165720955505412,389,1624165720955036115,-0.8081857194315489,0.17294143331150735,3.8990050315089597,0.0,0.0,0.0,1.0
1624165721008228672,390,1624165721007498931,-0.8057819920204565,0.16398828704427615,3.9001453949323945,0.0,0.0,0.0,1.0
1624165721057273128,391,1624165721056842994,-0.801743840878089,0.14522758991051887,3.9021201401731815,0.0,0.0,0.0,1.0
1624165721106515514,392,1624165721105541896,-0.7987797884743486,0.13633713650415302,3.902299283374454,0.0,0.0,0.0,1.0
1624165721154566380,393,1624165721153805923,-0.7962355972515525,0.12677136789216092,3.9022643755454034,0.0,0.0,0.0,1.0
1624165721205648432,394,1624165721205009889,-0.7945839190331299,0.11753301246335468,3.9021550619935965,0.0,0.0,0.0,1.0
1624165721255881330,395,1624165721255649042,-0.7901422292984535,0.10726364122297127,3.905093996172589,0.0,0.0,0.0,1.0
1624165721308047660,396,1624165721307809066,-0.7880184410742004,0.09905942460682127,3.902451337823468,0.0,0.0,0.0,1.0
1624165721355980614,397,1624165721355735969,-0.7819183621998036,0.08117170540435836,3.9016697412141426,0.0,0.0,0.0,1.0
1624165721405074789,398,1624165721404792976,-0.777922642044814,0.07242661785176097,3.901670202210571,0.0,0.0,0.0,1.0
1624165721456282937,399,1624165721455508899,-0.7750701158793163,0.06297205332361955,3.900939370722341,0.0,0.0,0.0,1.0
1624165721508513699,400,1624165721507934045,-0.7703921300717411,0.05379680506848672,3.8996660349529186,0.0,0.0,0.0,1.0
1624165721555900366,401,1624165721555446100,-0.7609615074488829,0.0362533855102356,3.8997875463769596,0.0,0.0,0.0,1.0
1624165721606218620,402,1624165721605608892,-0.7564453575487278,0.027369133804086232,3.8990952423598415,0.0,0.0,0.0,1.0
1624165721655449827,403,1624165721654540967,-0.750275010381074,0.020074354903727,3.897776032469327,0.0,0.0,0.0,1.0
1624165721707072282,404,1624165721706474018,-0.7446480486423752,0.01107256445038729,3.896945907104545,0.0,0.0,0.0,1.0
1624165721756152419,405,1624165721755641889,-0.7327771799441507,-0.00584234128564276,3.894333470543149,0.0,0.0,0.0,1.0
1624165721805658943,406,1624165721805047941,-0.7248782977251267,-0.014714830118919053,3.893534246539037,0.0,0.0,0.0,1.0
1624165721852827768,407,1624165721852564048,-0.7173108420934113,-0.023189854184010983,3.891958530167024,0.0,0.0,0.0,1.0
1624165721906106337,408,1624165721905878019,-0.710079182992331,-0.03138370584952099,3.890358283394992,0.0,0.0,0.0,1.0
1624165721954094609,409,1624165721953835916,-0.7019896158965366,-0.03952191554208184,3.888103816184124,0.0,0.0,0.0,1.0
1624165722008762647,410,1624165722008491945,-0.6940813310604881,-0.04765965112028425,3.8871728370145853,0.0,0.0,0.0,1.0
1624165722056389706,411,1624165722055922937,-0.676883643442352,-0.062384841959328696,3.884215289054417,0.0,0.0,0.0,1.0
1624165722106611407,412,1624165722105700922,-0.6679155636199994,-0.06997766232552749,3.882459336326491,0.0,0.0,0.0,1.0
1624165722174624441,413,1624165722174046945,-0.6510168231238822,-0.07976872039921545,3.881295003154033,0.0,0.0,0.0,1.0
1624165722214957303,414,1624165722214478921,-0.6430382933233432,-0.08275067553267945,3.880817725209784,0.0,0.0,0.0,1.0
1624165722260628303,415,1624165722260187101,-0.6348009043633738,-0.08425634211721444,3.880252876783821,0.0,0.0,0.0,1.0
1624165722308291748,416,1624165722307670068,-0.6273803233270883,-0.08615486866870015,3.879607584061951,0.0,0.0,0.0,1.0
1624165722356398250,417,1624165722355950069,-0.6187679643458068,-0.0870938346120056,3.878798755717739,0.0,0.0,0.0,1.0
1624165722406495068,418,1624165722406198930,-0.6106101859481896,-0.0870544129420523,3.877926375418813,0.0,0.0,0.0,1.0
1624165722468286977,419,1624165722467661094,-0.5946010175957781,-0.08758950826972978,3.87692762784242,0.0,0.0,0.0,1.0
1624165722516297341,420,1624165722515526008,-0.5870562554150638,-0.0866881063755045,3.875885240615254,0.0,0.0,0.0,1.0
1624165722555710944,421,1624165722555015039,-0.5805162668302728,-0.08549117635311632,3.874882035335162,0.0,0.0,0.0,1.0
1624165722604985228,422,1624165722604772996,-0.5732194326737954,-0.08165879851731006,3.874726408812574,0.0,0.0,0.0,1.0
1624165722654245376,423,1624165722653711986,-0.5671282110902212,-0.07801304266649822,3.873930207319251,0.0,0.0,0.0,1.0
1624165722706501342,424,1624165722706191968,-0.5599311377613958,-0.07236638075823976,3.8738061593636033,0.0,0.0,0.0,1.0
1624165722754968314,425,1624165722754641008,-0.5494900904732276,-0.06181188518576164,3.8718456070705436,0.0,0.0,0.0,1.0
1624165722804742167,426,1624165722804429960,-0.5436295361862449,-0.05374830468917935,3.871089121712018,0.0,0.0,0.0,1.0
1624165722858168816,427,1624165722857911062,-0.5422921185986525,-0.05018764181386359,3.8700794540002086,0.0,0.0,0.0,1.0
1624165722906300377,428,1624165722905935955,-0.536088800342668,-0.03911284694640926,3.8687181602396237,0.0,0.0,0.0,1.0
1624165722955793985,429,1624165722955439043,-0.5326439820012183,-0.0252959341071346,3.8670096727266703,0.0,0.0,0.0,1.0
1624165723005775322,430,1624165723005191993,-0.5305851560694919,-0.018151931220245388,3.8662721487928238,0.0,0.0,0.0,1.0
1624165723054929181,431,1624165723054428052,-0.5287476412950127,-0.010158101532397268,3.8655944131169413,0.0,0.0,0.0,1.0
1624165723107159282,432,1624165723106740903,-0.5279237710287816,-0.0024264544160814694,3.864500761898558,0.0,0.0,0.0,1.0
1624165723154235977,433,1624165723153819990,-0.527767838786076,0.004560797615340562,3.86338233057824,0.0,0.0,0.0,1.0
1624165723214055543,434,1624165723213442039,-0.5284836248677038,0.018128104030438408,3.859834456425844,0.0,0.0,0.0,1.0
1624165723256706840,435,1624165723255949926,-0.5312262796708183,0.02384178002535009,3.8571848770871,0.0,0.0,0.0,1.0
1624165723306125188,436,1624165723305514049,-0.5337858581706314,0.028576701974998286,3.8568640128312097,0.0,0.0,0.0,1.0
1624165723354370422,437,1624165723354119968,-0.5381982889773553,0.03326560164100556,3.8538247436229263,0.0,0.0,0.0,1.0
1624165723407297072,438,1624165723406526994,-0.5439579537630834,0.03703285858000527,3.851689770803052,0.0,0.0,0.0,1.0
1624165723453542323,439,1624165723453268957,-0.5585654118347065,0.04424361215956196,3.846955980411714,0.0,0.0,0.0,1.0
1624165723505027970,440,1624165723504757118,-0.5665654026411175,0.04832668365338577,3.8454776406169096,0.0,0.0,0.0,1.0
1624165723555076786,441,1624165723554537963,-0.5745231732619231,0.052394990583934486,3.8441086082382263,0.0,0.0,0.0,1.0
1624165723607288862,442,1624165723606706094,-0.5834951102667674,0.05624144844159673,3.8430911764702707,0.0,0.0,0.0,1.0
1624165723657797997,443,1624165723657206010,-0.602479787667562,0.062194815276825466,3.843134435212143,0.0,0.0,0.0,1.0
1624165723708177470,444,1624165723707714033,-0.6114988328740765,0.064860498356893,3.8429444422300207,0.0,0.0,0.0,1.0
1624165723755465505,445,1624165723754383039,-0.622938374402338,0.06737538512606989,3.8441406114192915,0.0,0.0,0.0,1.0
1624165723807462128,446,1624165723806978893,-0.6326592097343564,0.07149870128228031,3.842861509604976,0.0,0.0,0.0,1.0
1624165723855478465,447,1624165723855025005,-0.644166013488757,0.0725265116468563,3.845093708745761,0.0,0.0,0.0,1.0
1624165723909648048,448,1624165723908822011,-0.6673259356166454,0.07660928108725784,3.847741140210939,0.0,0.0,0.0,1.0
1624165723954225034,449,1624165723953952980,-0.6774059364818186,0.08025644763210948,3.848818136032577,0.0,0.0,0.0,1.0
1624165724005463517,450,1624165724005229902,-0.6870943497594908,0.08398900061661152,3.8499567724005033,0.0,0.0,0.0,1.0
1624165724055614566,451,1624165724055339050,-0.6971760140361312,0.08694786752994332,3.8519385160209296,0.0,0.0,0.0,1.0
1624165724108554922,452,1624165724108077955,-0.7065806605544367,0.09088194283890516,3.853286756065618,0.0,0.0,0.0,1.0
1624165724156351496,453,1624165724155758094,-0.7233845923112767,0.09933090168624403,3.8572315889879007,0.0,0.0,0.0,1.0
1624165724206489471,454,1624165724205893945,-0.7310277344236056,0.10414965768495676,3.8582694810757303,0.0,0.0,0.0,1.0
1624165724256784354,455,1624165724256380033,-0.7373022384590513,0.10916243716678764,3.859974910865983,0.0,0.0,0.0,1.0
1624165724308656534,456,1624165724308211994,-0.743061550747143,0.11494268166529764,3.861645247986356,0.0,0.0,0.0,1.0
1624165724359116653,457,1624165724358617973,-0.7518259093510551,0.12625158303148964,3.8641069214435895,0.0,0.0,0.0,1.0
1624165724407936276,458,1624165724407664966,-0.7555639270710799,0.13232611774083125,3.8653160704192295,0.0,0.0,0.0,1.0
1624165724456020469,459,1624165724455709886,-0.7580300109495965,0.13861065257151495,3.8661394373431115,0.0,0.0,0.0,1.0
1624165724508263398,460,1624165724508018922,-0.7600108282185829,0.14570049818962616,3.865968186397634,0.0,0.0,0.0,1.0
1624165724557588061,461,1624165724557320070,-0.762089554429167,0.16011992174867373,3.8655492844713173,0.0,0.0,0.0,1.0
1624165724606351160,462,1624165724605936956,-0.7623256178135307,0.16757142795449909,3.8648224869287127,0.0,0.0,0.0,1.0
1624165724689822605,463,1624165724689352941,-0.7611032021939081,0.1834796074078895,3.8618904421878035,0.0,0.0,0.0,1.0
1624165724730146850,464,1624165724729697895,-0.7584115456947984,0.19362621794448387,3.8603076517183794,0.0,0.0,0.0,1.0
1624165724780413843,465,1624165724779930067,-0.7584415835615346,0.20066948804219464,3.8562330214804312,0.0,0.0,0.0,1.0
1624165724851339760,466,1624165724850899887,-0.7530134574933527,0.2166817777331289,3.8546705887588004,0.0,0.0,0.0,1.0
1624165724893312803,467,1624165724892492961,-0.7505999114193855,0.22464737242671617,3.8532367005711805,0.0,0.0,0.0,1.0
1624165724975191118,468,1624165724974594068,-0.7430330287022571,0.2415277399450133,3.8504807864104507,0.0,0.0,0.0,1.0
1624165725054884356,469,1624165725054399919,-0.7344079486711053,0.258046279730479,3.848199174628732,0.0,0.0,0.0,1.0
1624165725094127615,470,1624165725093650054,-0.729416995204474,0.26590309248240374,3.848661752350072,0.0,0.0,0.0,1.0
1624165725135423435,471,1624165725134767961,-0.7257261721206305,0.27403408378472704,3.8463956493751112,0.0,0.0,0.0,1.0
1624165725171689253,472,1624165725171456050,-0.7202729963464662,0.28236188980690713,3.8464048383539087,0.0,0.0,0.0,1.0
1624165725215364097,473,1624165725215014886,-0.7157836181315815,0.28967764414869634,3.846267811959166,0.0,0.0,0.0,1.0
1624165725261124263,474,1624165725260885906,-0.7112233297550574,0.2970606226208474,3.845878933850152,0.0,0.0,0.0,1.0
1624165725306571377,475,1624165725306255054,-0.7056985078493199,0.3053108216167857,3.8456156861452477,0.0,0.0,0.0,1.0
1624165725355070790,476,1624165725354490947,-0.7000144563896811,0.31311164413477854,3.845601886282509,0.0,0.0,0.0,1.0
1624165725405824960,477,1624165725405260992,-0.695050960017852,0.31976111416338426,3.84587511354977,0.0,0.0,0.0,1.0
1624165725458218093,478,1624165725457556915,-0.6885616887304877,0.3276487276125408,3.8459028507553548,0.0,0.0,0.0,1.0
1624165725510204806,479,1624165725509282064,-0.6783052554874303,0.3419373368003562,3.8465308881479388,0.0,0.0,0.0,1.0
1624165725555549520,480,1624165725555101108,-0.6720344853833922,0.3496236139046687,3.8464877280921215,0.0,0.0,0.0,1.0
1624165725605805077,481,1624165725605268907,-0.6661906425172219,0.3565756277669152,3.8471474361978295,0.0,0.0,0.0,1.0
1624165725654411950,482,1624165725653685998,-0.6574732074448093,0.3671580270861341,3.847785199900951,0.0,0.0,0.0,1.0
1624165725708576592,483,1624165725707591009,-0.6545533369826444,0.37025985636887526,3.847919344182504,0.0,0.0,0.0,1.0
1624165725756397578,484,1624165725755633068,-0.643079254099348,0.38343964454338675,3.8484123260277023,0.0,0.0,0.0,1.0
1624165725807500790,485,1624165725806924057,-0.6381779885296055,0.3887395571248362,3.8492313528599347,0.0,0.0,0.0,1.0
