%time,field.header.seq,field.header.stamp,field.pose.position.x,field.pose.position.y,field.pose.position.z,field.pose.orientation.x,field.pose.orientation.y,field.pose.orientation.z,field.pose.orientation.w
1609059060110306962,8715,1609059060109753943,-0.0013432028290516485,-0.0006909686321314723,-3.408120271330972e-06,0.0,0.0,0.0,1.0
1609059060163810429,8716,1609059060163541890,-0.0013871860340550768,-0.000445198819363668,-2.13433009577102e-06,0.0,0.0,0.0,1.0
1609059060209415439,8717,1609059060208969927,-0.0011633100980823485,-0.0004856803663741971,-0.00010244379019397343,0.0,0.0,0.0,1.0
1609059060260676209,8718,1609059060260316945,-0.0010939803543976723,-0.0006266581708516128,-0.0001859261380445787,0.0,0.0,0.0,1.0
1609059060310294379,8719,1609059060309920884,-0.0012395152206678972,-0.0006586010031384149,-7.042422813441362e-05,0.0,0.0,0.0,1.0
1609059060362222923,8720,1609059060361595965,-0.00130211029495797,-0.0005887013773104854,-0.00010762158301247382,0.0,0.0,0.0,1.0
1609059060412498364,8721,1609059060412225104,-0.0013121325037133147,-0.0006820917828491702,-0.00024462278142323157,0.0,0.0,0.0,1.0
1609059060461552104,8722,1609059060460730887,-0.0012007137270479973,-0.0005918253190166922,-0.0002284361519073741,0.0,0.0,0.0,1.0
1609059060512282589,8723,1609059060511834002,-0.0013577674764029268,-0.0006267266979342878,-0.00010447576447347728,0.0,0.0,0.0,1.0
1609059060561650059,8724,1609059060561337090,-0.0013073510087338036,-0.0005609490441358389,-5.7518845139270525e-05,0.0,0.0,0.0,1.0
1609059060609696263,8725,1609059060609370089,-0.0012947031613030902,-0.0005773535293833731,-9.804604827934327e-05,0.0,0.0,0.0,1.0
1609059060661540456,8726,1609059060661104060,-0.001320092706823317,-0.0005551714942839681,-0.00025360335148860713,0.0,0.0,0.0,1.0
1609059060711097634,8727,1609059060710655070,-0.001338509760579143,-0.0005269612692906378,-0.0001877186975747236,0.0,0.0,0.0,1.0
1609059060762095748,8728,1609059060761712885,-0.0012130366212481647,-0.0006457757586382229,0.00013953742704586602,0.0,0.0,0.0,1.0
1609059060810556752,8729,1609059060810151911,-0.0011028323618624825,-0.0005509955093927488,-5.553972200189605e-05,0.0,0.0,0.0,1.0
1609059060860356655,8730,1609059060859999037,-0.0013346592549545733,-0.0005136007437087642,-0.00017088027176725973,0.0,0.0,0.0,1.0
1609059060912255958,8731,1609059060911767102,-0.0015644373171106452,-0.0006830751084834219,4.2084249184171085e-05,0.0,0.0,0.0,1.0
1609059060961443620,8732,1609059060960688925,-0.0014432998296918242,-0.0006014432658574265,3.3439664047563156e-05,0.0,0.0,0.0,1.0
1609059061009304921,8733,1609059061008704997,-0.0013294168985247268,-0.0005073564108997175,-0.00016694391164762123,0.0,0.0,0.0,1.0
1609059061060453649,8734,1609059061060191966,-0.001433498141938827,-0.0006878399390188861,-0.00011509509210938518,0.0,0.0,0.0,1.0
1609059061111030872,8735,1609059061110757924,-0.001320507419549699,-0.0006023298728159432,-0.0001082659070910097,0.0,0.0,0.0,1.0
1609059061163171590,8736,1609059061162473059,-0.001305771479490403,-0.0005722813585968822,-7.733735116843832e-05,0.0,0.0,0.0,1.0
1609059061212940312,8737,1609059061212312079,-0.0010918586443686706,-0.0006062385781291368,-0.00015589154374495706,0.0,0.0,0.0,1.0
1609059061261898353,8738,1609059061260828114,-0.0012468664631484216,-0.0006433229064413126,-3.773916775173802e-05,0.0,0.0,0.0,1.0
1609059061309891994,8739,1609059061309517956,-0.0012898268118988199,-0.0005920821125435793,9.279757288993551e-05,0.0,0.0,0.0,1.0
1609059061363805493,8740,1609059061363396025,-0.001450188577354794,-0.0006606723931845693,-5.2840188857317116e-05,0.0,0.0,0.0,1.0
1609059061410739059,8741,1609059061410379982,-0.0014856648364549585,-0.0006114680560145302,-0.00015391903490780123,0.0,0.0,0.0,1.0
1609059061460091217,8742,1609059061459668017,-0.0014333885810202673,-0.0006789229564141408,-0.00010104594422344348,0.0,0.0,0.0,1.0
1609059061510386026,8743,1609059061510033942,-0.001355369211978541,-0.0007380313923022186,-6.431808964535435e-05,0.0,0.0,0.0,1.0
1609059061559960993,8744,1609059061559636927,-0.0013217991009319974,-0.0005314973647578825,5.805236991562879e-06,0.0,0.0,0.0,1.0
1609059061610659974,8745,1609059061610246993,-0.0012961280222327787,-0.0005783350491945782,-9.79783080694574e-05,0.0,0.0,0.0,1.0
1609059061665393984,8746,1609059061664760924,-0.0011974287958089747,-0.0004066526814341387,6.21612757250034e-05,0.0,0.0,0.0,1.0
1609059061709934424,8747,1609059061709381915,-0.0012340393292475937,-0.0006361834514301279,-4.1045822356977624e-05,0.0,0.0,0.0,1.0
1609059061761045832,8748,1609059061760784007,-0.0013462693017807226,-0.0005083158076288896,7.061332576085988e-05,0.0,0.0,0.0,1.0
1609059061810617548,8749,1609059061810316897,-0.0013237752032146943,-0.0005550777723755118,-2.9420505132549124e-05,0.0,0.0,0.0,1.0
1609059061860365231,8750,1609059061859828091,-0.0012995149848755716,-0.000567835177225362,-7.74180134079927e-05,0.0,0.0,0.0,1.0
1609059061912286631,8751,1609059061911971903,-0.001400067507653091,-0.0006634096310307314,-0.00011445697761303109,0.0,0.0,0.0,1.0
1609059061960508283,8752,1609059061960199929,-0.001287594256279334,-0.0005789546548200519,-0.00010871338444573553,0.0,0.0,0.0,1.0
1609059062011340821,8753,1609059062011067009,-0.0012102303484304855,-0.0006931462691248669,-0.0001587959067421707,0.0,0.0,0.0,1.0
1609059062060317081,8754,1609059062059465981,-0.001359485231283486,-0.0007380874914666435,-5.970452730252873e-05,0.0,0.0,0.0,1.0
1609059062109959491,8755,1609059062109428025,-0.0010605410110606783,-0.000607644229077664,-0.0001939070000887,0.0,0.0,0.0,1.0
1609059062162700451,8756,1609059062162278033,-0.0013180113914117442,-0.0004928923322040646,-0.00015698311279521704,0.0,0.0,0.0,1.0
1609059062212129904,8757,1609059062211675025,-0.0012087884452967046,-0.0005127819162886738,-9.356390772197187e-05,0.0,0.0,0.0,1.0
1609059062259966680,8758,1609059062259235955,-0.0012201718064765998,-0.00048817733221184767,-4.144650471005207e-05,0.0,0.0,0.0,1.0
1609059062311254596,8759,1609059062310269928,-0.001160310805090603,-0.00045650910972483416,-5.949987224695974e-05,0.0,0.0,0.0,1.0
1609059062360092940,8760,1609059062359449959,-0.0012476248412163216,-0.00048708662330554375,-8.346510806944707e-06,0.0,0.0,0.0,1.0
1609059062413239961,8761,1609059062412459946,-0.0010589575653092709,-0.0006080941988031441,-0.0001964313811342322,0.0,0.0,0.0,1.0
1609059062460058079,8762,1609059062459810114,-0.00137041887631284,-0.00047920830466097186,-7.535332683161755e-05,0.0,0.0,0.0,1.0
1609059062510566764,8763,1609059062510324097,-0.0011462333344880449,-0.0004909500739600503,8.949623175524835e-05,0.0,0.0,0.0,1.0
1609059062561931895,8764,1609059062561608887,-0.0013544716502309484,-0.0005054329307547789,8.456761540642788e-05,0.0,0.0,0.0,1.0
1609059062611510357,8765,1609059062611192084,-0.0010921237330414613,-0.0003244824650359135,-0.0001473622715124634,0.0,0.0,0.0,1.0
1609059062659815659,8766,1609059062659429884,-0.0009389789643137192,-0.000467285273415996,-0.00010968033229374896,0.0,0.0,0.0,1.0
1609059062711777514,8767,1609059062711290932,-0.0008221313445346823,-0.00020180238805167505,-4.099282069702781e-05,0.0,0.0,0.0,1.0
1609059062760226288,8768,1609059062759840107,-0.0004714297032322179,-0.0002014448424354498,-1.4489593169741966e-06,0.0,0.0,0.0,1.0
1609059062809327064,8769,1609059062808787919,-0.0007469893623515134,-0.0001661165314068569,-7.01164169036872e-05,0.0,0.0,0.0,1.0
1609059062863029764,8770,1609059062862607098,-0.000492086228391031,-0.0002574646683264348,-6.689926540914826e-05,0.0,0.0,0.0,1.0
1609059062909988816,8771,1609059062909631110,-0.0006683050940452517,-0.0002328535667110998,-4.627337004592391e-05,0.0,0.0,0.0,1.0
1609059062962070035,8772,1609059062961690999,-0.0009540813889969968,-0.00012915920519063206,0.0002252400328757176,0.0,0.0,0.0,1.0
1609059063012988736,8773,1609059063011700964,-0.0007465524326093487,-0.00019266933658101948,0.00010700322281209651,0.0,0.0,0.0,1.0
1609059063060395651,8774,1609059063060078955,-0.0010275475465491013,-0.0004306299085286014,4.977919313375878e-05,0.0,0.0,0.0,1.0
1609059063112132612,8775,1609059063111758090,-0.0008067530884794394,-0.0002899998020318151,2.1064262085701557e-05,0.0,0.0,0.0,1.0
1609059063167559245,8776,1609059063166828013,-0.0012539213459064058,-0.0006451024503562053,-3.2507435996365075e-05,0.0,0.0,0.0,1.0
1609059063209124246,8777,1609059063208820916,-0.0007180177157799505,-0.0006718023225715797,-2.7754488645115316e-05,0.0,0.0,0.0,1.0
1609059063260137270,8778,1609059063259769059,-0.001197716766387913,-0.00018828029413242575,0.00018979211865399748,0.0,0.0,0.0,1.0
1609059063310210597,8779,1609059063309748030,-0.0018149622541372423,-0.0006322562656819741,0.00018928043518329218,0.0,0.0,0.0,1.0
1609059063361655983,8780,1609059063361337996,-0.0008800834732518581,-0.00041189179543010823,-8.891576370473331e-05,0.0,0.0,0.0,1.0
1609059063412183645,8781,1609059063411953068,-0.0017951966673166453,-0.0002935882968593262,0.0002653896480957485,0.0,0.0,0.0,1.0
1609059063459305797,8782,1609059063458989954,-0.0027640881132562356,-0.0009636727381838739,0.0005271164328881639,0.0,0.0,0.0,1.0
1609059063512094151,8783,1609059063511727906,-0.0007267854458028467,-0.0005835341459601295,-0.0003170756551789111,0.0,0.0,0.0,1.0
1609059063561514370,8784,1609059063561069108,0.00013550938976791826,0.00024521398662713523,-0.00020466415821118744,0.0,0.0,0.0,1.0
1609059063610077924,8785,1609059063609712935,-0.002126903827409876,-0.0003318248299564175,0.00036378326449337806,0.0,0.0,0.0,1.0
1609059063661572645,8786,1609059063661177016,-0.001863846152758697,-0.0007532346496041953,5.28261948424813e-05,0.0,0.0,0.0,1.0
1609059063710735679,8787,1609059063710335112,-0.0007109848109294603,-0.000561188181958272,-7.978303431954714e-05,0.0,0.0,0.0,1.0
1609059063761539915,8788,1609059063761062956,-0.0017093849755731583,-0.000596046771100589,0.00012620881906499903,0.0,0.0,0.0,1.0
1609059063810811086,8789,1609059063810330010,-0.0024586812222260335,-0.0010142625561186946,9.77273407052337e-05,0.0,0.0,0.0,1.0
1609059063858999954,8790,1609059063858721114,-0.0019142723627396663,-0.0009277103232925299,5.292592693351139e-05,0.0,0.0,0.0,1.0
1609059063912680457,8791,1609059063912254906,-0.001882390679558199,-0.0006747362798229517,-2.1033465610997837e-05,0.0,0.0,0.0,1.0
1609059063962519376,8792,1609059063962037898,-0.0027076045583669384,-0.0010010072833850359,0.0004032270353633294,0.0,0.0,0.0,1.0
1609059064014437564,8793,1609059064013912058,-0.002360831941796704,-0.0009290316564367629,0.00012140529471338368,0.0,0.0,0.0,1.0
1609059064062691488,8794,1609059064062143899,-0.002137707023312174,-0.0009432781086182729,6.364516190870972e-05,0.0,0.0,0.0,1.0
1609059064110092369,8795,1609059064109524107,-0.0026095461391690833,-0.0010633344692614344,0.00019210548077808198,0.0,0.0,0.0,1.0
1609059064163651973,8796,1609059064163374997,-0.0026313892832945385,-0.001064821085467571,0.00021470113388488699,0.0,0.0,0.0,1.0
1609059064211725434,8797,1609059064211239911,-0.002828923318237031,-0.0010422590462404457,0.00025644447813633064,0.0,0.0,0.0,1.0
1609059064260163457,8798,1609059064259748078,-0.004060438648327391,-0.0016014425572095092,0.0005549821565296043,0.0,0.0,0.0,1.0
1609059064312071256,8799,1609059064311684943,-0.005301919249756537,-0.0022008491805145525,0.0005812416426316247,0.0,0.0,0.0,1.0
1609059064363571023,8800,1609059064363276101,-0.006528938657694994,-0.0027087238163048255,0.0007365757931516725,0.0,0.0,0.0,1.0
1609059064410003946,8801,1609059064409565068,-0.009415981501831538,-0.00375644446954837,0.0008321411852634242,0.0,0.0,0.0,1.0
1609059064460894100,8802,1609059064460125065,-0.01041920335060098,-0.004354950988275874,0.0008077674492135145,0.0,0.0,0.0,1.0
1609059064511326865,8803,1609059064510911084,-0.011243293057084713,-0.0046489105966784905,0.0008428997827039098,0.0,0.0,0.0,1.0
1609059064561189037,8804,1609059064560648060,-0.012023297699705893,-0.004977330249403167,0.0009927543157424168,0.0,0.0,0.0,1.0
1609059064611658705,8805,1609059064611008025,-0.012378349483487483,-0.005289680038096378,0.0009022086437582288,0.0,0.0,0.0,1.0
1609059064662667769,8806,1609059064662107087,-0.012714609913803798,-0.005427080233790349,0.0008484065530289797,0.0,0.0,0.0,1.0
1609059064717075548,8807,1609059064716770030,-0.012864029572284608,-0.0057782927238818615,0.0011205717781876956,0.0,0.0,0.0,1.0
1609059064769005454,8808,1609059064768049098,-0.012294643191079757,-0.005592351246573202,0.0012048453103972179,0.0,0.0,0.0,1.0
1609059064815708422,8809,1609059064815341092,-0.01321338400238048,-0.006172627720300028,0.0013329421228966964,0.0,0.0,0.0,1.0
1609059064868364538,8810,1609059064867985106,-0.012949216957405696,-0.005888835385455593,0.0012621222819291233,0.0,0.0,0.0,1.0
1609059064916651701,8811,1609059064916385985,-0.012753102897232083,-0.005814578624523392,0.0013757825880773566,0.0,0.0,0.0,1.0
1609059064968500191,8812,1609059064968033886,-0.012930296858165491,-0.006306346081174752,0.001676165081061498,0.0,0.0,0.0,1.0
1609059065010946713,8813,1609059065010255909,-0.01266305799119749,-0.00649534212760372,0.0015099407526300013,0.0,0.0,0.0,1.0
1609059065061951914,8814,1609059065061044074,-0.012408681641218777,-0.006818893440801332,0.0018041211129222745,0.0,0.0,0.0,1.0
1609059065109613766,8815,1609059065109263039,-0.012002853071063413,-0.007072960040051868,0.0024752961446878885,0.0,0.0,0.0,1.0
1609059065163234112,8816,1609059065162959910,-0.011409203889495956,-0.007215769167288499,0.004427794295171594,0.0,0.0,0.0,1.0
1609059065211995057,8817,1609059065211469031,-0.010800393406508846,-0.007840876848543843,0.012193861476355039,0.0,0.0,0.0,1.0
1609059065261351185,8818,1609059065261025048,-0.009601087754667503,-0.00876295881206346,0.018814221252899443,0.0,0.0,0.0,1.0
1609059065311593305,8819,1609059065311282969,-0.0063065477629464795,-0.012131298449183703,0.0237665335384456,0.0,0.0,0.0,1.0
1609059065360959916,8820,1609059065360677100,-0.0060992407770612544,-0.011204880290421215,0.040192367116670624,0.0,0.0,0.0,1.0
1609059065412701301,8821,1609059065412217951,-0.004552294091684672,-0.012756500375001423,0.053128453040166335,0.0,0.0,0.0,1.0
1609059065461168084,8822,1609059065460887051,-0.0010685239772030286,-0.01599479296148587,0.08210704142315706,0.0,0.0,0.0,1.0
1609059065510392621,8823,1609059065510054923,0.000772203978417707,-0.0179394984576291,0.09873436704337024,0.0,0.0,0.0,1.0
1609059065561043569,8824,1609059065560787058,0.002632802824081182,-0.019551228356490924,0.11654504463098547,0.0,0.0,0.0,1.0
1609059065611588858,8825,1609059065611212111,0.003997045110843089,-0.021381316132806916,0.13635937500351503,0.0,0.0,0.0,1.0
1609059065662429746,8826,1609059065661968089,0.005203747889581223,-0.023100805673561098,0.15721285175254351,0.0,0.0,0.0,1.0
1609059065712242098,8827,1609059065711843110,0.007007095407256969,-0.027872102465018145,0.19864794362015914,0.0,0.0,0.0,1.0
1609059065762553408,8828,1609059065762305117,0.007209633886116507,-0.029861765994066758,0.22028319645654904,0.0,0.0,0.0,1.0
1609059065809880008,8829,1609059065809562064,0.007141470323261956,-0.03211997063215222,0.2431529621619255,0.0,0.0,0.0,1.0
1609059065861322476,8830,1609059065860966063,0.006678612569327669,-0.0344471019293735,0.267726894737617,0.0,0.0,0.0,1.0
1609059065911146861,8831,1609059065910872078,0.005978488601130039,-0.03686486100916753,0.29134368042823766,0.0,0.0,0.0,1.0
1609059065961871501,8832,1609059065961218930,0.0031822143898168065,-0.041946734577727796,0.3396570060131765,0.0,0.0,0.0,1.0
1609059066012646177,8833,1609059066012298918,0.0011512127062012212,-0.0441262632148991,0.36506684693877745,0.0,0.0,0.0,1.0
1609059066067625947,8834,1609059066067318059,-0.0010234075086188454,-0.04590372604189241,0.38998594667098985,0.0,0.0,0.0,1.0
1609059066116984946,8835,1609059066116757966,-0.003596399372753467,-0.048027366869149546,0.413718764030083,0.0,0.0,0.0,1.0
1609059066170000738,8836,1609059066169602967,-0.008230835511390922,-0.052122998496273,0.4606887052168567,0.0,0.0,0.0,1.0
1609059066216350141,8837,1609059066215828991,-0.011230120164004376,-0.054313322124340147,0.48467114912225995,0.0,0.0,0.0,1.0
1609059066268041432,8838,1609059066267691947,-0.014204282894812792,-0.056466520108550355,0.5078133452998763,0.0,0.0,0.0,1.0
1609059066314621495,8839,1609059066314173079,-0.017759200487866167,-0.05840465508471482,0.5295422323583168,0.0,0.0,0.0,1.0
1609059066368971323,8840,1609059066368594027,-0.020963438772589882,-0.06074181675703727,0.5509034631033529,0.0,0.0,0.0,1.0
1609059066418585942,8841,1609059066417888976,-0.029417705479456657,-0.06505052498997799,0.5935576988320364,0.0,0.0,0.0,1.0
1609059066466579405,8842,1609059066466152049,-0.03358063133900302,-0.06663918285551773,0.6128354721992793,0.0,0.0,0.0,1.0
1609059066516162704,8843,1609059066515782929,-0.03804127619908115,-0.06926463626399482,0.6330439439370323,0.0,0.0,0.0,1.0
1609059066569980021,8844,1609059066569561101,-0.0422822448057083,-0.0716152260488343,0.6518799805276849,0.0,0.0,0.0,1.0
1609059066618583147,8845,1609059066618276930,-0.04613261680360026,-0.07360576510786032,0.6715441788703806,0.0,0.0,0.0,1.0
1609059066667149474,8846,1609059066666853047,-0.055381079913047415,-0.07749355141690017,0.7097575557242735,0.0,0.0,0.0,1.0
1609059066715406082,8847,1609059066714965916,-0.06127371389676384,-0.07992935378861077,0.7284615570472397,0.0,0.0,0.0,1.0
1609059066769218419,8848,1609059066768891907,-0.06549759887035478,-0.08146435466918334,0.7455408184892889,0.0,0.0,0.0,1.0
1609059066816203864,8849,1609059066815790034,-0.07053397302825104,-0.08350219942055759,0.7646003774570289,0.0,0.0,0.0,1.0
1609059066871389931,8850,1609059066871042109,-0.07905672463902036,-0.08743218997995683,0.8016155436671042,0.0,0.0,0.0,1.0
1609059066917378283,8851,1609059066917111969,-0.08388706893846987,-0.09026572319385551,0.8207630961590127,0.0,0.0,0.0,1.0
1609059066967976071,8852,1609059066967727042,-0.08855594121781252,-0.09182001678793839,0.8400376184932945,0.0,0.0,0.0,1.0
1609059067016571194,8853,1609059067016174889,-0.09283257796126776,-0.09417995835499227,0.8600342317441729,0.0,0.0,0.0,1.0
1609059067070803251,8854,1609059067070432997,-0.0973670767885082,-0.09561832265965009,0.8800701124435975,0.0,0.0,0.0,1.0
1609059067117914406,8855,1609059067117092944,-0.10666270115615717,-0.09883946998227344,0.9240433625430349,0.0,0.0,0.0,1.0
1609059067168270039,8856,1609059067167837000,-0.1105888849665071,-0.1004306934984669,0.9472953686568353,0.0,0.0,0.0,1.0
1609059067216463873,8857,1609059067216130114,-0.11545704407133428,-0.10195736831389013,0.9706812009937842,0.0,0.0,0.0,1.0
1609059067265922295,8858,1609059067265441037,-0.11885065583185295,-0.10328950633844869,0.9930867178060439,0.0,0.0,0.0,1.0
1609059067316319130,8859,1609059067316021061,-0.12305011820216194,-0.10399163430741964,1.0166413974965742,0.0,0.0,0.0,1.0
1609059067370360277,8860,1609059067369942046,-0.13075380866142794,-0.10635639926793772,1.0641467640680453,0.0,0.0,0.0,1.0
1609059067418051505,8861,1609059067417642928,-0.13551563613247808,-0.1072711037891132,1.0871995085441348,0.0,0.0,0.0,1.0
1609059067468700553,8862,1609059067468091107,-0.13793904068432994,-0.10726847312755794,1.1105825877005024,0.0,0.0,0.0,1.0
1609059067516492613,8863,1609059067516147948,-0.14117328752367087,-0.10707246140284354,1.1371806136036149,0.0,0.0,0.0,1.0
1609059067570432328,8864,1609059067569914914,-0.14922513725906938,-0.1075995314090683,1.1927528362990643,0.0,0.0,0.0,1.0
1609059067617567462,8865,1609059067617086030,-0.15266593079893198,-0.10777007429738106,1.2212035182751713,0.0,0.0,0.0,1.0
1609059067668158247,8866,1609059067667717076,-0.15593245633131403,-0.10786860184668612,1.2486708408374447,0.0,0.0,0.0,1.0
1609059067716258345,8867,1609059067715962983,-0.15944934099523067,-0.1074452001342685,1.2778525072691522,0.0,0.0,0.0,1.0
1609059067768070134,8868,1609059067767742968,-0.16265615468821437,-0.10687851751614375,1.3074097548338859,0.0,0.0,0.0,1.0
1609059067819544073,8869,1609059067818132020,-0.1656409177892222,-0.10617272406154399,1.3360383916411394,0.0,0.0,0.0,1.0
1609059067868584772,8870,1609059067868094063,-0.16873218814766133,-0.1054312528218766,1.3649078583394925,0.0,0.0,0.0,1.0
1609059067917290900,8871,1609059067916330910,-0.1738864403711169,-0.10449541468275214,1.4174857022759202,0.0,0.0,0.0,1.0
1609059068011461611,8872,1609059068010885096,-0.17929331914741908,-0.10249327516254425,1.4730942759005234,0.0,0.0,0.0,1.0
1609059068120878218,8873,1609059068120441056,-0.1862745390460745,-0.09831147927119588,1.5610240454013518,0.0,0.0,0.0,1.0
1609059068169797436,8874,1609059068168758011,-0.18793956634710796,-0.09715381962849534,1.5896540724813697,0.0,0.0,0.0,1.0
1609059068215811082,8875,1609059068215323067,-0.19034414633104646,-0.09562323770916237,1.6201632583036947,0.0,0.0,0.0,1.0
1609059068265389768,8876,1609059068264998055,-0.19363261168042456,-0.09360572675964463,1.6512752894699219,0.0,0.0,0.0,1.0
1609059068317244674,8877,1609059068316964961,-0.19518028691354417,-0.09129975636912135,1.679288901240625,0.0,0.0,0.0,1.0
1609059068370120983,8878,1609059068369728900,-0.19724816501793185,-0.08951285659736286,1.708059987268662,0.0,0.0,0.0,1.0
1609059068417139015,8879,1609059068416693068,-0.20166635525234966,-0.08513354375292437,1.7668126884081552,0.0,0.0,0.0,1.0
1609059068467611398,8880,1609059068467240906,-0.20339097466951017,-0.0830619560950332,1.7948299913425974,0.0,0.0,0.0,1.0
1609059068510656332,8881,1609059068510151959,-0.20561758049410983,-0.08060245364589491,1.821577521507729,0.0,0.0,0.0,1.0
1609059068563593475,8882,1609059068563139058,-0.20712992846955913,-0.0780255610596221,1.8476524914803143,0.0,0.0,0.0,1.0
1609059068613714060,8883,1609059068613398886,-0.21103008158837966,-0.07149461869259355,1.902064704404614,0.0,0.0,0.0,1.0
1609059068659936007,8884,1609059068659636117,-0.2129831428499891,-0.06813421248089568,1.92757184634762,0.0,0.0,0.0,1.0
1609059068710466655,8885,1609059068710106946,-0.21508934724031548,-0.0647467500631862,1.9540965916847632,0.0,0.0,0.0,1.0
1609059068762510961,8886,1609059068762185908,-0.21695670655089927,-0.06142873296688833,1.979985457866679,0.0,0.0,0.0,1.0
1609059068811299513,8887,1609059068810608006,-0.21893419218011445,-0.05757451429850491,2.006536144521254,0.0,0.0,0.0,1.0
1609059068862524852,8888,1609059068862106896,-0.22332290512533604,-0.04925618814753463,2.05997441002787,0.0,0.0,0.0,1.0
1609059068911737527,8889,1609059068911436892,-0.22548652632026034,-0.045194834803730544,2.0855657126681315,0.0,0.0,0.0,1.0
1609059068960989803,8890,1609059068960553027,-0.2272743237614243,-0.0413113538416674,2.110136774322946,0.0,0.0,0.0,1.0
1609059069012512387,8891,1609059069012225009,-0.2291797546590253,-0.036834075996264204,2.1367157375716648,0.0,0.0,0.0,1.0
1609059069062230340,8892,1609059069061744071,-0.23126425651076588,-0.03205462094238953,2.162404536280583,0.0,0.0,0.0,1.0
1609059069109655905,8893,1609059069109280921,-0.23469528740980294,-0.02296415505248106,2.2130663967240842,0.0,0.0,0.0,1.0
1609059069163415501,8894,1609059069163124896,-0.23658004572390468,-0.017809647527855077,2.240293487552803,0.0,0.0,0.0,1.0
1609059069210482044,8895,1609059069210131026,-0.23814432536158847,-0.01292856445804702,2.2668896660689093,0.0,0.0,0.0,1.0
1609059069260620408,8896,1609059069259759045,-0.23983194386460127,-0.008752268836023092,2.2936440571788417,0.0,0.0,0.0,1.0
1609059069328893653,8897,1609059069327539063,-0.24380594607676898,0.0014113841683638384,2.3494411167121285,0.0,0.0,0.0,1.0
1609059069377529050,8898,1609059069376619912,-0.24524154540128862,0.006647873636801194,2.3789565923353884,0.0,0.0,0.0,1.0
1609059069422183568,8899,1609059069421757079,-0.2460345845180214,0.01150503823355109,2.4059642207897607,0.0,0.0,0.0,1.0
1609059069471360356,8900,1609059069471012927,-0.24727920468068376,0.016975741427977198,2.43451620881358,0.0,0.0,0.0,1.0
1609059069515624759,8901,1609059069515227891,-0.24867938674325885,0.022142598859154816,2.4637707479038564,0.0,0.0,0.0,1.0
1609059069567864644,8902,1609059069567556000,-0.2515716059086479,0.03290324832080671,2.522618014429021,0.0,0.0,0.0,1.0
1609059069617317552,8903,1609059069616932965,-0.25240993972515113,0.038023584097782503,2.5511941651430305,0.0,0.0,0.0,1.0
1609059069666470263,8904,1609059069666148043,-0.25246850989240244,0.043805867562777934,2.580255619887385,0.0,0.0,0.0,1.0
1609059069716838501,8905,1609059069716575957,-0.25373728166023923,0.04870931291707237,2.607858090699821,0.0,0.0,0.0,1.0
1609059069768823963,8906,1609059069768562890,-0.25497564456545874,0.05495364557122073,2.637487857441828,0.0,0.0,0.0,1.0
1609059069818264260,8907,1609059069817957974,-0.25626952623334986,0.06678406844370954,2.6960939738085017,0.0,0.0,0.0,1.0
1609059069869996132,8908,1609059069869685984,-0.25670128174813556,0.07272582699923902,2.7262582158119244,0.0,0.0,0.0,1.0
1609059069917200092,8909,1609059069916819907,-0.25655797188142415,0.07839982187715222,2.753906956012397,0.0,0.0,0.0,1.0
1609059069968636945,8910,1609059069967784024,-0.25730352271821744,0.08468513393564336,2.7837444914366323,0.0,0.0,0.0,1.0
1609059070015162628,8911,1609059070014896966,-0.2576125318074638,0.09092606138903392,2.8132107996198545,0.0,0.0,0.0,1.0
1609059070068947826,8912,1609059070068646050,-0.25839512347477367,0.10470540325251321,2.876069798617765,0.0,0.0,0.0,1.0
1609059070116053052,8913,1609059070115722037,-0.2589549843915506,0.1117688363995768,2.906626494894386,0.0,0.0,0.0,1.0
1609059070166832323,8914,1609059070166584111,-0.2589743951911956,0.11837693185520948,2.935875518086572,0.0,0.0,0.0,1.0
1609059070217952734,8915,1609059070217449999,-0.2590461104977919,0.12506727416888452,2.9664516987143195,0.0,0.0,0.0,1.0
1609059070270890747,8916,1609059070269989110,-0.2589073035585798,0.13220143700474907,2.997139429439672,0.0,0.0,0.0,1.0
1609059070317570857,8917,1609059070317109919,-0.25878237602746523,0.1461825310120055,3.0568124174838154,0.0,0.0,0.0,1.0
1609059070368100426,8918,1609059070367441988,-0.25897287190834817,0.15360702483920008,3.0869054811636545,0.0,0.0,0.0,1.0
1609059070416514660,8919,1609059070416131115,-0.25903887954084226,0.15978596798130695,3.1144542269508904,0.0,0.0,0.0,1.0
1609059070468384225,8920,1609059070467907048,-0.25953024418043213,0.1664112515205325,3.1445812575678485,0.0,0.0,0.0,1.0
1609059070517429853,8921,1609059070516784049,-0.25931979660138893,0.1735235531994732,3.172897466427937,0.0,0.0,0.0,1.0
1609059070568517193,8922,1609059070567602969,-0.2592265740682862,0.18806474538941487,3.2321148004088887,0.0,0.0,0.0,1.0
1609059070618696561,8923,1609059070618299103,-0.25908677120526136,0.19508656072501296,3.2618543667557542,0.0,0.0,0.0,1.0
1609059070668293821,8924,1609059070667094088,-0.2591146000160336,0.2020533035486345,3.292318205742223,0.0,0.0,0.0,1.0
1609059070718175106,8925,1609059070717692948,-0.2596593669188003,0.2094502770467166,3.3241824515580447,0.0,0.0,0.0,1.0
1609059070769764306,8926,1609059070769349909,-0.2591283550864105,0.21634031804321197,3.3540937787317056,0.0,0.0,0.0,1.0
1609059070815686124,8927,1609059070815215922,-0.2591878604941691,0.2296417706929823,3.4110471177203205,0.0,0.0,0.0,1.0
1609059070866287760,8928,1609059070865973092,-0.26015281194831985,0.2358199861987309,3.4408211488405662,0.0,0.0,0.0,1.0
1609059070916580602,8929,1609059070916034079,-0.25974607880907286,0.24313773302354136,3.4696236028709713,0.0,0.0,0.0,1.0
1609059070968966579,8930,1609059070968614913,-0.26044410601618395,0.24950495236059567,3.497643698694672,0.0,0.0,0.0,1.0
1609059071018297203,8931,1609059071017885066,-0.26157538644981315,0.2568366911772735,3.526960361977469,0.0,0.0,0.0,1.0
1609059071068129556,8932,1609059071067873097,-0.2624332248132504,0.26355256395556026,3.5557718903232445,0.0,0.0,0.0,1.0
1609059071117998137,8933,1609059071117575026,-0.26401162693419167,0.27801832419820727,3.612515184731132,0.0,0.0,0.0,1.0
1609059071168275093,8934,1609059071167825079,-0.2657943185686946,0.28401853019461853,3.6389794522727783,0.0,0.0,0.0,1.0
1609059071215440815,8935,1609059071215099907,-0.2668741530581329,0.29193666493524617,3.6670264322147386,0.0,0.0,0.0,1.0
1609059071269211905,8936,1609059071268796063,-0.2689992757619919,0.2989760047143193,3.6937919451241275,0.0,0.0,0.0,1.0
1609059071317692472,8937,1609059071317314959,-0.27032345085689613,0.30641121648618963,3.720786136098198,0.0,0.0,0.0,1.0
1609059071368036458,8938,1609059071367692090,-0.27446058881102076,0.32024692884772676,3.77284031790996,0.0,0.0,0.0,1.0
1609059071416650033,8939,1609059071416322089,-0.2765178341410284,0.32745894229653416,3.7987185048076544,0.0,0.0,0.0,1.0
1609059071468989798,8940,1609059071468150950,-0.27916499157021235,0.3347855464588321,3.8246712740986606,0.0,0.0,0.0,1.0
1609059071519156573,8941,1609059071518735028,-0.28135620750029133,0.3428148713274908,3.8517309801004345,0.0,0.0,0.0,1.0
1609059071570597697,8942,1609059071570228911,-0.2872498146381197,0.3591606496273059,3.905864739291431,0.0,0.0,0.0,1.0
1609059071617798940,8943,1609059071617461062,-0.2905158790921192,0.36642093442104695,3.930628146344757,0.0,0.0,0.0,1.0
1609059071666427313,8944,1609059071666026927,-0.29348514463288566,0.373354392132736,3.9537569966143575,0.0,0.0,0.0,1.0
1609059071716710883,8945,1609059071716457940,-0.29670507810480373,0.38048394416586717,3.9763345749390115,0.0,0.0,0.0,1.0
1609059071770842652,8946,1609059071770456887,-0.30026994751144187,0.38814984947995157,3.998939146947931,0.0,0.0,0.0,1.0
1609059071818328945,8947,1609059071817504979,-0.3074479746507386,0.4027346411170676,4.040270280742927,0.0,0.0,0.0,1.0
1609059071866197891,8948,1609059071865861035,-0.3111065306777512,0.41033174069017164,4.061882114167149,0.0,0.0,0.0,1.0
1609059071916558672,8949,1609059071916035986,-0.3152300436449025,0.41661758667902404,4.081465498901782,0.0,0.0,0.0,1.0
1609059071968135892,8950,1609059071967456913,-0.31893573828258326,0.42371739850665335,4.101892449199973,0.0,0.0,0.0,1.0
1609059072018672485,8951,1609059072018355942,-0.3227092510304743,0.4305393809182405,4.1215890231153445,0.0,0.0,0.0,1.0
1609059072070201768,8952,1609059072069907046,-0.33132920048218395,0.44422543283234006,4.160291219223959,0.0,0.0,0.0,1.0
1609059072110661857,8953,1609059072109938956,-0.3357620748641921,0.45121977664008384,4.179219863477888,0.0,0.0,0.0,1.0
1609059072161862988,8954,1609059072161506987,-0.33951769418731814,0.45782840267452585,4.197723160461916,0.0,0.0,0.0,1.0
1609059072210452742,8955,1609059072209986067,-0.3431951885187523,0.4639963467054997,4.214909639249742,0.0,0.0,0.0,1.0
1609059072262070458,8956,1609059072261726952,-0.3470178606687213,0.4704055181250517,4.232299621439026,0.0,0.0,0.0,1.0
1609059072313068786,8957,1609059072312769032,-0.3564316811263737,0.48290852311075483,4.26752150447601,0.0,0.0,0.0,1.0
1609059072361378428,8958,1609059072361063099,-0.3608726167514469,0.4881343918160539,4.283401957240972,0.0,0.0,0.0,1.0
1609059072416488347,8959,1609059072416118002,-0.3651898427782889,0.4933280213869615,4.298191034968436,0.0,0.0,0.0,1.0
1609059072470407677,8960,1609059072470073081,-0.3690800502532561,0.4988041309193356,4.311809122644341,0.0,0.0,0.0,1.0
1609059072517634436,8961,1609059072517272091,-0.37375270790214543,0.5036865122856042,4.324238258878307,0.0,0.0,0.0,1.0
1609059072569467923,8962,1609059072569024897,-0.3820039301333402,0.5146034407767246,4.3442274552705715,0.0,0.0,0.0,1.0
1609059072615811021,8963,1609059072615374899,-0.38640166586769453,0.5187148096064611,4.351452403394038,0.0,0.0,0.0,1.0
1609059072668010208,8964,1609059072667621947,-0.39020802848500225,0.5226574442186411,4.357678531971763,0.0,0.0,0.0,1.0
1609059072711637554,8965,1609059072710878945,-0.394201976597504,0.5262304330085357,4.362827429691729,0.0,0.0,0.0,1.0
1609059072760795396,8966,1609059072760371066,-0.39798219102549837,0.5296066139042352,4.3675034582260714,0.0,0.0,0.0,1.0
1609059072813296451,8967,1609059072812902070,-0.40628281052100235,0.5352002185037783,4.375215210822361,0.0,0.0,0.0,1.0
1609059072860213823,8968,1609059072859819031,-0.40977546118578445,0.5368941603882291,4.377790138186944,0.0,0.0,0.0,1.0
1609059072910727342,8969,1609059072910427905,-0.4133351371260723,0.5381474078972879,4.3797980317558505,0.0,0.0,0.0,1.0
1609059072964298668,8970,1609059072963751889,-0.4168806346491216,0.5383968221017916,4.381316704847853,0.0,0.0,0.0,1.0
1609059073018253292,8971,1609059073017895079,-0.42034810275942647,0.5380419910753815,4.3822571222987445,0.0,0.0,0.0,1.0
1609059073070862362,8972,1609059073070453024,-0.4267348086691847,0.5346747010860007,4.38121610497385,0.0,0.0,0.0,1.0
1609059073117924594,8973,1609059073117556906,-0.42931416035188974,0.5319797014831522,4.37882084667079,0.0,0.0,0.0,1.0
1609059073167592193,8974,1609059073167174912,-0.4313377825708429,0.529114130468713,4.376329572801932,0.0,0.0,0.0,1.0
1609059073217671257,8975,1609059073216889954,-0.43366491791050876,0.5240767642729303,4.372166814831033,0.0,0.0,0.0,1.0
1609059073270570855,8976,1609059073270126915,-0.43556364387359636,0.5187323995265416,4.366954899693948,0.0,0.0,0.0,1.0
1609059073317974114,8977,1609059073317355013,-0.4385987547472645,0.5045168007598093,4.35398089003875,0.0,0.0,0.0,1.0
1609059073367677565,8978,1609059073367082930,-0.4394850145776097,0.49611226652002927,4.346844963575322,0.0,0.0,0.0,1.0
1609059073416808875,8979,1609059073416545010,-0.4400659683385797,0.4861941575449187,4.338814024823266,0.0,0.0,0.0,1.0
1609059073466690755,8980,1609059073466463900,-0.4407635825328917,0.47472279025774,4.330751029062329,0.0,0.0,0.0,1.0
1609059073524433421,8981,1609059073524079896,-0.43981192093739807,0.4516316690723592,4.314379841042097,0.0,0.0,0.0,1.0
1609059073573819122,8982,1609059073573546029,-0.4389090284911106,0.438651810028329,4.306007713092244,0.0,0.0,0.0,1.0
1609059073616934034,8983,1609059073616668082,-0.43802038924670583,0.42431221736883984,4.297015388658457,0.0,0.0,0.0,1.0
1609059073667279499,8984,1609059073666958905,-0.4363337503524285,0.40915188919112566,4.289005032740775,0.0,0.0,0.0,1.0
1609059073717710504,8985,1609059073717454052,-0.4350854298445235,0.39431510738227615,4.281537583747474,0.0,0.0,0.0,1.0
1609059073768504825,8986,1609059073768034077,-0.4328881429188485,0.377447767084675,4.274199809882045,0.0,0.0,0.0,1.0
1609059073818093145,8987,1609059073817700959,-0.42794825123007385,0.34028700391795397,4.260157344559479,0.0,0.0,0.0,1.0
1609059073866874262,8988,1609059073866376019,-0.42466287933355673,0.3223586660586726,4.253433494310018,0.0,0.0,0.0,1.0
1609059073916523284,8989,1609059073916148997,-0.4209065146210911,0.3018233277008626,4.246636547254724,0.0,0.0,0.0,1.0
1609059073968764110,8990,1609059073968489028,-0.4172682110827317,0.2815398839283816,4.239733349546892,0.0,0.0,0.0,1.0
1609059074019456569,8991,1609059074019003010,-0.4134351800441465,0.2590103995217774,4.231706658963192,0.0,0.0,0.0,1.0
1609059074067773514,8992,1609059074067310906,-0.402913878608711,0.2127944123903447,4.2150399001523375,0.0,0.0,0.0,1.0
1609059074116318349,8993,1609059074115952111,-0.3978509276871378,0.18944783617261862,4.20794821440902,0.0,0.0,0.0,1.0
1609059074168166142,8994,1609059074167887068,-0.3924630303637109,0.16564804811009637,4.200259637019341,0.0,0.0,0.0,1.0
1609059074218607199,8995,1609059074218221045,-0.38605672945564606,0.14072252255024864,4.192287162777776,0.0,0.0,0.0,1.0
1609059074268842585,8996,1609059074268307066,-0.3733117832316495,0.09147543273238057,4.177800170643893,0.0,0.0,0.0,1.0
1609059074317509710,8997,1609059074316896058,-0.36659525001304516,0.06505552542295945,4.16991229251032,0.0,0.0,0.0,1.0
1609059074369073479,8998,1609059074368596888,-0.35823503140863977,0.03777475325437152,4.163296724559162,0.0,0.0,0.0,1.0
1609059074415395119,8999,1609059074414980984,-0.35000871763317676,0.010022131480763363,4.156200807074569,0.0,0.0,0.0,1.0
1609059074468862755,9000,1609059074468585110,-0.34213987345118824,-0.017902760815534435,4.149876760609793,0.0,0.0,0.0,1.0
1609059074517402343,9001,1609059074517112113,-0.3246326621378053,-0.07456106981306121,4.138741837823364,0.0,0.0,0.0,1.0
1609059074568337232,9002,1609059074567902899,-0.3148626086602526,-0.1044367067373777,4.133839294051748,0.0,0.0,0.0,1.0
1609059074617841931,9003,1609059074617395974,-0.3056937859318225,-0.13507502942127658,4.128569002171282,0.0,0.0,0.0,1.0
1609059074667183464,9004,1609059074666299916,-0.2956734757562849,-0.16500292115090787,4.124058030064528,0.0,0.0,0.0,1.0
1609059074717573149,9005,1609059074717320061,-0.28502360356817036,-0.19564866190435737,4.119055000765888,0.0,0.0,0.0,1.0
1609059074769190764,9006,1609059074768941021,-0.2631111373911601,-0.2592940132854693,4.111319439634963,0.0,0.0,0.0,1.0
1609059074816653991,9007,1609059074816080905,-0.2511868557404746,-0.29268067863016256,4.106777730017738,0.0,0.0,0.0,1.0
1609059074866408707,9008,1609059074865896082,-0.23918996832014017,-0.32393556345029495,4.1032538285286595,0.0,0.0,0.0,1.0
1609059074916749274,9009,1609059074916363097,-0.2273149322194108,-0.35642664503227905,4.099588784935634,0.0,0.0,0.0,1.0
1609059074969648603,9010,1609059074969153023,-0.21546550143880694,-0.3900531768250062,4.095572876241478,0.0,0.0,0.0,1.0
1609059075017229102,9011,1609059075016754962,-0.18714882385697962,-0.45895342084063984,4.089853939024405,0.0,0.0,0.0,1.0
1609059075066338630,9012,1609059075065842009,-0.1739627314772143,-0.49137921576646093,4.088274124624105,0.0,0.0,0.0,1.0
1609059075116933087,9013,1609059075116443015,-0.1601603564712839,-0.5263539754359883,4.086307414401418,0.0,0.0,0.0,1.0
1609059075190162692,9014,1609059075189783907,-0.12989075770737557,-0.5984698834222932,4.083280329071144,0.0,0.0,0.0,1.0
1609059075228605347,9015,1609059075228220082,-0.11424496829257436,-0.6359444929454767,4.082506692015221,0.0,0.0,0.0,1.0
1609059075288817745,9016,1609059075288513995,-0.09846685537141298,-0.6731926841225153,4.082563853078149,0.0,0.0,0.0,1.0
1609059075332379608,9017,1609059075331782914,-0.08365725542117985,-0.7069950877704336,4.082129184484957,0.0,0.0,0.0,1.0
1609059075377322455,9018,1609059075376953936,-0.06767846624831719,-0.7430559000756602,4.082435892710061,0.0,0.0,0.0,1.0
1609059075420181410,9019,1609059075419669962,-0.05198334375876712,-0.7800192667282069,4.0827175023875135,0.0,0.0,0.0,1.0
1609059075474915686,9020,1609059075474346972,-0.03454318827798275,-0.8178943483411523,4.084249054827291,0.0,0.0,0.0,1.0
1609059075517801577,9021,1609059075517462111,-0.017372956058739675,-0.8550344505003515,4.0855239501062695,0.0,0.0,0.0,1.0
1609059075569644923,9022,1609059075569312907,0.015216391140242536,-0.9250128930141415,4.088614392043187,0.0,0.0,0.0,1.0
1609059075616735565,9023,1609059075616376019,0.03381037912371454,-0.9634697091758753,4.091644996593697,0.0,0.0,0.0,1.0
1609059075666383293,9024,1609059075665988064,0.05228361633738032,-1.0008547324633632,4.093790176447822,0.0,0.0,0.0,1.0
1609059075717114857,9025,1609059075716669894,0.06952122985261866,-1.037204736456662,4.096104892804151,0.0,0.0,0.0,1.0
1609059075771451009,9026,1609059075771211958,0.10641112839486055,-1.112989309306684,4.102302955797942,0.0,0.0,0.0,1.0
1609059075817854190,9027,1609059075817437029,0.12659315236868807,-1.1511085331989186,4.106683955535576,0.0,0.0,0.0,1.0
1609059075867760542,9028,1609059075867482043,0.14666024285365964,-1.1902745759967601,4.110500787872237,0.0,0.0,0.0,1.0
1609059075919506626,9029,1609059075919227934,0.16451481320238415,-1.2264157170334151,4.113469091834856,0.0,0.0,0.0,1.0
1609059075972181248,9030,1609059075971153117,0.1849212931281201,-1.264403815832484,4.117552674413691,0.0,0.0,0.0,1.0
1609059076019454434,9031,1609059076019085980,0.22504363993146725,-1.3409801305091094,4.124256257660722,0.0,0.0,0.0,1.0
1609059076066843376,9032,1609059076066461897,0.24660331364196963,-1.380667913538673,4.128108752167613,0.0,0.0,0.0,1.0
1609059076116435064,9033,1609059076116012908,0.26667771595849743,-1.417182860794771,4.131660531152505,0.0,0.0,0.0,1.0
1609059076169288940,9034,1609059076168902016,0.28782293418418803,-1.45592966108536,4.13508754003861,0.0,0.0,0.0,1.0
1609059076218225164,9035,1609059076217901087,0.30799173864878426,-1.4941341274494455,4.137316650566918,0.0,0.0,0.0,1.0
1609059076269747135,9036,1609059076269497967,0.3537405551456949,-1.575833409155468,4.141481690225561,0.0,0.0,0.0,1.0
1609059076319043710,9037,1609059076318544007,0.37412026133560516,-1.6130181062155735,4.143340511985716,0.0,0.0,0.0,1.0
1609059076368524914,9038,1609059076368068076,0.3967448815735395,-1.6524481866232925,4.1446540069775875,0.0,0.0,0.0,1.0
1609059076419445504,9039,1609059076419040061,0.4189182183064162,-1.6910830947483113,4.14556449642396,0.0,0.0,0.0,1.0
1609059076468843051,9040,1609059076468491889,0.4653147885358031,-1.7705668559541827,4.148035546842955,0.0,0.0,0.0,1.0
1609059076517255114,9041,1609059076516919947,0.4885531932919953,-1.8097858563005538,4.149211220085814,0.0,0.0,0.0,1.0
1609059076568076589,9042,1609059076567703105,0.5125509218218731,-1.850587373938403,4.150426329526221,0.0,0.0,0.0,1.0
1609059076618571031,9043,1609059076618275977,0.5389314561212011,-1.8938245349209275,4.151859213200483,0.0,0.0,0.0,1.0
1609059076667332771,9044,1609059076666931010,0.5665030078563511,-1.938517126911048,4.152690081977257,0.0,0.0,0.0,1.0
1609059076721649650,9045,1609059076721026993,0.5923894904604801,-1.981118457063399,4.15324206682517,0.0,0.0,0.0,1.0
1609059076770665196,9046,1609059076769621945,0.6191332925762048,-2.024543770481376,4.153071640447909,0.0,0.0,0.0,1.0
1609059076819335839,9047,1609059076818741894,0.6702139546823638,-2.1054490544555655,4.152375187287483,0.0,0.0,0.0,1.0
1609059076866566983,9048,1609059076866040087,0.6966682485292885,-2.146762895387564,4.152608054782666,0.0,0.0,0.0,1.0
1609059076916995864,9049,1609059076916731930,0.7216414552936037,-2.18734708500061,4.152506186369196,0.0,0.0,0.0,1.0
1609059076970545535,9050,1609059076969474888,0.7502066046969773,-2.2296407214319096,4.153326817351553,0.0,0.0,0.0,1.0
1609059077018510192,9051,1609059077018080092,0.8039398417825652,-2.3102984779446167,4.153970264092004,0.0,0.0,0.0,1.0
1609059077068693605,9052,1609059077067730999,0.8314637942398058,-2.350110146617606,4.1543738323162085,0.0,0.0,0.0,1.0
1609059077116729934,9053,1609059077116330958,0.8608660885783443,-2.3912675562649817,4.1549721948280105,0.0,0.0,0.0,1.0
1609059077168220846,9054,1609059077167975045,0.8910774032862498,-2.432802396584009,4.154749579193451,0.0,0.0,0.0,1.0
1609059077218823376,9055,1609059077218499995,0.9197942835610178,-2.4708986270744013,4.154979561869155,0.0,0.0,0.0,1.0
1609059077270830071,9056,1609059077270471907,0.9809947925449407,-2.550627849038218,4.156306055002483,0.0,0.0,0.0,1.0
1609059077317143740,9057,1609059077316743947,1.0112408153059178,-2.5877555451347263,4.157298255991019,0.0,0.0,0.0,1.0
1609059077370089392,9058,1609059077369517899,1.043938572023361,-2.6270219586074255,4.158227937167826,0.0,0.0,0.0,1.0
1609059077414888661,9059,1609059077414402104,1.076202728350129,-2.6647357275453736,4.15862781383467,0.0,0.0,0.0,1.0
1609059077462061821,9060,1609059077461818076,1.1080975470969108,-2.701144829542379,4.159993129048912,0.0,0.0,0.0,1.0
1609059077518367073,9061,1609059077517849064,1.1739016961034494,-2.7726651480682705,4.16161864943432,0.0,0.0,0.0,1.0
1609059077570190345,9062,1609059077569496966,1.208380995478766,-2.808311339934015,4.16288490483614,0.0,0.0,0.0,1.0
1609059077618442678,9063,1609059077617991066,1.2429174175647866,-2.844171395962647,4.165741376037676,0.0,0.0,0.0,1.0
1609059077670357357,9064,1609059077669850922,1.276608042723847,-2.876149927578318,4.166893228740685,0.0,0.0,0.0,1.0
1609059077718873688,9065,1609059077717721081,1.3113656633185364,-2.909542938819392,4.169270656023054,0.0,0.0,0.0,1.0
1609059077769922557,9066,1609059077768880940,1.3487305137727468,-2.9436900420453043,4.170924970314026,0.0,0.0,0.0,1.0
1609059077816599743,9067,1609059077816141940,1.4211398502040034,-3.007180312309714,4.17537909172086,0.0,0.0,0.0,1.0
1609059077867769334,9068,1609059077866480923,1.4563042959997254,-3.0366664079683368,4.177738084064623,0.0,0.0,0.0,1.0
1609059077917173473,9069,1609059077916685915,1.4923843678666344,-3.067112724373281,4.180097073445079,0.0,0.0,0.0,1.0
1609059077978211998,9070,1609059077977814055,1.5667018439913178,-3.1265990113336173,4.186289408269511,0.0,0.0,0.0,1.0
1609059078022514147,9071,1609059078022013045,1.6048857496976296,-3.1562604996957724,4.189800961818499,0.0,0.0,0.0,1.0
1609059078067040349,9072,1609059078066360093,1.6395105158722494,-3.183820765712909,4.192838644684947,0.0,0.0,0.0,1.0
1609059078117171365,9073,1609059078116761065,1.6759329304565398,-3.2119326740409093,4.196930533253184,0.0,0.0,0.0,1.0
1609059078167636830,9074,1609059078167226887,1.713689933403046,-3.2391438349784423,4.200877162724021,0.0,0.0,0.0,1.0
1609059078218043292,9075,1609059078217564917,1.7510584397660267,-3.2671512621308025,4.204920456371299,0.0,0.0,0.0,1.0
1609059078267971802,9076,1609059078267525054,1.8226541194398713,-3.319246478759137,4.2121009689960065,0.0,0.0,0.0,1.0
1609059078317862412,9077,1609059078317283965,1.8590799327343852,-3.3451245551025295,4.217193223852092,0.0,0.0,0.0,1.0
1609059078366307562,9078,1609059078365949965,1.8947461705907145,-3.3704545727348254,4.221605864679415,0.0,0.0,0.0,1.0
1609059078416988039,9079,1609059078416461087,1.9305116712493984,-3.396558915007688,4.226483888209092,0.0,0.0,0.0,1.0
1609059078470693254,9080,1609059078470234013,1.9671233964149906,-3.4223047105154834,4.23239655874284,0.0,0.0,0.0,1.0
1609059078520073907,9081,1609059078519013024,2.035636405098437,-3.470657747469861,4.24449404684893,0.0,0.0,0.0,1.0
1609059078568828369,9082,1609059078568147994,2.068878572705767,-3.495450279242956,4.250818592989315,0.0,0.0,0.0,1.0
1609059078617308545,9083,1609059078616807080,2.1048387068299093,-3.5201246245489415,4.257187534060355,0.0,0.0,0.0,1.0
1609059078666646170,9084,1609059078666001893,2.1406208727663554,-3.54467816593408,4.264044659080932,0.0,0.0,0.0,1.0
1609059078718388863,9085,1609059078717990971,2.173482681840973,-3.5672584833316385,4.269531450199159,0.0,0.0,0.0,1.0
1609059078770746562,9086,1609059078770005084,2.2421542316441148,-3.6168953345592776,4.28330238262294,0.0,0.0,0.0,1.0
1609059078816579669,9087,1609059078816263056,2.276201021302061,-3.6391787811176286,4.289543270368624,0.0,0.0,0.0,1.0
1609059078867847935,9088,1609059078867183066,2.31104235287032,-3.664137256464926,4.295544658991236,0.0,0.0,0.0,1.0
1609059078921689908,9089,1609059078920879937,2.3455850199143065,-3.6888942801932068,4.301843030197684,0.0,0.0,0.0,1.0
1609059078970388585,9090,1609059078969642973,2.378225369577706,-3.712095119240608,4.308355543327046,0.0,0.0,0.0,1.0
1609059079018547432,9091,1609059079018118001,2.4464415684442926,-3.759153297201685,4.321020949605561,0.0,0.0,0.0,1.0
1609059079067366892,9092,1609059079067025996,2.4807995398689826,-3.7844860348706284,4.328580795499947,0.0,0.0,0.0,1.0
1609059079117330471,9093,1609059079116449929,2.513730218332473,-3.806540149505551,4.334905560633068,0.0,0.0,0.0,1.0
1609059079169239109,9094,1609059079168818093,2.548981199797975,-3.8308192441739166,4.342255615247884,0.0,0.0,0.0,1.0
1609059079217528163,9095,1609059079217136956,2.582929327257844,-3.8553638363137885,4.348649776734799,0.0,0.0,0.0,1.0
1609059079271194762,9096,1609059079270860053,2.6558093914115837,-3.90691395574688,4.3622519890223455,0.0,0.0,0.0,1.0
1609059079315358928,9097,1609059079314879990,2.6895463889395828,-3.929489598880153,4.367902313162526,0.0,0.0,0.0,1.0
1609059079368338374,9098,1609059079367846108,2.7240245401583323,-3.9545428203669424,4.373991606621116,0.0,0.0,0.0,1.0
1609059079417091298,9099,1609059079416695929,2.7591014599280435,-3.9792443346787145,4.379217037903475,0.0,0.0,0.0,1.0
1609059079470118777,9100,1609059079469632960,2.796188227304242,-4.00431819222581,4.3848351547006885,0.0,0.0,0.0,1.0
1609059079517321565,9101,1609059079516964055,2.8679961165083405,-4.053913892714853,4.395355626967138,0.0,0.0,0.0,1.0
1609059079570318466,9102,1609059079569825030,2.9031503564573704,-4.078848065281257,4.400655185943629,0.0,0.0,0.0,1.0
1609059079616996259,9103,1609059079616504050,2.941438961989462,-4.104675885092448,4.4063898314597925,0.0,0.0,0.0,1.0
1609059079669801273,9104,1609059079669420100,2.9773027277510913,-4.12749224770355,4.41074599095411,0.0,0.0,0.0,1.0
1609059079717989751,9105,1609059079717331028,3.0500618142121603,-4.178388527128714,4.420401547534061,0.0,0.0,0.0,1.0
1609059079768769756,9106,1609059079768488980,3.0887432348774944,-4.204557530087122,4.425867058280776,0.0,0.0,0.0,1.0
1609059079817168798,9107,1609059079816804982,3.127560625348611,-4.230803194409411,4.431539653245995,0.0,0.0,0.0,1.0
1609059079866933080,9108,1609059079866257048,3.16337096937713,-4.256011480657616,4.4359384144861185,0.0,0.0,0.0,1.0
1609059079917711692,9109,1609059079917379952,3.201099649809599,-4.281762221033837,4.440321789393433,0.0,0.0,0.0,1.0
1609059079970502688,9110,1609059079970057107,3.2402765976019765,-4.308367149729644,4.446442029704583,0.0,0.0,0.0,1.0
1609059080018950855,9111,1609059080018549061,3.3155645863307264,-4.359559258380045,4.45712636922179,0.0,0.0,0.0,1.0
1609059080069242993,9112,1609059080068875886,3.351598091025334,-4.384685379745015,4.4625138461610785,0.0,0.0,0.0,1.0
1609059080116609036,9113,1609059080116258956,3.3896727392047126,-4.410107723054072,4.4684256636059025,0.0,0.0,0.0,1.0
1609059080174203855,9114,1609059080171377993,3.4293165459838235,-4.435024207847885,4.473522505627278,0.0,0.0,0.0,1.0
1609059080218668410,9115,1609059080218262053,3.4670369314508385,-4.462203719559401,4.479938491642637,0.0,0.0,0.0,1.0
1609059080269396046,9116,1609059080268652058,3.5446673340805575,-4.515232060018864,4.49223370635071,0.0,0.0,0.0,1.0
1609059080360622639,9117,1609059080360086060,3.6158636604573395,-4.563421509031958,4.503629195257508,0.0,0.0,0.0,1.0
1609059080431358821,9118,1609059080430606938,3.693248806399607,-4.615596328767182,4.516338414760419,0.0,0.0,0.0,1.0
1609059080476267816,9119,1609059080475931025,3.732226081918636,-4.641176564880791,4.523054443432931,0.0,0.0,0.0,1.0
1609059080520389206,9120,1609059080519910908,3.7677142340277463,-4.665724876721985,4.528816320911027,0.0,0.0,0.0,1.0
1609059080570063760,9121,1609059080569636918,3.8037007498692805,-4.6908059057704605,4.535671684889683,0.0,0.0,0.0,1.0
1609059080618463249,9122,1609059080618089057,3.8410901896035643,-4.714305150076381,4.5417105631430665,0.0,0.0,0.0,1.0
1609059080668432998,9123,1609059080668099976,3.8795049657703675,-4.739591589316429,4.548825501008162,0.0,0.0,0.0,1.0
1609059080718944718,9124,1609059080718525982,3.9510184026933537,-4.787496993513848,4.559918933413767,0.0,0.0,0.0,1.0
1609059080769093915,9125,1609059080768746949,3.988339416155485,-4.811057894967856,4.5658250214422775,0.0,0.0,0.0,1.0
1609059080817953147,9126,1609059080817067004,4.027056720474398,-4.83555892660457,4.57194566741776,0.0,0.0,0.0,1.0
1609059080869020610,9127,1609059080868639088,4.063963707223568,-4.860416867178973,4.577554333397266,0.0,0.0,0.0,1.0
1609059080918477676,9128,1609059080917792893,4.099138142273528,-4.883149671828864,4.5824363796139576,0.0,0.0,0.0,1.0
1609059080972304089,9129,1609059080971730090,4.173168144584352,-4.928649682131709,4.59319023504645,0.0,0.0,0.0,1.0
1609059081016970641,9130,1609059081016623116,4.210197051759675,-4.952375909903143,4.598414790057586,0.0,0.0,0.0,1.0
1609059081068061849,9131,1609059081067319012,4.247166783686016,-4.976614504357464,4.602361214352197,0.0,0.0,0.0,1.0
1609059081115977776,9132,1609059081115620947,4.283975983004254,-4.998734357949111,4.6062639120133575,0.0,0.0,0.0,1.0
1609059081170573428,9133,1609059081170327998,4.322129687824052,-5.021705192192734,4.60966820288551,0.0,0.0,0.0,1.0
1609059081217922941,9134,1609059081217363930,4.35735655152183,-5.044225218098976,4.612967522542251,0.0,0.0,0.0,1.0
1609059081267342828,9135,1609059081266884900,4.429388634530717,-5.08977381183308,4.618990870960344,0.0,0.0,0.0,1.0
1609059081317694166,9136,1609059081317246056,4.466976243808343,-5.112185546206437,4.621393588793323,0.0,0.0,0.0,1.0
1609059081366262790,9137,1609059081365789032,4.501468442201913,-5.133917455223166,4.623813222813235,0.0,0.0,0.0,1.0
1609059081418697339,9138,1609059081418348885,4.536084917679489,-5.1563274093629765,4.625629958425845,0.0,0.0,0.0,1.0
1609059081468715528,9139,1609059081468402958,4.609278827476372,-5.20045327351259,4.629386832355188,0.0,0.0,0.0,1.0
1609059081517253636,9140,1609059081516723967,4.644769025637771,-5.223297010314795,4.631629153840885,0.0,0.0,0.0,1.0
1609059081568288238,9141,1609059081568040944,4.677790009843241,-5.245150890569764,4.63319255939127,0.0,0.0,0.0,1.0
1609059081617636548,9142,1609059081617348052,4.7130896502284845,-5.267074624257901,4.635242185177523,0.0,0.0,0.0,1.0
1609059081666228150,9143,1609059081665617085,4.7487386936337135,-5.288616266255421,4.636884613867421,0.0,0.0,0.0,1.0
1609059081718662051,9144,1609059081718294001,4.783163927450088,-5.310840827949438,4.63881894257276,0.0,0.0,0.0,1.0
1609059081769208574,9145,1609059081768739081,4.850786924189922,-5.353401090977169,4.642882311153006,0.0,0.0,0.0,1.0
1609059081818162238,9146,1609059081817664004,4.88146430826523,-5.370804228241585,4.644704637815428,0.0,0.0,0.0,1.0
1609059081867897711,9147,1609059081866976119,4.911094589311814,-5.389122088497491,4.646187274783877,0.0,0.0,0.0,1.0
1609059081918572369,9148,1609059081918331957,4.942282762651088,-5.409698384399196,4.648216094257142,0.0,0.0,0.0,1.0
1609059081970021842,9149,1609059081969750977,4.974902909678084,-5.431020871439852,4.6512542984742975,0.0,0.0,0.0,1.0
1609059082018527471,9150,1609059082018203116,5.032590754868078,-5.469078070014685,4.6554039470023145,0.0,0.0,0.0,1.0
1609059082064980805,9151,1609059082064581013,5.060254975086213,-5.488444807470099,4.657719579110381,0.0,0.0,0.0,1.0
1609059082116358681,9152,1609059082115995980,5.0879505593010865,-5.506262727659458,4.659703037471868,0.0,0.0,0.0,1.0
1609059082169323486,9153,1609059082169031954,5.115434880296091,-5.525114733741219,4.662937256274265,0.0,0.0,0.0,1.0
1609059082219219256,9154,1609059082218813038,5.1632715989834015,-5.559714678335844,4.667367095022998,0.0,0.0,0.0,1.0
1609059082267426780,9155,1609059082267135001,5.185719494588783,-5.575478392289863,4.668884001154746,0.0,0.0,0.0,1.0
1609059082316975612,9156,1609059082316624976,5.209366120311472,-5.592747212030925,4.670351014632873,0.0,0.0,0.0,1.0
1609059082368235181,9157,1609059082367923117,5.230542455295343,-5.610454728005518,4.672069068978777,0.0,0.0,0.0,1.0
1609059082418863538,9158,1609059082418407059,5.249960515617252,-5.626662028856071,4.673113335893397,0.0,0.0,0.0,1.0
1609059082470222951,9159,1609059082469879008,5.289633501896063,-5.661311634316416,4.675247238200129,0.0,0.0,0.0,1.0
1609059082516523614,9160,1609059082516277886,5.306677115150677,-5.679163244811651,4.676891444143552,0.0,0.0,0.0,1.0
1609059082568247922,9161,1609059082567796088,5.322635139294148,-5.695344276603237,4.678531006117062,0.0,0.0,0.0,1.0
1609059082620040318,9162,1609059082619743920,5.339083206943661,-5.713515115904457,4.680319881637377,0.0,0.0,0.0,1.0
1609059082669321203,9163,1609059082668397046,5.353958210636224,-5.730697574788348,4.681940691790118,0.0,0.0,0.0,1.0
1609059082717296700,9164,1609059082716573096,5.381666057340338,-5.767053372548535,4.685243960761884,0.0,0.0,0.0,1.0
1609059082766320167,9165,1609059082766013957,5.394589763390226,-5.785691455701233,4.68728587259012,0.0,0.0,0.0,1.0
1609059082817912591,9166,1609059082817572928,5.407613622800712,-5.804991081262294,4.6889972649520875,0.0,0.0,0.0,1.0
1609059082868270570,9167,1609059082867982007,5.420260809468866,-5.826154864687865,4.690686268478679,0.0,0.0,0.0,1.0
1609059082916799718,9168,1609059082916385031,5.444278133042211,-5.8682683676223135,4.6943008364194,0.0,0.0,0.0,1.0
1609059082967876162,9169,1609059082967505074,5.4551553509169874,-5.889289869855784,4.696204599540216,0.0,0.0,0.0,1.0
1609059083061822394,9170,1609059083061335898,5.478044810177314,-5.936161985343485,4.700296161800516,0.0,0.0,0.0,1.0
1609059083122729960,9171,1609059083122437096,5.499723085476184,-5.984440467293133,4.705896985649408,0.0,0.0,0.0,1.0
1609059083174084694,9172,1609059083173791028,5.510676531915562,-6.009778966229479,4.70903941343963,0.0,0.0,0.0,1.0
1609059083216703897,9173,1609059083215719080,5.522053589259436,-6.036911523962516,4.7127510499103735,0.0,0.0,0.0,1.0
1609059083266758874,9174,1609059083266367054,5.533399066142566,-6.064883456850932,4.716670805505503,0.0,0.0,0.0,1.0
1609059083316067949,9175,1609059083315276957,5.544214483154411,-6.091215519492007,4.720351841193731,0.0,0.0,0.0,1.0
1609059083370606440,9176,1609059083368987895,5.555435354923743,-6.119462215264701,4.724874144902245,0.0,0.0,0.0,1.0
1609059083418164165,9177,1609059083417917109,5.578934902286884,-6.17842083880619,4.735153757887673,0.0,0.0,0.0,1.0
1609059083466604129,9178,1609059083466210938,5.590460637299508,-6.207076046744305,4.740257313352135,0.0,0.0,0.0,1.0
1609059083517582074,9179,1609059083517197943,5.602337562537926,-6.23799046040083,4.745681337192506,0.0,0.0,0.0,1.0
1609059083569066103,9180,1609059083568787909,5.614940812905083,-6.268970495229837,4.7517734759871875,0.0,0.0,0.0,1.0
1609059083618573150,9181,1609059083618125058,5.627852528627642,-6.301664663310227,4.757346877500748,0.0,0.0,0.0,1.0
1609059083668263233,9182,1609059083667900897,5.653952023774181,-6.366967121704981,4.76972325778015,0.0,0.0,0.0,1.0
1609059083716654972,9183,1609059083716282940,5.667617421145721,-6.400558056541108,4.77591229571815,0.0,0.0,0.0,1.0
1609059083767782702,9184,1609059083767359114,5.679960955990998,-6.432278448479796,4.782233751306025,0.0,0.0,0.0,1.0
1609059083818763950,9185,1609059083818173981,5.694329954991561,-6.467358254867129,4.788988424965218,0.0,0.0,0.0,1.0
1609059083870104982,9186,1609059083869707919,5.720025319678353,-6.533592878452186,4.802176761227056,0.0,0.0,0.0,1.0
1609059083916696845,9187,1609059083916075087,5.732486829518416,-6.566265181994332,4.8077165671072475,0.0,0.0,0.0,1.0
1609059083968165398,9188,1609059083967810011,5.74633483729257,-6.602064479587064,4.814578307142423,0.0,0.0,0.0,1.0
1609059084017773502,9189,1609059084017171002,5.759952082178154,-6.6374000497164225,4.820690272274566,0.0,0.0,0.0,1.0
1609059084074146898,9190,1609059084073340989,5.772729898477097,-6.66974292350633,4.8262428260790795,0.0,0.0,0.0,1.0
1609059084118414221,9191,1609059084118115044,5.798362706647076,-6.737853425814421,4.837424304690245,0.0,0.0,0.0,1.0
1609059084168706384,9192,1609059084168403960,5.811822124673419,-6.772932239451009,4.843752148196556,0.0,0.0,0.0,1.0
1609059084221200886,9193,1609059084220942116,5.825762140509141,-6.8064890677943595,4.850744113571924,0.0,0.0,0.0,1.0
1609059084272930932,9194,1609059084272481061,5.8380880163913105,-6.839534715013173,4.856597122332483,0.0,0.0,0.0,1.0
1609059084317087207,9195,1609059084316696024,5.850542701901896,-6.873496632055513,4.862589076372233,0.0,0.0,0.0,1.0
1609059084369246712,9196,1609059084368438101,5.876929907410169,-6.941458204803304,4.876030801995279,0.0,0.0,0.0,1.0
1609059084416598371,9197,1609059084416184044,5.88942616300505,-6.975571837048818,4.8826611925344245,0.0,0.0,0.0,1.0
1609059084467944220,9198,1609059084467671967,5.9013295386277935,-7.009160414480718,4.8892736780970605,0.0,0.0,0.0,1.0
1609059084516407304,9199,1609059084516105986,5.9126564611145245,-7.040216516047948,4.895372524780319,0.0,0.0,0.0,1.0
1609059084569271463,9200,1609059084569000102,5.925165466904296,-7.071688306312616,4.902152100094298,0.0,0.0,0.0,1.0
1609059084620308383,9201,1609059084619682885,5.947215924068338,-7.136045140355371,4.914502732848334,0.0,0.0,0.0,1.0
1609059084671742035,9202,1609059084671232081,5.958820623667879,-7.167588383023741,4.921318283354697,0.0,0.0,0.0,1.0
1609059084716889327,9203,1609059084716415978,5.969322328956833,-7.1967093119789425,4.927129483986979,0.0,0.0,0.0,1.0
1609059084768769746,9204,1609059084768411017,5.979917412490931,-7.227465957777863,4.9337175817865795,0.0,0.0,0.0,1.0
1609059084818611068,9205,1609059084818215943,5.989523393002065,-7.257144228329221,4.939634928012634,0.0,0.0,0.0,1.0
1609059084870051487,9206,1609059084868995047,6.011666961120586,-7.31842375929606,4.951746384904666,0.0,0.0,0.0,1.0
1609059084916043808,9207,1609059084915700055,6.020596167678672,-7.347072348397305,4.956368374168907,0.0,0.0,0.0,1.0
1609059084969972092,9208,1609059084969579077,6.029926334281628,-7.375975660420401,4.961248130093603,0.0,0.0,0.0,1.0
