%time,field.header.seq,field.header.stamp,field.pose.position.x,field.pose.position.y,field.pose.position.z,field.pose.orientation.x,field.pose.orientation.y,field.pose.orientation.z,field.pose.orientation.w
1609060363469641381,2734,1609060363469351911,0.00035264717933358725,-0.0001282879259925096,-0.0001558170874886855,0.0,0.0,0.0,1.0
1609060363517929121,2735,1609060363517702007,0.000266304851788135,2.4603507235099187e-05,-3.2764293141696044e-05,0.0,0.0,0.0,1.0
1609060363568476157,2736,1609060363568032884,0.0002739580168125144,2.328792620431841e-05,-4.331570308835353e-05,0.0,0.0,0.0,1.0
1609060363617083982,2737,1609060363616619968,0.00045512207472597765,4.5726235470056054e-05,-0.00020609191941645122,0.0,0.0,0.0,1.0
1609060363669560526,2738,1609060363669232034,0.00032282394991156593,-4.835675394687655e-05,6.751014144157352e-06,0.0,0.0,0.0,1.0
1609060363717712707,2739,1609060363717437887,0.00030915808973475123,-5.691694340015374e-05,7.879818777922765e-06,0.0,0.0,0.0,1.0
1609060363769363382,2740,1609060363769132995,0.00031307735710939255,-5.683062420303031e-05,3.7103237353619534e-06,0.0,0.0,0.0,1.0
1609060363817138720,2741,1609060363816620969,0.0003575674280220653,-0.00011900956941346408,-0.000146163293024415,0.0,0.0,0.0,1.0
1609060363869748146,2742,1609060363869218969,0.000265599040982778,1.98402431692557e-05,-3.972176357791568e-05,0.0,0.0,0.0,1.0
1609060363919265661,2743,1609060363918718004,0.0004509867422903824,3.452476419596451e-05,3.8897139020832583e-07,0.0,0.0,0.0,1.0
1609060363969149860,2744,1609060363968428993,0.0002723446777359584,2.0769905731299332e-05,-4.562989885315005e-05,0.0,0.0,0.0,1.0
1609060364019930489,2745,1609060364018787050,0.0003640117142147403,-0.0001240761127618839,-0.00016147525583320999,0.0,0.0,0.0,1.0
1609060364068081691,2746,1609060364067788028,0.0002680836439452605,2.240875119596808e-05,-3.8283641764280674e-05,0.0,0.0,0.0,1.0
1609060364119651857,2747,1609060364119419956,0.00032720979574918374,-4.440572008590493e-05,8.343179164427283e-06,0.0,0.0,0.0,1.0
1609060364167104507,2748,1609060364166568899,0.00025903207316702037,1.883027935178916e-05,-3.414046495819889e-05,0.0,0.0,0.0,1.0
1609060364220951353,2749,1609060364220535898,0.0003517395209762242,-0.00012312619964660598,-0.0001464386130010098,0.0,0.0,0.0,1.0
1609060364270589825,2750,1609060364269806051,0.0004495158196000659,6.555593262547177e-05,-0.00016773234202460685,0.0,0.0,0.0,1.0
1609060364318863706,2751,1609060364317872905,0.0004109113341108639,0.00012063142943219418,-3.586337932404149e-05,0.0,0.0,0.0,1.0
1609060364370150214,2752,1609060364369444990,0.0005069739817820107,-2.2316880865957955e-05,-0.00015346117010395233,0.0,0.0,0.0,1.0
1609060364419332471,2753,1609060364418934011,0.00030265638762116964,-5.280561029152864e-05,-0.00019841619947769118,0.0,0.0,0.0,1.0
1609060364470781436,2754,1609060364470549964,0.00030629008856664086,-5.947172562059677e-05,-0.0002132346770657989,0.0,0.0,0.0,1.0
1609060364517141943,2755,1609060364516580963,0.00032021479135124764,-6.159993650101114e-05,-0.00023200142153712022,0.0,0.0,0.0,1.0
1609060364569654803,2756,1609060364568826103,0.00027038610069851643,4.299588582057368e-06,-7.021722455746726e-05,0.0,0.0,0.0,1.0
1609060364619365514,2757,1609060364618486070,0.00036437177483605865,-0.0001460969858833039,2.249634530571143e-05,0.0,0.0,0.0,1.0
1609060364667226063,2758,1609060364666870021,0.00040341468703175565,9.136430331579959e-05,-7.513797912039877e-05,0.0,0.0,0.0,1.0
1609060364719482014,2759,1609060364718618059,0.00047340460691813746,3.116560006333202e-05,-2.971548494912213e-05,0.0,0.0,0.0,1.0
1609060364766943985,2760,1609060364766617918,0.00031050291640610794,-4.6423631701486556e-05,-0.00019668258774885317,0.0,0.0,0.0,1.0
1609060364817922559,2761,1609060364816910886,0.0003883766399397359,0.00011131275366693671,-2.62140642206532e-05,0.0,0.0,0.0,1.0
1609060364867485842,2762,1609060364866989994,0.00029033297299108085,-3.37319413930004e-05,-0.00015389798510057062,0.0,0.0,0.0,1.0
1609060364918557040,2763,1609060364917939090,0.00031777943369704076,-3.316056936952805e-05,3.6970371212419195e-05,0.0,0.0,0.0,1.0
1609060364969180552,2764,1609060364968490028,0.0002523303739216942,3.330159625392071e-05,-3.2757418821915962e-06,0.0,0.0,0.0,1.0
1609060365019272346,2765,1609060365018791103,0.00034857545217548136,-0.00011244901358864468,-0.0001256242533713703,0.0,0.0,0.0,1.0
1609060365069907524,2766,1609060365069585943,0.0003491532890151916,-0.00011034051520297794,-0.00012283633830278973,0.0,0.0,0.0,1.0
1609060365117400234,2767,1609060365116973066,0.00029494222274095705,-4.107720916479707e-05,-0.00017089187178598308,0.0,0.0,0.0,1.0
1609060365168177912,2768,1609060365167543077,0.00045723255941609864,-5.045884070398188e-05,-0.00014445687229880377,0.0,0.0,0.0,1.0
1609060365217086125,2769,1609060365216736936,0.00048448119725819083,-5.6315520563288146e-05,-0.00018392777545628292,0.0,0.0,0.0,1.0
1609060365269508246,2770,1609060365269127035,0.000390576041549906,0.00011034269971688104,-0.00025032784905576477,0.0,0.0,0.0,1.0
1609060365317543885,2771,1609060365317117118,0.00011421565864466743,-8.305757938131819e-05,-4.032277819376873e-05,0.0,0.0,0.0,1.0
1609060365369055715,2772,1609060365368605995,6.503508454613893e-05,-7.115128219936651e-07,-7.266891956803079e-05,0.0,0.0,0.0,1.0
1609060365419471900,2773,1609060365419071102,6.436940795850887e-05,-1.3129511611253974e-05,-9.209858302838825e-05,0.0,0.0,0.0,1.0
1609060365468156338,2774,1609060365467614078,0.00011105981321435365,-8.932666620253826e-05,-4.703094744584746e-05,0.0,0.0,0.0,1.0
1609060365520815351,2775,1609060365520151042,9.900858595557338e-05,-6.014821285660332e-05,1.359445947457516e-05,0.0,0.0,0.0,1.0
1609060365568362776,2776,1609060365568041944,0.0006721483628915337,8.775273641958847e-06,-6.448347592780124e-05,0.0,0.0,0.0,1.0
1609060365619295225,2777,1609060365618832015,0.000682030628833985,1.24362571547465e-05,-6.940587864434633e-05,0.0,0.0,0.0,1.0
1609060365669521512,2778,1609060365668702983,0.0003906765218246733,0.00012473064554541224,-6.957769237203593e-06,0.0,0.0,0.0,1.0
1609060365717091596,2779,1609060365716791057,0.00016693887646823669,8.451623531158248e-05,-4.634872663800138e-05,0.0,0.0,0.0,1.0
1609060365768560334,2780,1609060365768277072,5.3714213606781414e-05,-4.96170819985764e-07,-5.987070535695693e-05,0.0,0.0,0.0,1.0
1609060365818068460,2781,1609060365817838096,0.00016265724700303963,-0.00015714899134167126,6.2380803171890875e-06,0.0,0.0,0.0,1.0
1609060365869502077,2782,1609060365869101905,-0.00013098840287995017,-4.177111709324777e-05,-0.0001439031027850035,0.0,0.0,0.0,1.0
1609060365915955104,2783,1609060365915625000,0.00011945320305883911,-8.705255350704988e-05,-5.256821134835832e-05,0.0,0.0,0.0,1.0
1609060365968041984,2784,1609060365967101955,0.00020540680850089643,-0.00023271637762078967,-0.00016345870337985957,0.0,0.0,0.0,1.0
1609060366017789314,2785,1609060366017361068,0.00035408037841833107,-0.00011855822197048838,-0.00014159616764075622,0.0,0.0,0.0,1.0
1609060366071610437,2786,1609060366071129941,0.0005447096090307468,-8.94970763916092e-05,-8.390736693542067e-05,0.0,0.0,0.0,1.0
1609060366166653224,2787,1609060366166268014,0.0003841169357343688,-0.00017654535210454014,-4.865078608062845e-05,0.0,0.0,0.0,1.0
1609060366218159610,2788,1609060366217750930,8.78841174021261e-05,-0.0003689095250543062,-3.522854737880721e-05,0.0,0.0,0.0,1.0
1609060366266837779,2789,1609060366266285085,9.267846308347316e-05,-5.980535593153036e-05,2.1111830484699112e-05,0.0,0.0,0.0,1.0
1609060366320155615,2790,1609060366319832944,-4.725203233846287e-05,4.018004018035981e-05,0.0001171958264549744,0.0,0.0,0.0,1.0
1609060366368516819,2791,1609060366368166112,-0.00010837273390151836,-9.102369426017276e-05,-2.8615637081230716e-05,0.0,0.0,0.0,1.0
1609060366418797899,2792,1609060366417719030,0.00024261535240555077,-0.0002878342244159171,0.0001463796922323013,0.0,0.0,0.0,1.0
1609060366467893037,2793,1609060366467579984,-3.4001913697068176e-05,-0.00016690726281609614,-1.347689141795172e-05,0.0,0.0,0.0,1.0
1609060366517889454,2794,1609060366517288112,0.00023642895220632454,-0.00029624314526799367,-8.059104012758667e-05,0.0,0.0,0.0,1.0
1609060366570287689,2795,1609060366569877052,0.0003933885707887441,0.00012456770459223776,-1.0204484208742315e-05,0.0,0.0,0.0,1.0
1609060366617519174,2796,1609060366617144012,0.00038527513002506453,-0.0003099611040688899,0.00017370597285548683,0.0,0.0,0.0,1.0
1609060366668614121,2797,1609060366668351078,0.0004037915933849945,0.00011057885997090011,0.0001757665771968675,0.0,0.0,0.0,1.0
1609060366716230936,2798,1609060366715952062,-0.0006138540077316179,-6.0705043374298384e-05,0.0003563390777721054,0.0,0.0,0.0,1.0
1609060366768922382,2799,1609060366768293046,-0.0003061246573317078,-0.00044638415435116485,5.2128340737311873e-05,0.0,0.0,0.0,1.0
1609060366818429009,2800,1609060366818122053,0.001024256044452443,0.00013784406185024523,-2.1975543322838575e-05,0.0,0.0,0.0,1.0
1609060366867686524,2801,1609060366867343091,0.0004181423872999801,0.0001520649765787141,0.00022734388726775023,0.0,0.0,0.0,1.0
1609060366918052673,2802,1609060366917597913,-0.0003256351955300829,-6.257649947372101e-05,0.00047660886166767114,0.0,0.0,0.0,1.0
1609060366967693976,2803,1609060366967342042,0.001656293231423689,-7.127157293496111e-05,4.414665860252853e-05,0.0,0.0,0.0,1.0
1609060367018933208,2804,1609060367018635892,0.0008021649882046233,0.00034147842353959845,0.000332733362089499,0.0,0.0,0.0,1.0
1609060367067222681,2805,1609060367066862964,-0.0005909137874944292,8.62311280549477e-05,0.00100994798056675,0.0,0.0,0.0,1.0
1609060367121066040,2806,1609060367120592021,0.00017678220998718075,-0.00014732687366247887,0.00044690033091754344,0.0,0.0,0.0,1.0
1609060367168706712,2807,1609060367168382072,0.0006980395840052722,7.510646414843336e-05,0.0004549880369140169,0.0,0.0,0.0,1.0
1609060367220753412,2808,1609060367220066928,-0.0006174611665734631,3.645528361317929e-05,0.0007381892002555901,0.0,0.0,0.0,1.0
1609060367269380215,2809,1609060367268804931,-0.00038904721927579544,-0.00010927488043321887,0.0006906494310214839,0.0,0.0,0.0,1.0
1609060367317480925,2810,1609060367316627883,0.00045908056102206274,-6.99373531851677e-05,0.000482253388572218,0.0,0.0,0.0,1.0
1609060367375645750,2811,1609060367374566936,-1.3172253503057618e-05,-0.0001908654708770996,0.0005850931846929086,0.0,0.0,0.0,1.0
1609060367420052644,2812,1609060367419721984,7.173763335543981e-05,-2.3966729035151957e-05,0.000762705808607933,0.0,0.0,0.0,1.0
1609060367469317651,2813,1609060367468985939,0.0007753827923018264,0.00016572923162527786,0.0005170797952587236,0.0,0.0,0.0,1.0
1609060367518931229,2814,1609060367518623018,0.0010053000679199897,0.00019104492078980684,0.0005254917816053251,0.0,0.0,0.0,1.0
1609060367567427047,2815,1609060367566896104,0.0008899585501893625,-1.8374315555291787e-05,0.0005324240682824666,0.0,0.0,0.0,1.0
1609060367617067439,2816,1609060367616783046,0.0010109692433708517,0.00015242221459743632,0.0006766742522543723,0.0,0.0,0.0,1.0
1609060367669490982,2817,1609060367668949985,0.0007303152380302436,-8.509434192305321e-05,0.00037951522666901383,0.0,0.0,0.0,1.0
1609060367718836415,2818,1609060367718545103,0.00039758069107875826,-0.0002098063462270261,0.0005429105919958488,0.0,0.0,0.0,1.0
1609060367766221993,2819,1609060367765889072,0.00010520092705235129,-7.88620547993446e-05,0.0004166493248831671,0.0,0.0,0.0,1.0
1609060367817669316,2820,1609060367817234897,0.0002429840643891623,1.0138357197320147e-05,0.0004096413192442583,0.0,0.0,0.0,1.0
1609060367869471069,2821,1609060367868952894,0.00033971312144842614,-0.00014281299970164696,0.0004951902109766593,0.0,0.0,0.0,1.0
1609060367923359742,2822,1609060367922713899,-0.00014203958527758687,-3.8417188900297106e-05,0.0007541979245182517,0.0,0.0,0.0,1.0
1609060367969121453,2823,1609060367968738937,-0.001113060762484963,-0.00030598205309928517,0.0011674783190471771,0.0,0.0,0.0,1.0
1609060368018799253,2824,1609060368018197917,-0.002591340429017208,-0.00046984034707264755,0.0014265570343745537,0.0,0.0,0.0,1.0
1609060368068959034,2825,1609060368068566942,-0.004485226611716797,-0.0013518417969500263,0.0016373123113275767,0.0,0.0,0.0,1.0
1609060368118131130,2826,1609060368117813968,-0.007008597477398126,-0.002171046269857868,0.001762191522889367,0.0,0.0,0.0,1.0
1609060368170766839,2827,1609060368170260095,-0.008981753772005163,-0.002686338719573911,0.0015553487919817144,0.0,0.0,0.0,1.0
1609060368217984194,2828,1609060368217667007,-0.011817857962359568,-0.0038511142748092198,0.0014639958779021356,0.0,0.0,0.0,1.0
1609060368268163615,2829,1609060368267810964,-0.012638625494322042,-0.0038526362226463107,0.0014840952024641751,0.0,0.0,0.0,1.0
1609060368318976587,2830,1609060368318668985,-0.012800729442549397,-0.003916812316116847,0.001998615746543919,0.0,0.0,0.0,1.0
1609060368367810543,2831,1609060368367309951,-0.012701318502589487,-0.0037570350058047097,0.002368789149162609,0.0,0.0,0.0,1.0
1609060368424931552,2832,1609060368424606943,-0.01225908453588076,-0.003807544991879297,0.002900940521897155,0.0,0.0,0.0,1.0
1609060368476583292,2833,1609060368476237916,-0.01011297567089997,-0.002952008709037557,0.0041300698965009985,0.0,0.0,0.0,1.0
1609060368523675880,2834,1609060368523241901,-0.009622580894308896,-0.0030247445476945245,0.005233767230400588,0.0,0.0,0.0,1.0
1609060368574325759,2835,1609060368573940896,-0.008666149765385711,-0.002535391430804168,0.006737469938638441,0.0,0.0,0.0,1.0
1609060368625844604,2836,1609060368625032091,-0.008485328037682649,-0.0018085785616648309,0.00926049338374213,0.0,0.0,0.0,1.0
1609060368676707180,2837,1609060368676412963,-0.00842687113318874,-0.0005401160375058112,0.013900029063758979,0.0,0.0,0.0,1.0
1609060368726537260,2838,1609060368725769901,-0.0069806676882500085,0.0013871514940255736,0.02094791598034007,0.0,0.0,0.0,1.0
1609060368777483710,2839,1609060368777173900,-0.00386305212983018,0.0031643262324045907,0.043774036132525396,0.0,0.0,0.0,1.0
1609060368825074591,2840,1609060368824648046,-0.003041255714766322,0.004224188670811202,0.06269052366975103,0.0,0.0,0.0,1.0
1609060368875853803,2841,1609060368875344896,-0.0011048693953092936,0.005573437772515177,0.08307462445289104,0.0,0.0,0.0,1.0
1609060368923693123,2842,1609060368923364067,0.001111217823275723,0.008267013392813993,0.11001205253541357,0.0,0.0,0.0,1.0
1609060368975449736,2843,1609060368974891090,0.0016168228126716144,0.00922593456489551,0.13936463595448245,0.0,0.0,0.0,1.0
1609060369024419597,2844,1609060369023996019,0.006026772286173099,0.014035968531587173,0.20805670646713637,0.0,0.0,0.0,1.0
1609060369076870386,2845,1609060369076563024,0.005645942515844382,0.0162773519663304,0.25022551441853125,0.0,0.0,0.0,1.0
1609060369122590156,2846,1609060369122320079,0.0065254301820480975,0.018601496059130085,0.2950049265687653,0.0,0.0,0.0,1.0
1609060369176339362,2847,1609060369175933027,0.005475034500076248,0.021591195312840483,0.3458362210344248,0.0,0.0,0.0,1.0
1609060369225624890,2848,1609060369225181007,0.004460880176381465,0.025012164003417325,0.4001676670335783,0.0,0.0,0.0,1.0
1609060369278165914,2849,1609060369277877950,0.0036705171543687243,0.03154468101416441,0.5143573048069143,0.0,0.0,0.0,1.0
1609060369325618863,2850,1609060369325048112,0.0022248438820753336,0.035987752546926544,0.5767992605161112,0.0,0.0,0.0,1.0
1609060369376209797,2851,1609060369375655078,0.0009863447157698602,0.03915132877208194,0.6397723795275105,0.0,0.0,0.0,1.0
1609060369424870964,2852,1609060369423925065,-0.0011160028173549108,0.04231462285802934,0.7050789968135192,0.0,0.0,0.0,1.0
1609060369476735052,2853,1609060369476324939,-0.004156336505339198,0.04525747013008896,0.7745131210352838,0.0,0.0,0.0,1.0
1609060369526621433,2854,1609060369526210927,-0.010900537680939237,0.05029164871890757,0.9090769173020554,0.0,0.0,0.0,1.0
1609060369576739196,2855,1609060369576456928,-0.016939147766766638,0.05189695630017965,0.9799905399612783,0.0,0.0,0.0,1.0
1609060369625194798,2856,1609060369624904060,-0.022175154454551205,0.051526789209351165,1.0470432312413713,0.0,0.0,0.0,1.0
1609060369677059222,2857,1609060369676457071,-0.027673429160188334,0.05077176066196287,1.1130425409887756,0.0,0.0,0.0,1.0
1609060369725349917,2858,1609060369724965953,-0.032117920829154656,0.05016301247846755,1.1771153610697986,0.0,0.0,0.0,1.0
1609060369777101532,2859,1609060369776528978,-0.035790957623351716,0.04661975745888469,1.23932618932578,0.0,0.0,0.0,1.0
1609060369824775082,2860,1609060369824361944,-0.04831565629704926,0.04141013256877457,1.3625494453561426,0.0,0.0,0.0,1.0
1609060369875297361,2861,1609060369874984884,-0.05333090295644993,0.03647450120483242,1.4202546903590356,0.0,0.0,0.0,1.0
1609060369923502823,2862,1609060369922994041,-0.05867836091151091,0.03219839428298599,1.477099827897801,0.0,0.0,0.0,1.0
1609060369973740189,2863,1609060369973376893,-0.06508383143030372,0.023966200699611306,1.5326180703962073,0.0,0.0,0.0,1.0
1609060370025157844,2864,1609060370024845981,-0.07237762844333417,0.016004411651667994,1.5881924752026588,0.0,0.0,0.0,1.0
1609060370077873701,2865,1609060370077591085,-0.0834313696738036,-0.004630553801089121,1.6925310603366324,0.0,0.0,0.0,1.0
1609060370131679891,2866,1609060370131295108,-0.08978741585239547,-0.014949260403227527,1.7453256426216015,0.0,0.0,0.0,1.0
1609060370176356722,2867,1609060370176068925,-0.09686956731377805,-0.026482979885475544,1.7976834072318777,0.0,0.0,0.0,1.0
1609060370225973309,2868,1609060370225592994,-0.10363168269506673,-0.03895200672124943,1.8505052501184078,0.0,0.0,0.0,1.0
1609060370275348981,2869,1609060370274984025,-0.11009741330225253,-0.05276027182882714,1.902116487937242,0.0,0.0,0.0,1.0
1609060370332987607,2870,1609060370332502031,-0.12595745131417146,-0.0821647412512938,2.012235544087563,0.0,0.0,0.0,1.0
1609060370380331305,2871,1609060370379465007,-0.1321463664226421,-0.0976391122798006,2.0642909966369682,0.0,0.0,0.0,1.0
1609060370424986012,2872,1609060370424487018,-0.13897015763532394,-0.11362046720193675,2.114148902724285,0.0,0.0,0.0,1.0
1609060370476278030,2873,1609060370475897932,-0.14669564723618223,-0.13020481101894532,2.1651474508900694,0.0,0.0,0.0,1.0
1609060370524718234,2874,1609060370524448060,-0.1533788969486949,-0.1461806214221717,2.2180562714394565,0.0,0.0,0.0,1.0
1609060370576443922,2875,1609060370576018953,-0.160283271085909,-0.1617570853892687,2.2711504430823357,0.0,0.0,0.0,1.0
1609060370625671288,2876,1609060370625375890,-0.1764516128849145,-0.19399280584303824,2.3753286851218274,0.0,0.0,0.0,1.0
1609060370676128298,2877,1609060370675712013,-0.18437759801884468,-0.2092354342135323,2.429577604471696,0.0,0.0,0.0,1.0
1609060370724086287,2878,1609060370723781013,-0.19108344405913869,-0.223693644563415,2.478888959719768,0.0,0.0,0.0,1.0
1609060370775656294,2879,1609060370775206947,-0.2005688079926813,-0.23891726518756684,2.530510874976141,0.0,0.0,0.0,1.0
1609060370824971146,2880,1609060370824607992,-0.2104452225772384,-0.25299301164241683,2.5799528389144815,0.0,0.0,0.0,1.0
1609060370877781047,2881,1609060370877348089,-0.2239002283123277,-0.28056761108536676,2.6657640526311113,0.0,0.0,0.0,1.0
1609060370923702431,2882,1609060370923454904,-0.23259766288344252,-0.29402137870035006,2.705369191486369,0.0,0.0,0.0,1.0
1609060370976558288,2883,1609060370976180934,-0.24082734077215662,-0.3064443074644103,2.742874946861013,0.0,0.0,0.0,1.0
1609060371024868476,2884,1609060371024459028,-0.24839582420606732,-0.31808617076012524,2.778800117074235,0.0,0.0,0.0,1.0
1609060371076701247,2885,1609060371076409959,-0.2553543680215675,-0.32978916642357703,2.8126022676012,0.0,0.0,0.0,1.0
1609060371125842426,2886,1609060371125555896,-0.2629403831512924,-0.34147972000721083,2.843007667313433,0.0,0.0,0.0,1.0
1609060371176075264,2887,1609060371175806903,-0.27682806516071423,-0.36316440264251426,2.9045198433809247,0.0,0.0,0.0,1.0
1609060371226708275,2888,1609060371226459884,-0.2828552115904479,-0.37374324736525466,2.9318247664681003,0.0,0.0,0.0,1.0
1609060371275870160,2889,1609060371275564098,-0.29011046212857394,-0.3844112332448333,2.9596353177888197,0.0,0.0,0.0,1.0
1609060371323291268,2890,1609060371322874927,-0.29587190042401446,-0.394180165333875,2.985678749759197,0.0,0.0,0.0,1.0
1609060371382148907,2891,1609060371381882095,-0.3062656026242081,-0.41401199916144904,3.0357878746559503,0.0,0.0,0.0,1.0
1609060371425974099,2892,1609060371425695085,-0.3120943681314081,-0.42420256296200876,3.06071013407562,0.0,0.0,0.0,1.0
1609060371476574174,2893,1609060371476237916,-0.31626627020421694,-0.43372993006835614,3.0849634877551484,0.0,0.0,0.0,1.0
1609060371523718080,2894,1609060371523342037,-0.3202624027945866,-0.4429433245821919,3.108590963639436,0.0,0.0,0.0,1.0
1609060371576535279,2895,1609060371576234960,-0.3248507738475723,-0.45309660864279877,3.1332946277886204,0.0,0.0,0.0,1.0
1609060371626134980,2896,1609060371625575923,-0.3291308567367395,-0.4623286521027907,3.1576018777771733,0.0,0.0,0.0,1.0
1609060371677547694,2897,1609060371677156114,-0.33609109886962685,-0.481092747720254,3.210284976330442,0.0,0.0,0.0,1.0
1609060371723747030,2898,1609060371723249101,-0.33891917703907026,-0.49010675078844557,3.2318284423967203,0.0,0.0,0.0,1.0
1609060371774371969,2899,1609060371773763084,-0.34197764057688573,-0.49935882713721824,3.255331404642318,0.0,0.0,0.0,1.0
1609060371825103990,2900,1609060371824518108,-0.3442284588807354,-0.5078455172825542,3.2766489670404564,0.0,0.0,0.0,1.0
1609060371877833344,2901,1609060371877555036,-0.3469925894278383,-0.517474065969715,3.2985392344056415,0.0,0.0,0.0,1.0
1609060371925492767,2902,1609060371924981975,-0.3527429797169219,-0.53476609250324,3.344503812256235,0.0,0.0,0.0,1.0
1609060371975835618,2903,1609060371975532913,-0.35577826932390266,-0.5429459842537661,3.3699885728717263,0.0,0.0,0.0,1.0
1609060372023030576,2904,1609060372022653007,-0.35843125796607467,-0.5509767547613968,3.3971102609313437,0.0,0.0,0.0,1.0
1609060372076806243,2905,1609060372076373958,-0.36085449241541667,-0.5591065650289373,3.4305921328072966,0.0,0.0,0.0,1.0
1609060372126317369,2906,1609060372125910902,-0.3633837614637514,-0.5669077632842416,3.4638882339090777,0.0,0.0,0.0,1.0
1609060372176067969,2907,1609060372175580883,-0.3698596391862914,-0.5858701743207568,3.5272734906305985,0.0,0.0,0.0,1.0
1609060372223626672,2908,1609060372223182106,-0.3748361929176909,-0.595417886335575,3.557009097783583,0.0,0.0,0.0,1.0
1609060372276276333,2909,1609060372275930070,-0.3808669209575264,-0.6048973576078964,3.5820630650771736,0.0,0.0,0.0,1.0
1609060372325491853,2910,1609060372325079107,-0.3880012816467655,-0.6153049578030938,3.606595966974405,0.0,0.0,0.0,1.0
1609060372377130703,2911,1609060372376758003,-0.3945221274390711,-0.6251919306736049,3.628419745939791,0.0,0.0,0.0,1.0
1609060372430012407,2912,1609060372429697895,-0.406105728781732,-0.6437901960797277,3.6591287716605407,0.0,0.0,0.0,1.0
1609060372476402778,2913,1609060372476098918,-0.4134185616034074,-0.6537398300266481,3.670040610388247,0.0,0.0,0.0,1.0
1609060372524445625,2914,1609060372524174118,-0.42193408105674024,-0.6635887134800136,3.6791572189991406,0.0,0.0,0.0,1.0
1609060372577065093,2915,1609060372576765918,-0.43216016801608603,-0.6743085768632184,3.687114133732905,0.0,0.0,0.0,1.0
1609060372626795572,2916,1609060372625240945,-0.4441385225587524,-0.6857488805142751,3.6929447025308093,0.0,0.0,0.0,1.0
1609060372678027156,2917,1609060372677777910,-0.47218236171062244,-0.709984860112101,3.7008637356871574,0.0,0.0,0.0,1.0
1609060372723306236,2918,1609060372722868108,-0.4872708713304874,-0.7219738997006964,3.7029164087383695,0.0,0.0,0.0,1.0
1609060372776159251,2919,1609060372775847101,-0.505848082501771,-0.7357617435207366,3.7042562715288323,0.0,0.0,0.0,1.0
1609060372825744701,2920,1609060372825338983,-0.5260699835244331,-0.7502953471353919,3.704633878491803,0.0,0.0,0.0,1.0
1609060372878213118,2921,1609060372877873086,-0.547754742236453,-0.7649507966765832,3.7045186558215786,0.0,0.0,0.0,1.0
1609060372926898202,2922,1609060372926479959,-0.5934200717663174,-0.7957609261354719,3.7036770417985743,0.0,0.0,0.0,1.0
1609060372974137088,2923,1609060372973801994,-0.6208972794168552,-0.8134889923814086,3.7029931525515227,0.0,0.0,0.0,1.0
1609060373024980080,2924,1609060373024541997,-0.6465259921620685,-0.8289634084804831,3.7018298611619347,0.0,0.0,0.0,1.0
1609060373076425085,2925,1609060373076001071,-0.6752895203417246,-0.8460268147141115,3.700759305961501,0.0,0.0,0.0,1.0
1609060373124634385,2926,1609060373124035978,-0.709971378422857,-0.8673457658701906,3.6995767461383533,0.0,0.0,0.0,1.0
1609060373180406485,2927,1609060373180086040,-0.7766862764717821,-0.9058318424598575,3.6972161062031272,0.0,0.0,0.0,1.0
1609060373224300743,2928,1609060373223744058,-0.8099203878901342,-0.9242438345993129,3.696345569952097,0.0,0.0,0.0,1.0
1609060373277748488,2929,1609060373277434015,-0.8480779783752439,-0.9455956004954444,3.6953095790197175,0.0,0.0,0.0,1.0
1609060373323854877,2930,1609060373323574924,-0.8866608758629511,-0.9666544435409818,3.6940191472258253,0.0,0.0,0.0,1.0
1609060373374737157,2931,1609060373374324941,-0.9278866461113608,-0.9894122511219727,3.6930972530796655,0.0,0.0,0.0,1.0
1609060373425163698,2932,1609060373424693012,-0.9688980010281867,-1.0118005487324702,3.6916890480072997,0.0,0.0,0.0,1.0
1609060373477382324,2933,1609060373477024936,-1.0518795504651877,-1.0568838162816583,3.688286606995735,0.0,0.0,0.0,1.0
1609060373524038496,2934,1609060373523667955,-1.094512316819344,-1.079666570435478,3.687373345225682,0.0,0.0,0.0,1.0
1609060373575493599,2935,1609060373575177097,-1.1379133411835873,-1.1017310433528067,3.6865233915010016,0.0,0.0,0.0,1.0
1609060373625083772,2936,1609060373624744081,-1.1811151135715647,-1.1250593837843184,3.6859820542277433,0.0,0.0,0.0,1.0
1609060373678663947,2937,1609060373678224945,-1.2268907790418737,-1.149619171619669,3.6859435462417913,0.0,0.0,0.0,1.0
1609060373726112075,2938,1609060373725804948,-1.3130019361334249,-1.195014514090957,3.6862107980690713,0.0,0.0,0.0,1.0
1609060373776748448,2939,1609060373776235961,-1.3557290323631008,-1.2181543107179031,3.685770351789275,0.0,0.0,0.0,1.0
1609060373824384631,2940,1609060373823960924,-1.399104198928498,-1.2403649883941732,3.687241232982677,0.0,0.0,0.0,1.0
1609060373878181908,2941,1609060373877855920,-1.4423530076322564,-1.2629005037746914,3.6877848234458757,0.0,0.0,0.0,1.0
1609060373926175116,2942,1609060373925863885,-1.484444625173257,-1.2852112531510294,3.6879993522564494,0.0,0.0,0.0,1.0
1609060373976748066,2943,1609060373976363086,-1.5674143081518181,-1.3287082885339103,3.687688001496502,0.0,0.0,0.0,1.0
1609060374024983958,2944,1609060374024655008,-1.6072141286318917,-1.3483917284650389,3.687128827125644,0.0,0.0,0.0,1.0
1609060374075286855,2945,1609060374074808025,-1.6490235576832326,-1.3698943801849204,3.6869983113791953,0.0,0.0,0.0,1.0
1609060374126110458,2946,1609060374125482940,-1.6855740683677496,-1.3880507971119194,3.6863817212732073,0.0,0.0,0.0,1.0
1609060374176295439,2947,1609060374175988101,-1.7232390039465066,-1.4075461380474366,3.6868358621800947,0.0,0.0,0.0,1.0
1609060374224576690,2948,1609060374224301958,-1.7979178758333703,-1.4448657975175756,3.687996877066313,0.0,0.0,0.0,1.0
1609060374276339305,2949,1609060374275952005,-1.8350565864308983,-1.4638493655581222,3.689566787502544,0.0,0.0,0.0,1.0
1609060374325163694,2950,1609060374324405097,-1.8689659251847281,-1.481263361928196,3.690706180163044,0.0,0.0,0.0,1.0
1609060374378251324,2951,1609060374377849960,-1.9035701778760412,-1.4991972351251164,3.6917363138082457,0.0,0.0,0.0,1.0
1609060374432813137,2952,1609060374432548904,-1.9684800024329085,-1.5320207435857434,3.69449984606811,0.0,0.0,0.0,1.0
1609060374480416919,2953,1609060374480001115,-1.9975981200153576,-1.546545849929462,3.695615118426524,0.0,0.0,0.0,1.0
1609060374523926877,2954,1609060374523640060,-2.0260251941628553,-1.5611687288618405,3.6968870699088434,0.0,0.0,0.0,1.0
1609060374575619222,2955,1609060374575245046,-2.057039284469788,-1.5769322619135586,3.697876190897958,0.0,0.0,0.0,1.0
1609060374626564193,2956,1609060374626283073,-2.0837482785296473,-1.5909102049537722,3.698962254412958,0.0,0.0,0.0,1.0
1609060374676025931,2957,1609060374675654077,-2.1107788324595695,-1.6048986735156596,3.7000568636127547,0.0,0.0,0.0,1.0
1609060374724245600,2958,1609060374723822975,-2.167963862954487,-1.6344826764352263,3.703121747651064,0.0,0.0,0.0,1.0
1609060374773570660,2959,1609060374773188972,-2.1960335452359594,-1.6487927228024795,3.705156371861504,0.0,0.0,0.0,1.0
1609060374825016882,2960,1609060374824628019,-2.2221486943100146,-1.6627123110247979,3.706574628823592,0.0,0.0,0.0,1.0
1609060374877833558,2961,1609060374877427959,-2.248622865242467,-1.676677160761674,3.7082627570889617,0.0,0.0,0.0,1.0
1609060374925886899,2962,1609060374925567054,-2.27452033978593,-1.6899746311190391,3.7098692227862475,0.0,0.0,0.0,1.0
1609060374975704714,2963,1609060374975277090,-2.3289531649032753,-1.7190494859754786,3.7120642749274797,0.0,0.0,0.0,1.0
1609060375025189006,2964,1609060375024696016,-2.3552565416852467,-1.7334837178699374,3.712563842619609,0.0,0.0,0.0,1.0
1609060375076115622,2965,1609060375075797939,-2.380948413955526,-1.7478952743159724,3.713015131735588,0.0,0.0,0.0,1.0
1609060375126743997,2966,1609060375126281881,-2.4062251167386393,-1.7618056660264578,3.712766708706562,0.0,0.0,0.0,1.0
1609060375177297461,2967,1609060375176793003,-2.4308352174274397,-1.7756820487242706,3.71239748784501,0.0,0.0,0.0,1.0
1609060375225675734,2968,1609060375225217962,-2.4820203765000457,-1.8035899364022008,3.7122239302848445,0.0,0.0,0.0,1.0
1609060375275978497,2969,1609060375275624895,-2.508467545584537,-1.8179743452981043,3.7118097518856352,0.0,0.0,0.0,1.0
1609060375324373920,2970,1609060375323940896,-2.5351610454133393,-1.8328146815518842,3.7112402690864936,0.0,0.0,0.0,1.0
1609060375377988432,2971,1609060375377138042,-2.562666613537381,-1.8480455675419662,3.710737089993337,0.0,0.0,0.0,1.0
1609060375425431292,2972,1609060375425173902,-2.589021183852662,-1.8627510020514926,3.7108337249965526,0.0,0.0,0.0,1.0
1609060375477065486,2973,1609060375476771974,-2.6444892533174666,-1.893887233815665,3.7101467468683467,0.0,0.0,0.0,1.0
1609060375525169015,2974,1609060375524784946,-2.6688751459508353,-1.9073983284975817,3.710139740476052,0.0,0.0,0.0,1.0
1609060375575410629,2975,1609060375575092935,-2.69518190785854,-1.9217346147917311,3.7097869633328635,0.0,0.0,0.0,1.0
1609060375626873807,2976,1609060375626551055,-2.7213719458233,-1.9365744018694215,3.709420998675956,0.0,0.0,0.0,1.0
1609060375677689457,2977,1609060375677131080,-2.7484091460722624,-1.9519417652666853,3.7089256356216627,0.0,0.0,0.0,1.0
1609060375729187703,2978,1609060375728677892,-2.79981962646378,-1.9797431851319196,3.70733520046495,0.0,0.0,0.0,1.0
1609060375773489810,2979,1609060375773073101,-2.8260898641160566,-1.9940851815982157,3.7061540315968173,0.0,0.0,0.0,1.0
1609060375824118298,2980,1609060375823648118,-2.8501036185527795,-2.0066857263414875,3.705280716550508,0.0,0.0,0.0,1.0
1609060375877077536,2981,1609060375876315975,-2.877909843258486,-2.02232808478745,3.704206825453271,0.0,0.0,0.0,1.0
1609060375926260841,2982,1609060375925799989,-2.904726781789062,-2.037382586917449,3.7027333791231456,0.0,0.0,0.0,1.0
1609060375978324773,2983,1609060375977323913,-2.955760727165657,-2.0647941384615223,3.6993220322108193,0.0,0.0,0.0,1.0
1609060376024875087,2984,1609060376024099016,-2.980660313526144,-2.077920129841278,3.6972737389315817,0.0,0.0,0.0,1.0
1609060376077627053,2985,1609060376076449060,-3.0061030800832995,-2.091799088968923,3.6947229725565354,0.0,0.0,0.0,1.0
1609060376129498811,2986,1609060376129224920,-3.0301866795356425,-2.1050791790692713,3.6919777571869616,0.0,0.0,0.0,1.0
1609060376176794726,2987,1609060376176423931,-3.0546859282169905,-2.1183290437725546,3.688399529293944,0.0,0.0,0.0,1.0
1609060376224898160,2988,1609060376224506998,-3.1032122738501933,-2.1451483394772772,3.680569512794696,0.0,0.0,0.0,1.0
1609060376275402532,2989,1609060376275020027,-3.127546631962069,-2.1584524612088174,3.676513945926935,0.0,0.0,0.0,1.0
1609060376324683737,2990,1609060376324153089,-3.1494160543967133,-2.17067677954995,3.671895927713839,0.0,0.0,0.0,1.0
1609060376377231631,2991,1609060376376890087,-3.172692456491003,-2.1838603396952365,3.666715960354635,0.0,0.0,0.0,1.0
1609060376425385518,2992,1609060376425125980,-3.1937734600237313,-2.1959107264911353,3.6625831167736482,0.0,0.0,0.0,1.0
1609060376479376909,2993,1609060376479103946,-3.216467048525196,-2.2089412677085427,3.657648730111701,0.0,0.0,0.0,1.0
1609060376524324230,2994,1609060376524039888,-3.2585455513595925,-2.2320893809304927,3.6480342708956126,0.0,0.0,0.0,1.0
1609060376576988602,2995,1609060376576708936,-3.2787996750099957,-2.244184290341856,3.642903744459371,0.0,0.0,0.0,1.0
1609060376624919801,2996,1609060376624075078,-3.298004063602363,-2.2559870854341035,3.6385339761570066,0.0,0.0,0.0,1.0
1609060376677271276,2997,1609060376677000904,-3.31651706408946,-2.267522118589458,3.6338435668421525,0.0,0.0,0.0,1.0
1609060376726385119,2998,1609060376726061964,-3.35238858694699,-2.288325418468183,3.6261462449715793,0.0,0.0,0.0,1.0
1609060376777005915,2999,1609060376776576900,-3.3703175402488093,-2.2998984883282674,3.6213338974859504,0.0,0.0,0.0,1.0
1609060376825669605,3000,1609060376825327062,-3.3860669990312395,-2.3104526807355903,3.617051301556666,0.0,0.0,0.0,1.0
1609060376876115432,3001,1609060376875717067,-3.4017298268714846,-2.3206456966222646,3.612256467204885,0.0,0.0,0.0,1.0
1609060376924397526,3002,1609060376923955106,-3.417441578466427,-2.3305087901684765,3.6068431743209395,0.0,0.0,0.0,1.0
1609060376979210036,3003,1609060376978782081,-3.432538953047665,-2.3409909747825353,3.6008953671458475,0.0,0.0,0.0,1.0
1609060377025293374,3004,1609060377024702930,-3.458459682700937,-2.3585094765964776,3.5898661742120215,0.0,0.0,0.0,1.0
1609060377077054447,3005,1609060377076284074,-3.4723148733247697,-2.368717367310932,3.583267166708918,0.0,0.0,0.0,1.0
1609060377125693639,3006,1609060377125342988,-3.4845768417300107,-2.3781043601988117,3.5769543213527406,0.0,0.0,0.0,1.0
1609060377176104855,3007,1609060377175763988,-3.495520744143235,-2.386644702017616,3.5706164482706484,0.0,0.0,0.0,1.0
1609060377225325233,3008,1609060377224970006,-3.5064744913866086,-2.395227126350811,3.564232376207924,0.0,0.0,0.0,1.0
1609060377276776165,3009,1609060377276503944,-3.5266592955507754,-2.4113091166665583,3.550972061445684,0.0,0.0,0.0,1.0
1609060377324115101,3010,1609060377323619985,-3.5359621958757685,-2.419298587926484,3.5438319648761887,0.0,0.0,0.0,1.0
1609060377373591113,3011,1609060377372980976,-3.5443583304298443,-2.426236396769486,3.5366412042118114,0.0,0.0,0.0,1.0
1609060377425180218,3012,1609060377424736881,-3.55261810455735,-2.4338400357743026,3.529068177122122,0.0,0.0,0.0,1.0
1609060377477596940,3013,1609060377477059984,-3.561006191804829,-2.441770593375473,3.5208419071365125,0.0,0.0,0.0,1.0
1609060377525653502,3014,1609060377525355958,-3.5757411900253224,-2.456745999198617,3.503795010007291,0.0,0.0,0.0,1.0
1609060377573879391,3015,1609060377573468112,-3.5830067815420747,-2.4643071902689506,3.4947194752825776,0.0,0.0,0.0,1.0
1609060377624661868,3016,1609060377624277973,-3.5896917020542283,-2.4720173670230636,3.4854963893102724,0.0,0.0,0.0,1.0
1609060377676996604,3017,1609060377676570081,-3.5953470522325723,-2.479632414701207,3.4758414728882876,0.0,0.0,0.0,1.0
1609060377725454307,3018,1609060377724878931,-3.601147778132539,-2.4876591316201733,3.46674326267447,0.0,0.0,0.0,1.0
1609060377777029809,3019,1609060377775535011,-3.612022970759444,-2.5038804282587037,3.4489510978536053,0.0,0.0,0.0,1.0
1609060377825407931,3020,1609060377825144910,-3.6164360320327056,-2.511374593975841,3.4401999780434203,0.0,0.0,0.0,1.0
1609060377876152246,3021,1609060377875771903,-3.621723694030166,-2.5208437001129234,3.4313776025486113,0.0,0.0,0.0,1.0
1609060377925582658,3022,1609060377924765014,-3.6259658742658054,-2.5296770636279895,3.423360288837257,0.0,0.0,0.0,1.0
1609060377976399787,3023,1609060377975740098,-3.629583206707629,-2.5392610140238574,3.4148107623101556,0.0,0.0,0.0,1.0
1609060378025760926,3024,1609060378024561071,-3.635860906473969,-2.5604922278572424,3.399032013178406,0.0,0.0,0.0,1.0
1609060378075652904,3025,1609060378075357103,-3.638464312897753,-2.572334033404587,3.3908218267422487,0.0,0.0,0.0,1.0
1609060378125136269,3026,1609060378124581956,-3.640176363241604,-2.5834815223552674,3.3827090753296964,0.0,0.0,0.0,1.0
1609060378174543696,3027,1609060378174213075,-3.6423428797123876,-2.5967539386867564,3.3730475604696846,0.0,0.0,0.0,1.0
1609060378226452408,3028,1609060378226051950,-3.644498446787672,-2.6099675037916263,3.36375930566272,0.0,0.0,0.0,1.0
1609060378276889277,3029,1609060378276415014,-3.6454000006110405,-2.639069769998553,3.3456350120364355,0.0,0.0,0.0,1.0
1609060378324502621,3030,1609060378324060106,-3.645720148899258,-2.6543342320221193,3.336803951000036,0.0,0.0,0.0,1.0
1609060378373610287,3031,1609060378373277091,-3.6455222403018404,-2.671898503830217,3.327975134700713,0.0,0.0,0.0,1.0
1609060378424373724,3032,1609060378423890972,-3.6444044560656508,-2.687688441888831,3.3206355454800516,0.0,0.0,0.0,1.0
1609060378477884560,3033,1609060378477568054,-3.6425555748546863,-2.706188321292405,3.3129978203213515,0.0,0.0,0.0,1.0
1609060378526467745,3034,1609060378526171112,-3.6385920692820015,-2.746037331246267,3.2987659275159036,0.0,0.0,0.0,1.0
1609060378575039805,3035,1609060378574407958,-3.635136456938664,-2.7662031546611914,3.292665219414431,0.0,0.0,0.0,1.0
1609060378623555325,3036,1609060378623176002,-3.6317902116918184,-2.7872880310997346,3.286938559423769,0.0,0.0,0.0,1.0
1609060378677378902,3037,1609060378676959896,-3.6280518089690474,-2.8099032962970867,3.281245434368264,0.0,0.0,0.0,1.0
1609060378726305808,3038,1609060378726021909,-3.6235688069716936,-2.83218328151041,3.2762837889312575,0.0,0.0,0.0,1.0
1609060378777387855,3039,1609060378776992940,-3.612134116995872,-2.8790552763897814,3.2703100310563684,0.0,0.0,0.0,1.0
1609060378824692603,3040,1609060378824391031,-3.606332510546949,-2.903467851820988,3.270953812631987,0.0,0.0,0.0,1.0
1609060378877540264,3041,1609060378877188110,-3.599050066357311,-2.9282650047668994,3.274280360247305,0.0,0.0,0.0,1.0
1609060378925854763,3042,1609060378925368928,-3.591554964774623,-2.9531933779016235,3.279915292830834,0.0,0.0,0.0,1.0
1609060378977298544,3043,1609060378976910972,-3.5847657910221535,-2.9804892582411497,3.2863785777176897,0.0,0.0,0.0,1.0
1609060379027646724,3044,1609060379027351999,-3.568360534902247,-3.0337098377288854,3.3034976411829042,0.0,0.0,0.0,1.0
1609060379074548566,3045,1609060379074258947,-3.5592302278732006,-3.0617528486222447,3.3137540218775303,0.0,0.0,0.0,1.0
1609060379123848987,3046,1609060379123567008,-3.550707795437159,-3.0879030995932766,3.323951412999362,0.0,0.0,0.0,1.0
1609060379173388504,3047,1609060379172895097,-3.5418032190367583,-3.11557330989233,3.3347385124512385,0.0,0.0,0.0,1.0
1609060379224135391,3048,1609060379223832035,-3.5319753954007957,-3.142700996957842,3.3457936600234905,0.0,0.0,0.0,1.0
1609060379279186178,3049,1609060379278740072,-3.51252713502387,-3.19974431714747,3.366417698036164,0.0,0.0,0.0,1.0
1609060379324831913,3050,1609060379324427032,-3.5013392036697937,-3.228234457440035,3.375471174731743,0.0,0.0,0.0,1.0
1609060379374076690,3051,1609060379373706007,-3.4906886963922688,-3.2563638437103677,3.3836991641261527,0.0,0.0,0.0,1.0
1609060379425171348,3052,1609060379424789094,-3.4801990376567424,-3.2837548944945816,3.3919486607048075,0.0,0.0,0.0,1.0
1609060379477636571,3053,1609060379477307939,-3.469626181293524,-3.3127198004086758,3.399875350219933,0.0,0.0,0.0,1.0
1609060379528062471,3054,1609060379527546072,-3.4454739091744813,-3.3684998918244737,3.414188323559733,0.0,0.0,0.0,1.0
1609060379574569179,3055,1609060379574175024,-3.433834448845843,-3.3977734210503634,3.419863877449412,0.0,0.0,0.0,1.0
1609060379624920182,3056,1609060379624489927,-3.4219964736781634,-3.4248658577311026,3.42519784505658,0.0,0.0,0.0,1.0
1609060379676599912,3057,1609060379676283025,-3.4090417238180777,-3.453201544843779,3.4312101568509767,0.0,0.0,0.0,1.0
1609060379725825337,3058,1609060379725443983,-3.395672599410922,-3.481638167182755,3.4361194083527913,0.0,0.0,0.0,1.0
1609060379778462498,3059,1609060379778114938,-3.3829795040229342,-3.5099003411136316,3.440361359131913,0.0,0.0,0.0,1.0
1609060379825958115,3060,1609060379825517082,-3.355377423815021,-3.564908041766614,3.4477130458770535,0.0,0.0,0.0,1.0
1609060379876909109,3061,1609060379876507902,-3.3408903076288397,-3.5939464412860396,3.4513451606241503,0.0,0.0,0.0,1.0
1609060379925304886,3062,1609060379924851083,-3.3263493930388712,-3.62201131753325,3.454544537468127,0.0,0.0,0.0,1.0
1609060379976654673,3063,1609060379976314926,-3.311436577473735,-3.649173144811165,3.457969100083478,0.0,0.0,0.0,1.0
1609060380026257754,3064,1609060380025951051,-3.296229396615704,-3.6772166595851026,3.461186583897698,0.0,0.0,0.0,1.0
1609060380076680427,3065,1609060380076279067,-3.2639811694803775,-3.732791609533759,3.467145278281105,0.0,0.0,0.0,1.0
1609060380127387951,3066,1609060380126964950,-3.247626909884932,-3.759228810860545,3.469813466303105,0.0,0.0,0.0,1.0
1609060380176047024,3067,1609060380175324106,-3.230427052457852,-3.7875935036183606,3.4729121716082396,0.0,0.0,0.0,1.0
1609060380224737627,3068,1609060380224295043,-3.2127936656845613,-3.8135057253208515,3.4757504150984513,0.0,0.0,0.0,1.0
1609060380282514683,3069,1609060380282178068,-3.1770832830663878,-3.868931274399376,3.4808779340193627,0.0,0.0,0.0,1.0
1609060380327433547,3070,1609060380327114009,-3.158766848553377,-3.8935960247190238,3.483020459124555,0.0,0.0,0.0,1.0
1609060380419243648,3071,1609060380418755912,-3.1188775833703666,-3.948070040569455,3.4877882164816185,0.0,0.0,0.0,1.0
1609060380497921156,3072,1609060380497652912,-3.0778271587030765,-4.001126249390865,3.4921750054327525,0.0,0.0,0.0,1.0
1609060380579895995,3073,1609060380579474115,-3.033666037069704,-4.055302444763658,3.4966005712029506,0.0,0.0,0.0,1.0
1609060380614087824,3074,1609060380613731050,-3.012459703592185,-4.080141876060882,3.4979791747794575,0.0,0.0,0.0,1.0
1609060380665481752,3075,1609060380665153884,-2.989451525976161,-4.106792481791665,3.5000064308397913,0.0,0.0,0.0,1.0
1609060380732889476,3076,1609060380732619905,-2.9432212817308105,-4.158447403848889,3.5043018880821233,0.0,0.0,0.0,1.0
1609060380776027532,3077,1609060380775574111,-2.918925174150104,-4.184842991896048,3.5067945144689965,0.0,0.0,0.0,1.0
1609060380819030543,3078,1609060380818601036,-2.895610243254012,-4.209410305778746,3.509168691827904,0.0,0.0,0.0,1.0
1609060380870245794,3079,1609060380869969987,-2.869744284186144,-4.235720658136387,3.511628346484718,0.0,0.0,0.0,1.0
1609060380919624012,3080,1609060380919371032,-2.843757788532532,-4.261059535299768,3.514565625105094,0.0,0.0,0.0,1.0
1609060380983815496,3081,1609060380983446025,-2.792390890435076,-4.311074121175803,3.520282423057891,0.0,0.0,0.0,1.0
1609060381026430593,3082,1609060381026141071,-2.7637081900067386,-4.338202090796955,3.5240396332142065,0.0,0.0,0.0,1.0
1609060381072629625,3083,1609060381072177076,-2.7390381066701615,-4.361036133517917,3.5273101004590455,0.0,0.0,0.0,1.0
1609060381119353471,3084,1609060381118996047,-2.712726348740773,-4.38527545840471,3.5306575342337414,0.0,0.0,0.0,1.0
1609060381170519310,3085,1609060381169764900,-2.684748270312241,-4.410169572656752,3.5338110988158196,0.0,0.0,0.0,1.0
1609060381224632977,3086,1609060381224285030,-2.6575994708230333,-4.433790021221906,3.537173777413777,0.0,0.0,0.0,1.0
1609060381277256670,3087,1609060381276951932,-2.6293821623400646,-4.458193694183784,3.541575800779782,0.0,0.0,0.0,1.0
1609060381325489141,3088,1609060381325169944,-2.571749853223512,-4.505301021895601,3.549664122004815,0.0,0.0,0.0,1.0
1609060381374044687,3089,1609060381373531007,-2.5429694734146224,-4.5279678146951206,3.5534014236491185,0.0,0.0,0.0,1.0
1609060381424537757,3090,1609060381423968935,-2.51573727059942,-4.550046094424854,3.557554500599066,0.0,0.0,0.0,1.0
1609060381474989536,3091,1609060381474559926,-2.48587004763019,-4.572658523827414,3.561217156356264,0.0,0.0,0.0,1.0
1609060381526252610,3092,1609060381525917911,-2.456656412506131,-4.594424898268226,3.565090522397167,0.0,0.0,0.0,1.0
1609060381576443785,3093,1609060381576167011,-2.3971262103404456,-4.639917975771898,3.573348637875462,0.0,0.0,0.0,1.0
1609060381623719396,3094,1609060381623407030,-2.369739058508941,-4.65900671709101,3.5761104268525106,0.0,0.0,0.0,1.0
1609060381676179833,3095,1609060381675835990,-2.3389909184457736,-4.680719162607435,3.5797426296134365,0.0,0.0,0.0,1.0
1609060381724709393,3096,1609060381724457883,-2.3116216407984176,-4.699898773151322,3.582150206590553,0.0,0.0,0.0,1.0
1609060381778118231,3097,1609060381777620935,-2.281600236275633,-4.720668620971551,3.5852770938009133,0.0,0.0,0.0,1.0
1609060381826529802,3098,1609060381825805091,-2.2242282427949682,-4.758817720949075,3.5904406052420192,0.0,0.0,0.0,1.0
1609060381876323075,3099,1609060381875913047,-2.194593619809517,-4.778610046876288,3.592860217785688,0.0,0.0,0.0,1.0
1609060381926387442,3100,1609060381926109933,-2.164925351109126,-4.796517303807388,3.5951861196543557,0.0,0.0,0.0,1.0
1609060381974873084,3101,1609060381974574947,-2.1355291526240485,-4.814622066571811,3.597363289788559,0.0,0.0,0.0,1.0
1609060382024258750,3102,1609060382023908042,-2.106703127355985,-4.832500303442764,3.598818838631109,0.0,0.0,0.0,1.0
1609060382078086494,3103,1609060382077840948,-2.076244034811239,-4.8500594190948725,3.600061920150834,0.0,0.0,0.0,1.0
1609060382126443292,3104,1609060382126087093,-2.0173647292619385,-4.883191294009848,3.6016164821504635,0.0,0.0,0.0,1.0
1609060382173128274,3105,1609060382172864103,-1.987544429428592,-4.900079459459839,3.601291221729271,0.0,0.0,0.0,1.0
1609060382225214696,3106,1609060382224690103,-1.9560685466842642,-4.915043538143337,3.601451123138551,0.0,0.0,0.0,1.0
1609060382276966328,3107,1609060382276548051,-1.926799165977549,-4.929882036349607,3.601992238795823,0.0,0.0,0.0,1.0
1609060382326428469,3108,1609060382326167011,-1.897272794054551,-4.94447744237722,3.6015747266748157,0.0,0.0,0.0,1.0
1609060382376967461,3109,1609060382376545095,-1.8668128814537148,-4.958932058191738,3.6017317803659044,0.0,0.0,0.0,1.0
1609060382424290249,3110,1609060382423994922,-1.8067999746921792,-4.9839477065109214,3.6016215973828434,0.0,0.0,0.0,1.0
1609060382475500974,3111,1609060382475164079,-1.7771454571736243,-4.996343515521254,3.600342216658838,0.0,0.0,0.0,1.0
1609060382525082311,3112,1609060382524758958,-1.7476388687619,-5.007359530524784,3.5999029008471517,0.0,0.0,0.0,1.0
1609060382573582011,3113,1609060382573063039,-1.717312517983757,-5.017600173444858,3.599550761647869,0.0,0.0,0.0,1.0
1609060382624427681,3114,1609060382623972082,-1.687691647543737,-5.027547018190653,3.598314213106505,0.0,0.0,0.0,1.0
1609060382680604839,3115,1609060382680236005,-1.6268763893402287,-5.045476120354667,3.5968523311922613,0.0,0.0,0.0,1.0
1609060382726641163,3116,1609060382726361894,-1.5962781607713232,-5.053008702502126,3.5968045891884195,0.0,0.0,0.0,1.0
1609060382773756897,3117,1609060382773457908,-1.5666273081356472,-5.060709681755643,3.5966980897456473,0.0,0.0,0.0,1.0
1609060382824067213,3118,1609060382823676967,-1.5368665057230189,-5.06772153162456,3.596379723937721,0.0,0.0,0.0,1.0
1609060382877659304,3119,1609060382877391004,-1.5069309020238997,-5.071915733546625,3.596124881478355,0.0,0.0,0.0,1.0
1609060382927594624,3120,1609060382927017116,-1.4436839106471275,-5.081787711814563,3.5975297221021325,0.0,0.0,0.0,1.0
1609060382975141807,3121,1609060382974919939,-1.4436841633029545,-5.081784510995494,3.597535476492393,0.0,0.0,0.0,1.0
1609060383024912860,3122,1609060383024443054,-1.3761268100207715,-5.087463838063631,3.598708602790998,0.0,0.0,0.0,1.0
1609060383076888868,3123,1609060383076413059,-1.344022800898319,-5.09045685250598,3.600129214635823,0.0,0.0,0.0,1.0
1609060383126256661,3124,1609060383125964069,-1.3118269451565823,-5.093018509951968,3.600949905617828,0.0,0.0,0.0,1.0
1609060383175680040,3125,1609060383175228977,-1.249139142291508,-5.0944374984258864,3.6033696620057345,0.0,0.0,0.0,1.0
1609060383222882854,3126,1609060383222527885,-1.2174024639839125,-5.092801689318804,3.6041993610221468,0.0,0.0,0.0,1.0
1609060383276337840,3127,1609060383276116991,-1.1838918412183617,-5.092141288117766,3.605719003759493,0.0,0.0,0.0,1.0
1609060383323949348,3128,1609060383323568010,-1.1506195291375292,-5.090775835495247,3.607602326829454,0.0,0.0,0.0,1.0
1609060383378370741,3129,1609060383377740049,-1.1150814113177958,-5.0866171190092295,3.6099112330081695,0.0,0.0,0.0,1.0
1609060383424629811,3130,1609060383424260997,-1.0454341651764416,-5.079785466700255,3.614086761494981,0.0,0.0,0.0,1.0
1609060383476848149,3131,1609060383476529979,-1.010411448671423,-5.075321876869854,3.6159043388624887,0.0,0.0,0.0,1.0
1609060383524826462,3132,1609060383524500989,-0.9744286940135254,-5.068929856274522,3.6181598199184393,0.0,0.0,0.0,1.0
1609060383580620684,3133,1609060383580219888,-0.9367891780186746,-5.062412912627295,3.6194990869577115,0.0,0.0,0.0,1.0
1609060383625439578,3134,1609060383625110054,-0.901807043221396,-5.056384200605528,3.6212911123071656,0.0,0.0,0.0,1.0
1609060383677977089,3135,1609060383677712106,-0.8251060996212871,-5.039962241032153,3.6209329746830736,0.0,0.0,0.0,1.0
1609060383726908989,3136,1609060383726247930,-0.7895485059351159,-5.032055384065313,3.6211405751552466,0.0,0.0,0.0,1.0
1609060383776183953,3137,1609060383775643968,-0.7524952751681653,-5.023039522000861,3.6206430031344716,0.0,0.0,0.0,1.0
1609060383826764964,3138,1609060383826225900,-0.7170501314668734,-5.01458527724035,3.621125961629513,0.0,0.0,0.0,1.0
1609060383877956941,3139,1609060383877562904,-0.6425465033901929,-4.993610409002702,3.621801559255111,0.0,0.0,0.0,1.0
1609060383926178707,3140,1609060383925773048,-0.6048459829383397,-4.982675120895429,3.621539948835565,0.0,0.0,0.0,1.0
1609060383977733811,3141,1609060383977313899,-0.5658210072658534,-4.971280484828291,3.621468141922337,0.0,0.0,0.0,1.0
1609060384026761989,3142,1609060384025890016,-0.5293102106937191,-4.960029917805194,3.6229146361272715,0.0,0.0,0.0,1.0
1609060384082583076,3143,1609060384082065963,-0.4875297472108251,-4.945878752597331,3.6240154263732904,0.0,0.0,0.0,1.0
1609060384127608355,3144,1609060384127350950,-0.40926154328824893,-4.920282804319111,3.6276045202611,0.0,0.0,0.0,1.0
1609060384179522370,3145,1609060384179015064,-0.36809386677408895,-4.905713296342505,3.629676981093363,0.0,0.0,0.0,1.0
1609060384225387957,3146,1609060384225046062,-0.32785483839581175,-4.891660729505208,3.6320717665523983,0.0,0.0,0.0,1.0
1609060384277932600,3147,1609060384277572059,-0.28807022230730084,-4.87747230433585,3.6340031634612444,0.0,0.0,0.0,1.0
1609060384327051223,3148,1609060384326673889,-0.24717573655913583,-4.8629359975461455,3.635802840911131,0.0,0.0,0.0,1.0
1609060384378531758,3149,1609060384378116035,-0.2063306053367242,-4.846690409911911,3.637551217533801,0.0,0.0,0.0,1.0
1609060384426727223,3150,1609060384426213884,-0.12651428996662872,-4.814888515848221,3.641927355491081,0.0,0.0,0.0,1.0
1609060384478011841,3151,1609060384477639102,-0.08672799415248988,-4.798607804562394,3.643666446268769,0.0,0.0,0.0,1.0
1609060384526357991,3152,1609060384526019954,-0.04714421282026038,-4.782339957264188,3.6453080087755865,0.0,0.0,0.0,1.0
1609060384577960146,3153,1609060384577697896,-0.006248385537968915,-4.764230152024101,3.646935821983666,0.0,0.0,0.0,1.0
1609060384627384227,3154,1609060384627103948,0.031113179464703933,-4.7477407375046035,3.6486767203637402,0.0,0.0,0.0,1.0
1609060384679838274,3155,1609060384679547929,0.11139415478437087,-4.712075410814393,3.651084486840629,0.0,0.0,0.0,1.0
1609060384725361145,3156,1609060384725042963,0.15173875998067743,-4.693003601592903,3.652031775231272,0.0,0.0,0.0,1.0
1609060384781085079,3157,1609060384780750894,0.1900247379659099,-4.674755365246899,3.65358397205393,0.0,0.0,0.0,1.0
1609060384826566121,3158,1609060384825978899,0.2272959211389569,-4.656899314304926,3.6542954604739943,0.0,0.0,0.0,1.0
1609060384880213581,3159,1609060384879726076,0.26421677657575415,-4.638107880835236,3.656008833223922,0.0,0.0,0.0,1.0
1609060384927631341,3160,1609060384927287006,0.34131447099398926,-4.5988971502637845,3.6610409179667336,0.0,0.0,0.0,1.0
1609060384978516563,3161,1609060384978001022,0.37932124033454784,-4.57813116195322,3.6628724082098856,0.0,0.0,0.0,1.0
1609060385025615614,3162,1609060385025215053,0.4144803972132891,-4.55926110097613,3.664975288721333,0.0,0.0,0.0,1.0
1609060385078419674,3163,1609060385078049087,0.45231844565353896,-4.5374505474694615,3.666925011961471,0.0,0.0,0.0,1.0
1609060385129098629,3164,1609060385128671073,0.48679087049081105,-4.517020632671947,3.6687908538958833,0.0,0.0,0.0,1.0
1609060385178936337,3165,1609060385178465032,0.5602193580073944,-4.4736933686505544,3.671306411842748,0.0,0.0,0.0,1.0
1609060385226063062,3166,1609060385225788021,0.5958794819955244,-4.452849430623356,3.670229428979397,0.0,0.0,0.0,1.0
1609060385277722514,3167,1609060385277276897,0.6320871121029938,-4.429403462791001,3.6696719470144465,0.0,0.0,0.0,1.0
1609060385324947371,3168,1609060385324550056,0.6666017226075347,-4.407614876933735,3.6681710957269225,0.0,0.0,0.0,1.0
1609060385378890701,3169,1609060385378527069,0.7015128708910332,-4.3851173803527175,3.667009319853003,0.0,0.0,0.0,1.0
1609060385428557642,3170,1609060385428065919,0.735816357271954,-4.362172576833739,3.6656373705449212,0.0,0.0,0.0,1.0
1609060385479259029,3171,1609060385478852891,0.8063888712204665,-4.31392634331981,3.6637859167048017,0.0,0.0,0.0,1.0
1609060385528519998,3172,1609060385527403974,0.8417494691051068,-4.289042630479731,3.662118135586086,0.0,0.0,0.0,1.0
1609060385578840881,3173,1609060385578270101,0.8738424564011531,-4.266309107281661,3.660703231198937,0.0,0.0,0.0,1.0
1609060385624950403,3174,1609060385624524974,0.9079684527537637,-4.241627805598458,3.6591396873055455,0.0,0.0,0.0,1.0
1609060385680327573,3175,1609060385679278993,0.9388423729247002,-4.21892951855525,3.6573464168805927,0.0,0.0,0.0,1.0
1609060385728443788,3176,1609060385728085899,1.0004233125938775,-4.172642345873818,3.6536970801002244,0.0,0.0,0.0,1.0
1609060385781088362,3177,1609060385780770921,1.0335611344861597,-4.147848298782272,3.6512317176042703,0.0,0.0,0.0,1.0
1609060385825846643,3178,1609060385825529956,1.0653294009121197,-4.123028547913961,3.6495367732188875,0.0,0.0,0.0,1.0
1609060385878400929,3179,1609060385878072881,1.0962681763214448,-4.097349712520309,3.6479096242255267,0.0,0.0,0.0,1.0
1609060385927473527,3180,1609060385927164936,1.1284962040829285,-4.072365181644969,3.6456587428907294,0.0,0.0,0.0,1.0
1609060385980235833,3181,1609060385979854965,1.1599844926955498,-4.047253695686656,3.6437588877781355,0.0,0.0,0.0,1.0
1609060386026541974,3182,1609060386026208066,1.223580024889273,-3.995188369251782,3.6403508345946616,0.0,0.0,0.0,1.0
1609060386078241716,3183,1609060386077978992,1.2550365991764636,-3.969007399834652,3.638575366388107,0.0,0.0,0.0,1.0
1609060386128084761,3184,1609060386127557897,1.2830673297283184,-3.9450071792138743,3.6367975988981254,0.0,0.0,0.0,1.0
1609060386179660996,3185,1609060386179339075,1.3148091861682225,-3.9178671962146865,3.6346544343421883,0.0,0.0,0.0,1.0
1609060386226041378,3186,1609060386225567960,1.3471090128030383,-3.8908687839603964,3.63214832408085,0.0,0.0,0.0,1.0
1609060386278066127,3187,1609060386277291917,1.3784088433113695,-3.863102740275977,3.629773899575138,0.0,0.0,0.0,1.0
1609060386327295594,3188,1609060386327005052,1.4395268310252298,-3.8063898632428135,3.6253160331793044,0.0,0.0,0.0,1.0
1609060386378547024,3189,1609060386378152036,1.4697982187254404,-3.7783206308320594,3.6230150597407196,0.0,0.0,0.0,1.0
1609060386426659999,3190,1609060386426437044,1.499270653044011,-3.750463033418807,3.6207626622749736,0.0,0.0,0.0,1.0
1609060386479559589,3191,1609060386479035043,1.5287279453281428,-3.722053706550845,3.6186677035101074,0.0,0.0,0.0,1.0
1609060386527175178,3192,1609060386526904010,1.5588370270502985,-3.6930082539377267,3.6167547075088446,0.0,0.0,0.0,1.0
1609060386579104429,3193,1609060386578626060,1.587611720793877,-3.6637224665461545,3.615411450690818,0.0,0.0,0.0,1.0
1609060386627217951,3194,1609060386626855993,1.6444319499606657,-3.6053389438387597,3.6119890815930376,0.0,0.0,0.0,1.0
1609060386679159235,3195,1609060386678795003,1.6744138325888933,-3.57410153167611,3.610076530650325,0.0,0.0,0.0,1.0
1609060386727614055,3196,1609060386726828002,1.7032073237759633,-3.5437777212162054,3.609370291042291,0.0,0.0,0.0,1.0
1609060386777821523,3197,1609060386777305984,1.73339978409766,-3.51179406592442,3.6078293094834244,0.0,0.0,0.0,1.0
1609060386827028203,3198,1609060386826636934,1.7624117810160733,-3.4804838010332304,3.6071872477087457,0.0,0.0,0.0,1.0
1609060386879527084,3199,1609060386879197025,1.818887119129684,-3.417871745316681,3.6050835171727833,0.0,0.0,0.0,1.0
1609060386928338782,3200,1609060386927595996,1.848399635508727,-3.383942546255067,3.6033684847669676,0.0,0.0,0.0,1.0
1609060386977852914,3201,1609060386977253103,1.87655042054066,-3.350258175973636,3.6023334825453777,0.0,0.0,0.0,1.0
1609060387025108248,3202,1609060387024797105,1.9053571615087748,-3.315529512944721,3.6015346145806273,0.0,0.0,0.0,1.0
1609060387077646008,3203,1609060387077081108,1.9323918195765657,-3.282234559316766,3.6009744318620758,0.0,0.0,0.0,1.0
1609060387129026926,3204,1609060387128638887,1.960289893839775,-3.248117435103943,3.600472542316581,0.0,0.0,0.0,1.0
1609060387179349614,3205,1609060387178960943,1.9876038488969066,-3.2125882559270593,3.5992850019766855,0.0,0.0,0.0,1.0
1609060387228813465,3206,1609060387228383922,2.043142011471957,-3.1392473424041754,3.59695802699388,0.0,0.0,0.0,1.0
1609060387279579148,3207,1609060387279007101,2.069903856412207,-3.102405537579287,3.595630280972305,0.0,0.0,0.0,1.0
1609060387326364972,3208,1609060387325956964,2.0946757672564686,-3.066673452310468,3.593902939663028,0.0,0.0,0.0,1.0
1609060387378487269,3209,1609060387378003978,2.1216365292829984,-3.0285728123663773,3.5922348294954762,0.0,0.0,0.0,1.0
1609060387428877435,3210,1609060387428512954,2.147050238107166,-2.9901918310401996,3.5904626467106464,0.0,0.0,0.0,1.0
1609060387479342884,3211,1609060387478979969,2.1726800217619555,-2.949591706590919,3.589237781888352,0.0,0.0,0.0,1.0
1609060387526298816,3212,1609060387526018047,2.2166278740210466,-2.8716016634750723,3.5873693386092445,0.0,0.0,0.0,1.0
1609060387578745681,3213,1609060387578428888,2.239332052790683,-2.8306649584005363,3.5866309902218383,0.0,0.0,0.0,1.0
1609060387627086547,3214,1609060387626721048,2.260217339231474,-2.7903354105162315,3.58542750800928,0.0,0.0,0.0,1.0
1609060387678565437,3215,1609060387678171062,2.2799563653133,-2.7500594066298767,3.5841872398171333,0.0,0.0,0.0,1.0
1609060387728984177,3216,1609060387728655004,2.299523538410533,-2.708676191116613,3.582646262738894,0.0,0.0,0.0,1.0
1609060387779387894,3217,1609060387779019021,2.335235325633338,-2.6258585781507477,3.578332674001226,0.0,0.0,0.0,1.0
1609060387828260265,3218,1609060387827759885,2.3513559471530527,-2.5845670281061217,3.5755505848893776,0.0,0.0,0.0,1.0
1609060387878800518,3219,1609060387878028059,2.366754904201379,-2.5427556742770676,3.573250981482909,0.0,0.0,0.0,1.0
1609060387927716909,3220,1609060387927400970,2.3809390238164134,-2.499423057016955,3.5704834970694055,0.0,0.0,0.0,1.0
1609060387979184485,3221,1609060387978938007,2.395443900194657,-2.4550513494011916,3.568147552425435,0.0,0.0,0.0,1.0
1609060388028699848,3222,1609060388028402948,2.4075200795320555,-2.412453426319029,3.565291711732085,0.0,0.0,0.0,1.0
1609060388080626236,3223,1609060388080016994,2.418562519929189,-2.369014509764529,3.5621724533863386,0.0,0.0,0.0,1.0
1609060388127841913,3224,1609060388127521896,2.4382496385611496,-2.283334705135559,3.5565908695195727,0.0,0.0,0.0,1.0
1609060388178172886,3225,1609060388177268886,2.4473554180728136,-2.24013309397883,3.5536542971696736,0.0,0.0,0.0,1.0
1609060388226267790,3226,1609060388226025009,2.456339649454023,-2.196353044388225,3.5515429786610593,0.0,0.0,0.0,1.0
1609060388280162844,3227,1609060388279821062,2.461196393321334,-2.154512246456438,3.5473895920019505,0.0,0.0,0.0,1.0
