%time,field.header.seq,field.header.stamp,field.pose.position.x,field.pose.position.y,field.pose.position.z,field.pose.orientation.x,field.pose.orientation.y,field.pose.orientation.z,field.pose.orientation.w
1609059636812376520,1219,1609059636812099886,-0.00038677027578870593,-2.3325145392050217e-05,-2.6052102381157738e-05,0.0,0.0,0.0,1.0
1609059636861875495,1220,1609059636861403895,-0.0002592529312224201,-0.00022215219841470457,-4.902362981695774e-05,0.0,0.0,0.0,1.0
1609059636911210877,1221,1609059636910773945,-0.0002491597384164379,6.853231652570457e-05,-4.1523339827875816e-05,0.0,0.0,0.0,1.0
1609059636960531225,1222,1609059636960119916,-0.00014818375568026454,-3.87114276954037e-05,-0.00010921467071867141,0.0,0.0,0.0,1.0
1609059637010867216,1223,1609059637010565949,-0.00022440672131907036,-0.00020904244696140495,-0.00029082864998386526,0.0,0.0,0.0,1.0
1609059637063692832,1224,1609059637063188983,-0.00019486961780046386,3.0675628853060743e-05,-0.0001656002954142366,0.0,0.0,0.0,1.0
1609059637110432718,1225,1609059637110161019,-0.00015170676550724238,-4.726160942425395e-05,-0.00011868763376554625,0.0,0.0,0.0,1.0
1609059637162113194,1226,1609059637161779118,-0.00022651045813759652,1.7286996779830588e-05,-0.00014973233709980605,0.0,0.0,0.0,1.0
1609059637210125403,1227,1609059637209620905,-0.0002470254647697345,0.0001027767537635782,1.049159244104203e-05,0.0,0.0,0.0,1.0
1609059637261570618,1228,1609059637261206103,-0.0002370534898261667,9.636380002220335e-05,-1.1438319127421437e-05,0.0,0.0,0.0,1.0
1609059637311982730,1229,1609059637311500979,-0.0003219103619827024,-0.00013436857197746122,-0.000279075284307595,0.0,0.0,0.0,1.0
1609059637361333829,1230,1609059637361015988,-0.00016324578766813147,-3.503015165051693e-05,-8.565233997614996e-05,0.0,0.0,0.0,1.0
1609059637411791562,1231,1609059637411388112,-0.00021515349382283944,1.0159711830937113e-05,-0.00017442698689151825,0.0,0.0,0.0,1.0
1609059637461842508,1232,1609059637461224986,-0.00047831671489717564,8.07360882859598e-06,-9.019987772518334e-05,0.0,0.0,0.0,1.0
1609059637511516521,1233,1609059637510847998,-9.412729752256155e-05,0.00016007375661786227,0.0001437584060113295,0.0,0.0,0.0,1.0
1609059637562782290,1234,1609059637562162114,-0.0001973773561516623,1.0465481402377463e-05,2.689660002985761e-05,0.0,0.0,0.0,1.0
1609059637611318474,1235,1609059637610972119,-0.00034312054749108256,-7.759582558364286e-05,-0.0001637581811841926,0.0,0.0,0.0,1.0
1609059637661806040,1236,1609059637661370945,-0.0003302111029626076,-8.652530024377825e-05,-0.00019314671114400994,0.0,0.0,0.0,1.0
1609059637710112124,1237,1609059637709715081,-0.00030091820035949013,-8.986800555987884e-05,-1.116731527517345e-05,0.0,0.0,0.0,1.0
1609059637761509490,1238,1609059637761191083,-0.00029651118314788505,-8.169569805005494e-05,-3.334896806705956e-06,0.0,0.0,0.0,1.0
1609059637811934014,1239,1609059637811635924,-0.00033431293065433465,-8.093203818049233e-05,-0.00017942084319599871,0.0,0.0,0.0,1.0
1609059637861440124,1240,1609059637860938979,4.094953983013738e-05,-4.1445940567541584e-05,-0.00011411309000308734,0.0,0.0,0.0,1.0
1609059637911470947,1241,1609059637911144925,-0.00022660092902171414,-0.00022980561573504588,-9.95824198177786e-05,0.0,0.0,0.0,1.0
1609059637962207907,1242,1609059637961728049,-0.00023922411098453722,9.259693592156282e-05,-1.4884862331143722e-05,0.0,0.0,0.0,1.0
1609059638011804147,1243,1609059638011242104,-0.00012671356260796074,-5.608357180264534e-05,-0.00016210590082366139,0.0,0.0,0.0,1.0
1609059638063883141,1244,1609059638063555909,-0.0002479179010457244,6.894491183118134e-05,-4.2325855545755076e-05,0.0,0.0,0.0,1.0
1609059638110012866,1245,1609059638109523011,-0.00019281761486311666,2.295697916920858e-05,-0.00018030114964417976,0.0,0.0,0.0,1.0
1609059638161529653,1246,1609059638161158038,-0.000265001451943192,-0.00015526651338859665,-0.0001575023132716069,0.0,0.0,0.0,1.0
1609059638213396665,1247,1609059638212754918,-0.0001489812604376084,-5.4243674547649334e-05,-0.0001330072381264813,0.0,0.0,0.0,1.0
1609059638259631520,1248,1609059638259267998,-0.00019308011275498416,3.251164178408317e-05,-0.0001647801210467037,0.0,0.0,0.0,1.0
1609059638313964482,1249,1609059638313444090,-0.0002319036570845867,-0.00020231223457756187,-4.957685650452959e-05,0.0,0.0,0.0,1.0
1609059638363023565,1250,1609059638362504912,-0.0001799952351184686,-7.051141120939519e-05,-0.0001224599594280562,0.0,0.0,0.0,1.0
1609059638412137726,1251,1609059638411596013,-9.007828760942971e-05,-0.00013648399140819834,0.00011028368546561751,0.0,0.0,0.0,1.0
1609059638463856941,1252,1609059638463040066,-0.000157760485045344,-4.013160520344172e-05,-0.00010022110075524893,0.0,0.0,0.0,1.0
1609059638509616727,1253,1609059638509191943,-0.00032725909597886016,-0.00010112180464716403,1.87141619534259e-06,0.0,0.0,0.0,1.0
1609059638563706114,1254,1609059638562962962,-3.657617967078863e-05,2.9670814200244422e-05,-0.00013150153992569358,0.0,0.0,0.0,1.0
1609059638611024582,1255,1609059638610638094,-0.0002009088819576732,2.4709981424564376e-05,-0.00016800112787151988,0.0,0.0,0.0,1.0
1609059638661277663,1256,1609059638661013079,-0.0002814587597512741,-0.00014505099852968328,-0.00012189670926332496,0.0,0.0,0.0,1.0
1609059638711726879,1257,1609059638711277915,-0.00010437111609107319,-0.00010034577519490995,-0.00025883489475120314,0.0,0.0,0.0,1.0
1609059638761257475,1258,1609059638760889960,-0.00015339495777055845,-8.175265056209469e-05,5.010846523845203e-05,0.0,0.0,0.0,1.0
1609059638813315168,1259,1609059638812534047,-0.0003120835147498724,-0.00016352559604371208,-0.00011532017785853554,0.0,0.0,0.0,1.0
1609059638862570402,1260,1609059638862112952,-5.214363022432167e-05,-0.0001940304217491473,-2.5921454554378442e-05,0.0,0.0,0.0,1.0
1609059638909495971,1261,1609059638909130049,-0.00045389654259153644,-0.00025747930080655124,-0.00031997176429854335,0.0,0.0,0.0,1.0
1609059638962363899,1262,1609059638961914969,-0.0003145120142882263,-0.00014838188446830713,-8.83550175743153e-05,0.0,0.0,0.0,1.0
1609059639009891629,1263,1609059639009439898,-0.00020315255391523124,5.107002234439051e-06,2.5152128895200576e-05,0.0,0.0,0.0,1.0
1609059639061786803,1264,1609059639061371995,6.30681384521381e-05,-8.624296243908702e-05,-0.0002114306193696791,0.0,0.0,0.0,1.0
1609059639110195006,1265,1609059639109818888,-0.00014852155221234398,-5.105137828564921e-05,9.326292590117191e-05,0.0,0.0,0.0,1.0
1609059639160766373,1266,1609059639160401059,-0.00016493352761770552,-5.7714444988477e-05,-0.0001197859207273666,0.0,0.0,0.0,1.0
1609059639211990624,1267,1609059639211657954,-0.0002778129940566032,0.00010001075677834592,-0.00017945820786380295,0.0,0.0,0.0,1.0
1609059639261280410,1268,1609059639260926915,-0.0001763678675210656,-4.793587101303842e-05,-9.077904039145324e-05,0.0,0.0,0.0,1.0
1609059639312836145,1269,1609059639312430096,-0.0002851352120813999,6.765461094460079e-05,-6.414188931103126e-07,0.0,0.0,0.0,1.0
1609059639361998594,1270,1609059639361603928,-0.00012376787811874124,0.0001952093376935693,1.2805709154406486e-05,0.0,0.0,0.0,1.0
1609059639410522841,1271,1609059639410062981,-0.0002504289639837509,-0.00022108969163880943,-5.77021012126977e-05,0.0,0.0,0.0,1.0
1609059639461880384,1272,1609059639461431933,-0.00018218262069780167,-2.6395685701174898e-05,-4.964991632405713e-05,0.0,0.0,0.0,1.0
1609059639510883706,1273,1609059639510627938,-0.0001769085686120775,-4.809155842977475e-05,-9.039147833433958e-05,0.0,0.0,0.0,1.0
1609059639562548006,1274,1609059639562231970,-4.205572449578199e-05,6.50353599738196e-05,-6.87556864740202e-05,0.0,0.0,0.0,1.0
1609059639612308829,1275,1609059639611807061,-5.649789946104988e-05,6.733507221312607e-05,-4.812152372934975e-05,0.0,0.0,0.0,1.0
1609059639661697258,1276,1609059639660788966,-0.00023101558464588834,1.4302023515710971e-05,7.253770453630182e-05,0.0,0.0,0.0,1.0
1609059639711085116,1277,1609059639710631085,-9.660451830839634e-05,-8.936643688173262e-06,-0.00012242501641424042,0.0,0.0,0.0,1.0
1609059639761818676,1278,1609059639761419964,-0.00010124117913790087,0.00012471307475436788,9.581782756029611e-05,0.0,0.0,0.0,1.0
1609059639812174348,1279,1609059639811754895,-0.0001155995291810541,0.00012640969131538782,-0.00010633516126290488,0.0,0.0,0.0,1.0
1609059639860747611,1280,1609059639860475970,-0.00013871465181480858,-0.00011886925897641731,-2.6240053816906084e-05,0.0,0.0,0.0,1.0
1609059639909898908,1281,1609059639909240914,-0.00020629678789774175,-3.9948335025741244e-05,-4.2888494789394827e-05,0.0,0.0,0.0,1.0
1609059639960920707,1282,1609059639960643006,3.3116752469197763e-06,-4.072717196379472e-06,-1.0376392641120447e-05,0.0,0.0,0.0,1.0
1609059640011555045,1283,1609059640011176062,-7.788968323296785e-05,4.27306980235187e-05,-6.215597365866188e-05,0.0,0.0,0.0,1.0
1609059640060731350,1284,1609059640060336066,-4.497109030410229e-05,6.929589886084386e-05,-5.854600741983518e-05,0.0,0.0,0.0,1.0
1609059640111070481,1285,1609059640110604954,-0.000282617120483053,7.567844643929789e-05,9.174613310847235e-06,0.0,0.0,0.0,1.0
1609059640160175834,1286,1609059640159892989,-0.00013966209854388012,-0.0001234638008860145,-3.244185586126491e-05,0.0,0.0,0.0,1.0
1609059640211850187,1287,1609059640211558056,-9.946628257040402e-05,0.00010413012245891196,-0.0001607679288220254,0.0,0.0,0.0,1.0
1609059640263358416,1288,1609059640263082934,-7.641355472998157e-05,4.326553694156132e-05,-0.0002847655265014737,0.0,0.0,0.0,1.0
1609059640310888024,1289,1609059640310277892,-0.00013294463992252759,-0.00012768090743975335,-4.7050657485669944e-05,0.0,0.0,0.0,1.0
1609059640362207706,1290,1609059640361942006,-0.0001207082601517584,-0.0001274534749029499,-6.106895579449656e-05,0.0,0.0,0.0,1.0
1609059640410272785,1291,1609059640409939957,-0.00014428484439932276,-4.399970842428047e-05,9.951134589059052e-05,0.0,0.0,0.0,1.0
1609059640460794627,1292,1609059640460380030,-0.00028535357018810714,-0.00016298375638257312,-0.0001458711131903101,0.0,0.0,0.0,1.0
1609059640512033183,1293,1609059640511650038,-0.00028169889310447616,-0.0001857279441708215,3.534877359001598e-05,0.0,0.0,0.0,1.0
1609059640562332981,1294,1609059640562055064,-0.0003767649098556092,-5.942048156271085e-05,-9.528045500317717e-05,0.0,0.0,0.0,1.0
1609059640612187944,1295,1609059640611683083,-6.240067627061308e-07,-2.7337612209521467e-06,-0.00022534580437749696,0.0,0.0,0.0,1.0
1609059640661051123,1296,1609059640660602046,-0.0003364693216489911,-0.00014833639011513355,-6.247774940604245e-05,0.0,0.0,0.0,1.0
1609059640711922308,1297,1609059640711425019,-7.457894795592779e-05,4.772370823857841e-05,-5.809707536030828e-05,0.0,0.0,0.0,1.0
1609059640761631908,1298,1609059640761268092,-0.00027395319283129993,-0.00020962341006125484,-1.1799676940427162e-05,0.0,0.0,0.0,1.0
1609059640811266360,1299,1609059640810977889,-0.0003323256311169587,-0.00013508998153000107,-4.6257140173366906e-05,0.0,0.0,0.0,1.0
1609059640861708124,1300,1609059640861379099,-7.727564387849384e-05,-0.00016945390539291338,-0.00017898257510040594,0.0,0.0,0.0,1.0
1609059640909388029,1301,1609059640908561898,-0.0001873725397807391,-4.177201250499252e-05,-6.803227377005783e-05,0.0,0.0,0.0,1.0
1609059640961360881,1302,1609059640961056901,0.00010482434582215205,0.00016230917520942967,-0.0003082194731369725,0.0,0.0,0.0,1.0
1609059641011830582,1303,1609059641011466933,2.3603922510773145e-05,-1.7687945764066626e-05,-5.590180735026706e-05,0.0,0.0,0.0,1.0
1609059641062342090,1304,1609059641062046958,-2.5027167634306124e-05,-2.971085921998906e-05,-0.0002396188415616507,0.0,0.0,0.0,1.0
1609059641111664531,1305,1609059641111312104,7.124986357354146e-05,-7.459770741036209e-05,-0.0004242287162199432,0.0,0.0,0.0,1.0
1609059641159156402,1306,1609059641158770991,-0.00017840252010614677,-2.008733068237234e-05,-0.00026577500023350353,0.0,0.0,0.0,1.0
1609059641211757770,1307,1609059641211102915,-0.00011986223961812925,0.00020041246290247727,1.650005966524759e-05,0.0,0.0,0.0,1.0
1609059641264321014,1308,1609059641263302041,-8.683783189411542e-05,0.00011946180609712087,-0.00015119842185384869,0.0,0.0,0.0,1.0
1609059641311661866,1309,1609059641310619069,-5.394855536522414e-05,7.427335943432922e-05,-4.007059504118615e-05,0.0,0.0,0.0,1.0
1609059641362705021,1310,1609059641362344933,2.5919538408913922e-05,-3.4243072200013103e-06,-0.00025763913806642336,0.0,0.0,0.0,1.0
1609059641409690095,1311,1609059641409410906,0.00010464277606203609,0.00015897354692384624,-9.159095634814207e-05,0.0,0.0,0.0,1.0
1609059641462212296,1312,1609059641461462927,-6.915528240725166e-05,0.00011533221186965648,-0.00017855407146427638,0.0,0.0,0.0,1.0
1609059641511265250,1313,1609059641510810090,8.276114781224919e-05,-8.230589215685313e-05,-0.00022830533745121784,0.0,0.0,0.0,1.0
1609059641562481419,1314,1609059641561867905,-1.5151443879091175e-05,-4.0994172767483406e-05,-0.00026918946386089715,0.0,0.0,0.0,1.0
1609059641612267980,1315,1609059641611465884,-0.00017536424087438718,1.0939845466850784e-05,-0.00021994568684036153,0.0,0.0,0.0,1.0
1609059641660421702,1316,1609059641660098029,-0.00018713647745727258,-6.479838729234189e-05,-0.0001049714129770507,0.0,0.0,0.0,1.0
1609059641712942240,1317,1609059641712622118,-0.00026119270438584863,7.895592584361566e-05,-1.0785666226809099e-05,0.0,0.0,0.0,1.0
1609059641763772100,1318,1609059641763167096,-0.00014252308621820475,-0.0001080956345411721,-4.610915354419376e-06,0.0,0.0,0.0,1.0
1609059641814851300,1319,1609059641814458085,-0.00019587038534041312,-4.6050083511772755e-05,-6.485682373380541e-05,0.0,0.0,0.0,1.0
1609059641862132666,1320,1609059641861777974,-4.3083168339563827e-05,6.0888226379063326e-05,-7.415116444420278e-05,0.0,0.0,0.0,1.0
1609059641911090688,1321,1609059641910664034,-8.312346178840357e-05,3.809505800944635e-05,-6.338588741527929e-05,0.0,0.0,0.0,1.0
1609059641969238846,1322,1609059641968651963,-0.0001429283029885653,-6.600634787190529e-05,6.287862915499431e-05,0.0,0.0,0.0,1.0
1609059642012624927,1323,1609059642011675072,-0.00018594938926241866,-5.7683888282866747e-05,0.00012668913420554873,0.0,0.0,0.0,1.0
1609059642061644453,1324,1609059642061350060,-0.0004104480066864369,-1.5895819842626224e-06,-0.000185346587894486,0.0,0.0,0.0,1.0
1609059642112086448,1325,1609059642111669970,-0.00018044588772880843,-5.7615003974831325e-05,0.00012033091407559482,0.0,0.0,0.0,1.0
1609059642168133343,1326,1609059642167797041,-0.0003124103279326107,0.00010324818091334009,8.808467282506172e-05,0.0,0.0,0.0,1.0
1609059642211990767,1327,1609059642210950089,-0.0004458386623973354,-0.0002603545494395121,0.00010943440282673578,0.0,0.0,0.0,1.0
1609059642263681327,1328,1609059642263010932,-0.00036449575681629653,-0.00014329382401356838,0.00020021753637067263,0.0,0.0,0.0,1.0
1609059642310778977,1329,1609059642310435963,-0.0003253230538255991,-0.00015421315676178438,0.00013679445117631417,0.0,0.0,0.0,1.0
1609059642362581785,1330,1609059642362278891,-0.0004680360673994244,-0.00026900989254130536,0.00012174110518969883,0.0,0.0,0.0,1.0
1609059642410755835,1331,1609059642410458994,-0.00038175035609455676,-0.0004007006722481776,3.2389906067464835e-05,0.0,0.0,0.0,1.0
1609059642461434299,1332,1609059642460976077,-0.00037464890871774514,-9.680234742859284e-05,6.44429678722247e-05,0.0,0.0,0.0,1.0
1609059642511161269,1333,1609059642510755969,-0.00026889052514889045,1.0060735561978618e-05,0.00011029674420015567,0.0,0.0,0.0,1.0
1609059642562863742,1334,1609059642561908913,-0.0007084240150163623,-0.00015517669268660939,0.00014204088142122373,0.0,0.0,0.0,1.0
1609059642611850874,1335,1609059642611338091,-0.0004289877081227189,-0.00010898691654048775,0.0001089043060140682,0.0,0.0,0.0,1.0
1609059642662809017,1336,1609059642661937905,-0.00031503364559526403,-0.00016247296327875915,0.00011155085714875668,0.0,0.0,0.0,1.0
1609059642712527343,1337,1609059642712047053,-0.0005808210216642351,-0.00035107864505690145,-9.810332958437584e-05,0.0,0.0,0.0,1.0
1609059642764166584,1338,1609059642763760996,-0.0003856133331581191,-9.33999845749156e-05,8.274596393320621e-05,0.0,0.0,0.0,1.0
1609059642812297642,1339,1609059642811994029,-0.0002941146348796053,-0.0001383112354140792,0.00012543570882783683,0.0,0.0,0.0,1.0
1609059642860940927,1340,1609059642860651923,-0.0005853367730317416,-0.00010240327290844675,8.140602698603061e-05,0.0,0.0,0.0,1.0
1609059642909081413,1341,1609059642908493948,-0.0003936868797751458,-6.977194086488225e-05,-9.187443508906767e-05,0.0,0.0,0.0,1.0
1609059642960905405,1342,1609059642960622025,-0.0002976675369268378,-0.0001968862146455308,-0.0001853771988677977,0.0,0.0,0.0,1.0
1609059643012549896,1343,1609059643012129975,-0.000424466369896237,-0.00031100671138872826,3.6703403125670775e-06,0.0,0.0,0.0,1.0
1609059643062064441,1344,1609059643061673117,-0.0003707719369927531,-4.680601810136409e-05,0.00013948965353804965,0.0,0.0,0.0,1.0
1609059643110971175,1345,1609059643110657883,-0.0004191875669370404,-1.568641736326981e-05,0.0002459384140180987,0.0,0.0,0.0,1.0
1609059643159055514,1346,1609059643158637000,-0.00032726953797634906,-0.00016052483503159465,0.0001290327375755851,0.0,0.0,0.0,1.0
1609059643213067057,1347,1609059643212631894,-0.0005677817582530054,-0.0004047836614518019,-0.00019893330377485086,0.0,0.0,0.0,1.0
1609059643262678554,1348,1609059643262228919,-0.00043169717319813117,-4.374029305864724e-06,5.6921194492076665e-05,0.0,0.0,0.0,1.0
1609059643310789329,1349,1609059643310502959,-0.0004594847447449979,-0.0002173750867520141,-0.00024955316522579096,0.0,0.0,0.0,1.0
1609059643362149148,1350,1609059643361880017,-0.00021248343760760235,-3.81079078977109e-05,-3.268753152241288e-05,0.0,0.0,0.0,1.0
1609059643410688116,1351,1609059643410331917,-0.00014852001868703724,-0.00013372514357712362,-3.836957447589384e-05,0.0,0.0,0.0,1.0
1609059643463607026,1352,1609059643462818099,-0.0004824340456650589,-0.0002601809176994152,-6.900897595940592e-05,0.0,0.0,0.0,1.0
1609059643511948568,1353,1609059643511497927,-0.000370893627810176,-7.081313843215753e-05,-0.00012031947397517229,0.0,0.0,0.0,1.0
1609059643561331162,1354,1609059643560929013,-8.157674606223964e-05,-0.00018481198918252062,2.334609717991043e-05,0.0,0.0,0.0,1.0
1609059643611508141,1355,1609059643611206008,-0.00028655246062925244,8.475289718035128e-05,2.8247703113493117e-05,0.0,0.0,0.0,1.0
1609059643661927830,1356,1609059643661601019,-0.0002334045174521293,2.277551645235576e-05,-0.00013289171095465235,0.0,0.0,0.0,1.0
1609059643713446585,1357,1609059643713094903,-0.00037227133937633994,-0.0001083298446111769,4.329499700617134e-05,0.0,0.0,0.0,1.0
1609059643763961093,1358,1609059643763589097,-0.0003091323508641608,-0.00014158682660081467,-8.385854292924932e-05,0.0,0.0,0.0,1.0
1609059643811352154,1359,1609059643810868931,-0.00023715830501913615,2.0676394111518448e-05,8.990598753655377e-05,0.0,0.0,0.0,1.0
1609059643862010302,1360,1609059643861731005,-0.0003400795244132837,-0.0001530604573964922,-6.575639631378749e-05,0.0,0.0,0.0,1.0
1609059643908811174,1361,1609059643908292962,-0.0005035578464500645,-0.00018295697716652626,7.876952656360459e-05,0.0,0.0,0.0,1.0
1609059643960938548,1362,1609059643960392905,-0.0003025144223620657,-0.0001278612508812671,-6.978282262792845e-05,0.0,0.0,0.0,1.0
1609059644011712142,1363,1609059644011320067,-0.00024602495464520757,1.8954670057524936e-05,-0.00012414334112520464,0.0,0.0,0.0,1.0
1609059644062112123,1364,1609059644061661912,-0.00029858614296074393,-0.00021562503125949206,-0.00021413250024693298,0.0,0.0,0.0,1.0
1609059644110762303,1365,1609059644110173893,-0.0003399013074947277,-0.00014910933709089136,-0.0002814014169167933,0.0,0.0,0.0,1.0
1609059644159892384,1366,1609059644159088088,-0.00028311547116288693,8.485872804442351e-07,-0.00010938160817985931,0.0,0.0,0.0,1.0
1609059644211929358,1367,1609059644211442900,-0.00012212850870696457,0.00011569682650858226,-0.00011571891771566811,0.0,0.0,0.0,1.0
1609059644264883746,1368,1609059644263994885,-0.00031095535414848996,-0.00012688958592121935,-5.831576348569456e-05,0.0,0.0,0.0,1.0
1609059644310431451,1369,1609059644309688998,-0.00015147734202969332,-0.00010176565915998026,1.5990710053870316e-05,0.0,0.0,0.0,1.0
1609059644362584103,1370,1609059644362067891,-0.00020205789905247684,-0.0002472520634881903,-0.00015620313049780066,0.0,0.0,0.0,1.0
1609059644409486347,1371,1609059644409125996,-0.00033033088543277245,-0.00013084258721818287,-4.183888938769087e-05,0.0,0.0,0.0,1.0
1609059644462020188,1372,1609059644461717082,-0.00026958632248863523,-0.00020252423839650646,-5.6287319409875636e-06,0.0,0.0,0.0,1.0
1609059644512405142,1373,1609059644512036038,-0.0003056084356991562,-0.00021273038802505084,-0.00020127110065715215,0.0,0.0,0.0,1.0
1609059644569411130,1374,1609059644569071007,-0.00035723526674047434,-0.00033039199247753004,-0.00032793133901876104,0.0,0.0,0.0,1.0
1609059644611643817,1375,1609059644611122084,-0.0002823560390794455,-0.0002238212182028576,-2.4529572634435226e-05,0.0,0.0,0.0,1.0
1609059644661192497,1376,1609059644660792065,-0.00036182502714154907,-4.21396930043727e-05,-8.532443289155367e-05,0.0,0.0,0.0,1.0
1609059644711295855,1377,1609059644710603905,-0.00020267197102086243,-3.3819503602927625e-05,-3.7390339294063324e-05,0.0,0.0,0.0,1.0
1609059644765003075,1378,1609059644764385891,-0.00033815104380607863,-0.00016519357784972044,-8.734062851445401e-05,0.0,0.0,0.0,1.0
1609059644812131189,1379,1609059644811536027,-0.0004029703745125346,-9.152633120734777e-05,0.00010612789693809077,0.0,0.0,0.0,1.0
1609059644861975918,1380,1609059644861247969,-0.0005783417552365222,-0.00011440312893640225,5.4079269567353094e-05,0.0,0.0,0.0,1.0
1609059644909575483,1381,1609059644909268094,-0.0003855692569736391,-8.546673802101168e-05,9.532528856937006e-05,0.0,0.0,0.0,1.0
1609059644961232516,1382,1609059644960873080,-0.00037245181927403337,-0.00027450875957413245,6.513404180452653e-07,0.0,0.0,0.0,1.0
1609059645012087174,1383,1609059645011628104,-0.0004926918324983376,-0.00025624530766776843,-5.068754293091615e-05,0.0,0.0,0.0,1.0
1609059645061809893,1384,1609059645061392975,-0.0004454668688786967,-0.0002061419287855415,-2.641575122197537e-05,0.0,0.0,0.0,1.0
1609059645112764263,1385,1609059645112142993,-0.00044489401037850484,-0.00020949981657025774,-3.243528433571896e-05,0.0,0.0,0.0,1.0
1609059645160883820,1386,1609059645160577012,-0.00015214274818120543,-0.0001335072571606588,-3.376515956432513e-05,0.0,0.0,0.0,1.0
1609059645212308523,1387,1609059645211976958,-0.00024549432665921245,8.025915353826463e-05,0.0001945698157754805,0.0,0.0,0.0,1.0
1609059645263961236,1388,1609059645263683033,-0.0004819054739293449,-0.00027094717400188983,0.00013495665010410107,0.0,0.0,0.0,1.0
1609059645310079219,1389,1609059645309767914,-0.00035026955378469893,-0.0001522240769453731,-0.0002741755963810988,0.0,0.0,0.0,1.0
1609059645361903362,1390,1609059645361521912,-0.0003911059867220956,-8.716345215376009e-05,9.91308230666732e-05,0.0,0.0,0.0,1.0
1609059645411214037,1391,1609059645410800887,-0.0002573858051135858,1.215214146199628e-05,-0.00012162257237591234,0.0,0.0,0.0,1.0
1609059645462122794,1392,1609059645461821032,-0.00034608515817424745,-0.0001617263197957186,-7.249581729595889e-05,0.0,0.0,0.0,1.0
1609059645512819913,1393,1609059645512345982,-0.0005505834186578795,-0.00020006118884197122,0.00010680355472914016,0.0,0.0,0.0,1.0
1609059645560796336,1394,1609059645560505105,-0.0005951257727296877,-5.2385158184620195e-05,-4.918150381527653e-05,0.0,0.0,0.0,1.0
1609059645613164035,1395,1609059645612406922,-0.0004106463517281611,-0.00013646174813075618,0.00026533407214301974,0.0,0.0,0.0,1.0
1609059645660279124,1396,1609059645659907055,-0.0005627790730393656,-0.00011165176335481419,4.016986579102877e-05,0.0,0.0,0.0,1.0
1609059645710596007,1397,1609059645710335923,-0.0005543398604928029,-0.00013562223774243876,0.00021381662362784937,0.0,0.0,0.0,1.0
1609059645764625429,1398,1609059645764110995,-0.0002932445816981044,-1.1668334611414366e-05,0.00010432189266040837,0.0,0.0,0.0,1.0
1609059645811202342,1399,1609059645810743046,-0.00040381342372342033,-7.728275024732056e-05,-9.193182023636837e-05,0.0,0.0,0.0,1.0
1609059645861576508,1400,1609059645860698891,-0.0005171473163194662,-0.00019876937438567666,0.0002912948736515375,0.0,0.0,0.0,1.0
1609059645910316920,1401,1609059645909594012,-0.00045171898057105864,-2.953082742962465e-05,4.039761932617125e-05,0.0,0.0,0.0,1.0
1609059645960816773,1402,1609059645960088921,-0.00040588544206698884,-0.00022092733668088727,0.00012525433003318653,0.0,0.0,0.0,1.0
1609059646015130867,1403,1609059646014728022,-0.0003316245045468236,7.466912849452001e-05,6.516275399093274e-05,0.0,0.0,0.0,1.0
1609059646061878367,1404,1609059646061294032,-0.0004402596630193045,-1.3650573354340167e-05,5.221429588786464e-05,0.0,0.0,0.0,1.0
1609059646110327144,1405,1609059646109769059,-0.0004710420592708431,-0.00024244363066827646,-5.415679764197989e-05,0.0,0.0,0.0,1.0
1609059646160797266,1406,1609059646160515976,-0.0005743235912767375,-8.371439087540011e-05,-0.00012351028226120775,0.0,0.0,0.0,1.0
1609059646211648123,1407,1609059646211092902,-0.0004129081778962984,-9.86237521125588e-05,0.0001065068973673533,0.0,0.0,0.0,1.0
1609059646264722784,1408,1609059646264058066,-0.0003980929244811193,-7.028918940932272e-05,-8.75198585816861e-05,0.0,0.0,0.0,1.0
1609059646310945929,1409,1609059646310534907,-0.00024394079801837165,3.3104615969392626e-05,-0.00010406365165138709,0.0,0.0,0.0,1.0
1609059646362678086,1410,1609059646362097931,-0.0003889581944243048,-6.679199417192194e-05,-9.268717633048595e-05,0.0,0.0,0.0,1.0
1609059646411973445,1411,1609059646411589098,-0.0004763729302901254,-0.00026388416039324625,0.00013970004074081999,0.0,0.0,0.0,1.0
1609059646461734926,1412,1609059646461224032,-0.00021996120047873546,-5.882455945283027e-05,-5.688383751589754e-05,0.0,0.0,0.0,1.0
1609059646513208903,1413,1609059646511770916,-9.269983740622934e-05,8.788826583838727e-06,-9.879201117612979e-05,0.0,0.0,0.0,1.0
1609059646561589306,1414,1609059646561097098,-0.00027883563477359985,7.673928146090248e-05,6.419533477242112e-06,0.0,0.0,0.0,1.0
1609059646612865123,1415,1609059646612173033,-0.00019410353572979488,-3.913408123423778e-05,-0.00027764827921927804,0.0,0.0,0.0,1.0
1609059646662571753,1416,1609059646661961985,-0.00035538502351073475,-5.488952189480756e-05,0.00010853587812675869,0.0,0.0,0.0,1.0
1609059646711254142,1417,1609059646710694981,-0.0004361829545764806,-0.00031702701764757535,-0.00021387180462895117,0.0,0.0,0.0,1.0
1609059646764088165,1418,1609059646763697100,-0.0001938241871002333,-2.930158088432222e-05,-4.059516602694657e-05,0.0,0.0,0.0,1.0
1609059646811434557,1419,1609059646810995055,-0.0002792717028725633,-0.0002230308963859784,-2.6896055373981653e-05,0.0,0.0,0.0,1.0
1609059646861761264,1420,1609059646861387921,-0.00041826138885880937,-8.321601538696655e-05,-8.43988208991675e-05,0.0,0.0,0.0,1.0
1609059646912230023,1421,1609059646911863995,-0.00045938942359669,-1.9348144757458385e-05,6.562488930939026e-05,0.0,0.0,0.0,1.0
1609059646960688923,1422,1609059646960195971,-0.0007188037427745542,-0.0002168568948519578,5.60343360049842e-05,0.0,0.0,0.0,1.0
1609059647010990955,1423,1609059647010625077,-0.00018613490171404123,0.00027171726079799896,-1.3813426836151166e-05,0.0,0.0,0.0,1.0
1609059647061477652,1424,1609059647061221076,-1.8161470737965146e-05,-2.3471488230342175e-05,-0.0002377533897970352,0.0,0.0,0.0,1.0
1609059647112027960,1425,1609059647111664010,-0.00010465903146439359,-8.608502352203118e-05,-1.406496780020916e-05,0.0,0.0,0.0,1.0
1609059647161390649,1426,1609059647160988045,-3.894492649791914e-05,5.944672266977591e-05,-8.130958900665064e-05,0.0,0.0,0.0,1.0
1609059647211493765,1427,1609059647210534049,2.7425527235891423e-06,1.2108170430735754e-06,-0.00022302181106681473,0.0,0.0,0.0,1.0
1609059647264111766,1428,1609059647263510895,-5.2477072401302394e-05,7.683904220456839e-05,-0.00025944155817825276,0.0,0.0,0.0,1.0
1609059647311796218,1429,1609059647310938073,-5.509269167447428e-05,7.027264540582223e-05,-0.0002668223923194546,0.0,0.0,0.0,1.0
1609059647361938216,1430,1609059647361104918,-0.00013569683176584135,-0.0001167517646116778,-2.6415258723488932e-05,0.0,0.0,0.0,1.0
1609059647410756519,1431,1609059647410228920,-4.319261319096768e-05,6.663595400269173e-05,-6.487118288234228e-05,0.0,0.0,0.0,1.0
1609059647462143374,1432,1609059647461812926,6.0038121127092836e-05,0.00016649955295022778,-0.0002489154185774112,0.0,0.0,0.0,1.0
1609059647511588496,1433,1609059647511064005,1.7845392790150072e-06,-1.9060685460203786e-05,-3.244508161870385e-05,0.0,0.0,0.0,1.0
1609059647560961431,1434,1609059647560487938,-0.0001482135899379955,0.00020141029298770263,-0.00017032042795861457,0.0,0.0,0.0,1.0
1609059647612455922,1435,1609059647611725998,-1.1348643422337545e-05,9.8868467269142e-05,-0.00027270135763757253,0.0,0.0,0.0,1.0
1609059647660664272,1436,1609059647660194111,-0.0001002406023360436,0.0001369953526086931,-0.00010753098810312167,0.0,0.0,0.0,1.0
1609059647711837534,1437,1609059647711523963,-0.00014772831561060684,-9.887862861290841e-05,-0.0002055453770708482,0.0,0.0,0.0,1.0
1609059647761542557,1438,1609059647761155081,-8.568436808786828e-05,3.5318489381097606e-05,-6.47970405758258e-05,0.0,0.0,0.0,1.0
1609059647813105700,1439,1609059647812839938,-0.0002305261901369704,8.750139691926506e-06,6.312295446875282e-05,0.0,0.0,0.0,1.0
1609059647861263382,1440,1609059647860968066,-0.00024210140123059887,1.2959241338705851e-05,-0.00013830006766113456,0.0,0.0,0.0,1.0
1609059647910621760,1441,1609059647910299969,-0.0003938748965097716,-7.267031340418839e-05,-9.626814507868175e-05,0.0,0.0,0.0,1.0
1609059647962005816,1442,1609059647961706114,-0.000381871212546514,-7.512739798798407e-05,-0.00011428729408535787,0.0,0.0,0.0,1.0
1609059648013859894,1443,1609059648013448906,-0.0003580472149344871,-0.0001679317271126024,-6.83176364901783e-05,0.0,0.0,0.0,1.0
1609059648061169466,1444,1609059648060733033,-0.0004473302673773105,-0.0002979540339040909,-0.0001704043827537305,0.0,0.0,0.0,1.0
1609059648112561746,1445,1609059648112209034,-0.00039276838539237247,-6.859684190274606e-05,-9.108293162896075e-05,0.0,0.0,0.0,1.0
1609059648161141676,1446,1609059648160470915,-0.0003329399634424135,-0.0001300021942505225,-3.7434580058004485e-05,0.0,0.0,0.0,1.0
1609059648211708433,1447,1609059648211301995,-0.00035958206439445917,-4.7683494450723174e-05,-9.67870561119355e-05,0.0,0.0,0.0,1.0
1609059648263713224,1448,1609059648263458920,-0.00033483733089312295,-0.0001426168990548149,-5.528937375842702e-05,0.0,0.0,0.0,1.0
1609059648310855002,1449,1609059648310585928,-0.00031879974776671816,-0.0001351370420046294,-6.222807934719299e-05,0.0,0.0,0.0,1.0
1609059648362406447,1450,1609059648362069083,-0.00024158616669467392,3.429354099537818e-05,-0.00010493789825716249,0.0,0.0,0.0,1.0
1609059648410745341,1451,1609059648410202933,-0.0001559551358951694,-8.498330472406224e-05,-0.0001737536993218214,0.0,0.0,0.0,1.0
1609059648461226140,1452,1609059648460826111,-0.00019558877646019823,-3.223483972192298e-05,-4.319161998367349e-05,0.0,0.0,0.0,1.0
1609059648511517986,1453,1609059648511125041,-0.00025604158508230057,5.223653052510713e-05,-5.938131183214068e-05,0.0,0.0,0.0,1.0
1609059648561104617,1454,1609059648560791922,-0.00037911936358980824,-8.272194277125777e-05,9.211529865993384e-05,0.0,0.0,0.0,1.0
1609059648611866400,1455,1609059648611245108,-0.00029727804598067564,-0.0001937108494907136,-0.00018077929562565487,0.0,0.0,0.0,1.0
1609059648661577750,1456,1609059648661153031,-0.0004194258561618369,-1.7227356245541614e-05,0.0002437649898219263,0.0,0.0,0.0,1.0
1609059648711007019,1457,1609059648710394097,-0.00039127683804807134,-7.248117782054919e-05,-9.902032732256316e-05,0.0,0.0,0.0,1.0
1609059648764241745,1458,1609059648763838959,-0.00038992175654328776,-8.099583567044988e-05,0.0001075590051939912,0.0,0.0,0.0,1.0
1609059648811772945,1459,1609059648811249924,-0.00019946303681450672,-3.539685614839527e-05,-4.367296068608084e-05,0.0,0.0,0.0,1.0
1609059648862950691,1460,1609059648862269116,-0.0003438396481136863,-0.0001304265102319846,-2.5300508404768607e-05,0.0,0.0,0.0,1.0
1609059648910520973,1461,1609059648910104943,-0.00024127717651722946,3.747137692400315e-05,-0.00010024138918396375,0.0,0.0,0.0,1.0
1609059648964519113,1462,1609059648963622046,-0.0002327501913654828,-5.3831899307965614e-05,-3.39047689301708e-05,0.0,0.0,0.0,1.0
1609059649013153133,1463,1609059649012705994,-0.0003218189951645911,-0.00014232043267625727,-7.011687339186778e-05,0.0,0.0,0.0,1.0
1609059649061655668,1464,1609059649060615016,-0.0003659381172411713,-5.716387482124219e-05,-0.00010441153194307162,0.0,0.0,0.0,1.0
1609059649112685803,1465,1609059649111994935,-0.0002863281620371083,9.528222640398099e-05,4.4748704301156295e-05,0.0,0.0,0.0,1.0
1609059649161924954,1466,1609059649160974932,-0.00033682655397626604,-0.00014205722479943006,-5.2060488901162216e-05,0.0,0.0,0.0,1.0
1609059649211756334,1467,1609059649211126042,-0.00028916902249420673,-0.0002210788000240882,-1.2156391733242344e-05,0.0,0.0,0.0,1.0
1609059649263438637,1468,1609059649263186884,-0.0002992645000077232,0.00010389306440927726,-0.00014806671277511896,0.0,0.0,0.0,1.0
1609059649310956315,1469,1609059649310493899,-0.0003373414597014346,-0.00014490872118599896,-5.599539357348249e-05,0.0,0.0,0.0,1.0
1609059649362326966,1470,1609059649361945105,-0.0002900010005788545,0.00010011970202583598,5.6767297703430586e-05,0.0,0.0,0.0,1.0
1609059649411859942,1471,1609059649411539031,-8.171721171379431e-05,3.494764995437549e-05,-7.00497373991027e-05,0.0,0.0,0.0,1.0
1609059649463384155,1472,1609059649462953997,-0.00029521103930463255,-0.00011451258475148052,-5.7112742759102275e-05,0.0,0.0,0.0,1.0
1609059649511927710,1473,1609059649511554909,-0.000303557745542804,-0.00018516847857696916,-0.00015979856717152074,0.0,0.0,0.0,1.0
1609059649561770380,1474,1609059649560886097,-0.00033779641691111806,-0.00014555816751737893,-5.649473635571667e-05,0.0,0.0,0.0,1.0
1609059649612535694,1475,1609059649611853076,-0.00013522292454482,-0.00010869872201269004,-1.4150435688975449e-05,0.0,0.0,0.0,1.0
1609059649662175859,1476,1609059649661374999,-0.0003279971843532792,-0.00014381405032892758,-6.523416751491595e-05,0.0,0.0,0.0,1.0
1609059649713483983,1477,1609059649712681008,-0.00024231189671652942,-0.0002820108506256247,-0.0001642369436680724,0.0,0.0,0.0,1.0
1609059649764540021,1478,1609059649763936949,-0.00023007024036658663,-0.00026679729178979983,-0.00015440139423361643,0.0,0.0,0.0,1.0
1609059649811506409,1479,1609059649811124993,-0.0004810036993028177,-0.00023495314636079456,-3.052348033705243e-05,0.0,0.0,0.0,1.0
1609059649861829815,1480,1609059649861453963,-0.00032933439235094397,-0.00015239077909257048,-7.731814766742673e-05,0.0,0.0,0.0,1.0
1609059649911185897,1481,1609059649910799933,-0.0004772858533712565,-0.0002404252668881668,-4.3605306206728756e-05,0.0,0.0,0.0,1.0
1609059649961983432,1482,1609059649961703015,-0.0004761943580291472,-0.00025631041451745773,-7.017966069966519e-05,0.0,0.0,0.0,1.0
1609059650013830238,1483,1609059650013385010,-0.0002421085702479786,-5.217424652315117e-05,-2.0267300083531836e-05,0.0,0.0,0.0,1.0
1609059650061021316,1484,1609059650060630036,3.960466297314724e-05,0.00024893953724713924,-9.364363599928538e-05,0.0,0.0,0.0,1.0
1609059650112293427,1485,1609059650112010909,-9.945388535470556e-05,0.00013544674008869606,-0.00011092120298883401,0.0,0.0,0.0,1.0
1609059650159678805,1486,1609059650159295989,0.00014146902449141407,0.00012428784954821026,-0.0001900945124546638,0.0,0.0,0.0,1.0
1609059650212520168,1487,1609059650212063027,-0.0001278889528464333,0.00013773331046706971,-0.0002955900812615653,0.0,0.0,0.0,1.0
1609059650263103647,1488,1609059650262630892,-0.00025430671438542163,3.5789743197511825e-05,-8.760623276771184e-05,0.0,0.0,0.0,1.0
1609059650311393624,1489,1609059650311097098,-6.401540220934976e-05,9.008483676353762e-05,-0.000224792344194924,0.0,0.0,0.0,1.0
1609059650362828049,1490,1609059650362497044,9.235953899988658e-05,0.0001739138099168258,-5.336813135414786e-05,0.0,0.0,0.0,1.0
1609059650410205854,1491,1609059650409851981,-0.0002460056939810329,5.702953846764558e-05,-0.0002852713664402984,0.0,0.0,0.0,1.0
1609059650461919906,1492,1609059650461435032,0.00013648155536216677,0.00010991781152469571,-0.00020711269723960868,0.0,0.0,0.0,1.0
1609059650511560729,1493,1609059650510832024,0.0002381179321560012,0.00028072294665903996,-5.460395692935549e-05,0.0,0.0,0.0,1.0
1609059650560981515,1494,1609059650560702038,0.00022599761512864802,0.0002917831316224806,-0.00024447717917652767,0.0,0.0,0.0,1.0
1609059650611812787,1495,1609059650611391020,-5.9813560390864495e-05,-0.0002258101770422627,-0.0005109539273391306,0.0,0.0,0.0,1.0
1609059650661893100,1496,1609059650661632967,-2.3853722456834703e-05,-4.69798701985269e-06,-0.00020117359350990682,0.0,0.0,0.0,1.0
1609059650714227453,1497,1609059650713942004,-0.0001898961792647924,-2.868372820330478e-05,-4.422772272150155e-05,0.0,0.0,0.0,1.0
1609059650761755030,1498,1609059650761362029,-0.00030662541975345903,-0.00020993908459132626,-0.00019563177076875604,0.0,0.0,0.0,1.0
1609059650811963554,1499,1609059650811493111,-0.0001916649211608501,-1.8891642945106923e-05,-2.6558409956578544e-05,0.0,0.0,0.0,1.0
1609059650861121440,1500,1609059650860654068,-0.00019789135326675478,-3.689591909150636e-05,-4.790679609811832e-05,0.0,0.0,0.0,1.0
1609059650910271110,1501,1609059650909897995,-0.0002966886158581872,-0.0001987534870515617,-0.0001895006113024067,0.0,0.0,0.0,1.0
1609059650962731911,1502,1609059650962358904,-0.00034717274804307863,0.00010963285173914983,-8.262504582745578e-05,0.0,0.0,0.0,1.0
1609059651012218127,1503,1609059651011856986,-0.0003513200514717596,-0.00019393070178708172,-0.00011761795301623579,0.0,0.0,0.0,1.0
1609059651062430336,1504,1609059651062148047,-0.0004047115646521604,-8.715127404812506e-05,0.00011514009176138984,0.0,0.0,0.0,1.0
1609059651111947926,1505,1609059651111564112,-8.300562121021926e-05,0.00014680502598096723,-0.00011216706004191224,0.0,0.0,0.0,1.0
1609059651160545122,1506,1609059651159983111,-0.00014032199109337284,-8.622368617494658e-05,-0.00019410079889681242,0.0,0.0,0.0,1.0
1609059651213123365,1507,1609059651212279034,-0.00020397811083938677,5.7127301062109836e-05,0.00010894808015748936,0.0,0.0,0.0,1.0
1609059651264941004,1508,1609059651263666106,-7.793959522928162e-05,0.0003804389680013287,-0.0001895897607049335,0.0,0.0,0.0,1.0
1609059651312649661,1509,1609059651312325907,8.310067357086837e-05,0.00017895656802124904,-3.4458085981015074e-05,0.0,0.0,0.0,1.0
1609059651362089121,1510,1609059651361724091,-0.00020398109333186198,-1.6023475133408738e-05,-0.00022924459422313248,0.0,0.0,0.0,1.0
1609059651410533718,1511,1609059651410068942,-6.849561407662463e-05,6.886070903178165e-05,-0.0002533193025158198,0.0,0.0,0.0,1.0
1609059651462953696,1512,1609059651462624026,6.410074901097573e-05,0.00021638114409228137,-0.00039599558845182514,0.0,0.0,0.0,1.0
1609059651510469784,1513,1609059651509920073,-0.00010196922051974866,-6.15513027177883e-05,-0.00042161568126886095,0.0,0.0,0.0,1.0
1609059651570502401,1514,1609059651570202065,0.0003616611431809247,0.00014778607070908834,-0.00041144678356985764,0.0,0.0,0.0,1.0
1609059651616875002,1515,1609059651616311026,-0.0007184559542672275,0.0004307472131621637,0.0008650199688879923,0.0,0.0,0.0,1.0
1609059651669379346,1516,1609059651669034911,-0.0003835302672072771,-3.068105500503293e-05,0.00040188955007636196,0.0,0.0,0.0,1.0
1609059651718919517,1517,1609059651718394948,-0.0007088502355756532,0.0003614691644493462,0.0014086484269242305,0.0,0.0,0.0,1.0
1609059651770638530,1518,1609059651770199013,-2.430502696881831e-07,0.0006016018249326294,0.0009581771694087138,0.0,0.0,0.0,1.0
1609059651818581909,1519,1609059651817955924,-0.0001340783928220901,-7.323162842354236e-05,4.0974087827549965e-05,0.0,0.0,0.0,1.0
1609059651868382507,1520,1609059651867718888,-0.0006034944543458209,-0.0006470925730290844,-0.0003210224209375667,0.0,0.0,0.0,1.0
1609059651917498612,1521,1609059651917257023,-0.0007088415622362731,-0.0007360437291694666,-0.0003388346998711711,0.0,0.0,0.0,1.0
1609059651967766051,1522,1609059651967446042,-0.00043595645091798474,-0.00033424848929541895,-1.9830550606059205e-05,0.0,0.0,0.0,1.0
1609059652018375199,1523,1609059652017965031,-0.00016812455294612505,-0.0004184779778242387,-0.0002469718821558331,0.0,0.0,0.0,1.0
1609059652070349247,1524,1609059652069879008,-0.001151787188618414,5.567207082890491e-06,0.0009190669421137443,0.0,0.0,0.0,1.0
1609059652117802403,1525,1609059652116944981,-0.000659621993442272,-4.4415225005423054e-05,0.0004827717000175369,0.0,0.0,0.0,1.0
1609059652168149199,1526,1609059652166833115,-0.00022383038252016263,-0.00013781756160469172,0.00026535065435950855,0.0,0.0,0.0,1.0
1609059652217353682,1527,1609059652216715050,-0.00022660776813410166,-0.0003667664330500031,-9.590990256569398e-05,0.0,0.0,0.0,1.0
1609059652269750714,1528,1609059652269385052,-0.00011184038613620828,-0.000260981827214124,-6.236195183717541e-05,0.0,0.0,0.0,1.0
1609059652320135231,1529,1609059652319827033,-0.0004232362381273447,-0.00013370111360444525,0.0002845258807688822,0.0,0.0,0.0,1.0
1609059652366452529,1530,1609059652366114092,0.0003203966788341006,-0.00045405624920746845,-0.0006559948257951476,0.0,0.0,0.0,1.0
1609059652417944583,1531,1609059652417540980,6.856067488669737e-05,-0.00039920200621779145,-0.0002727108616156215,0.0,0.0,0.0,1.0
1609059652468292577,1532,1609059652468044949,7.607907893714128e-05,-0.00048620202194271656,-0.0004200604039183986,0.0,0.0,0.0,1.0
1609059652518009476,1533,1609059652517619086,-0.00017733305563893964,-0.00040921485003764246,-0.00022140190202790677,0.0,0.0,0.0,1.0
1609059652570374404,1534,1609059652569947911,-0.0005188687886032994,-0.0013450355826165605,-0.0013099093076256452,0.0,0.0,0.0,1.0
1609059652617697012,1535,1609059652617404891,-0.00045390187581517694,-0.0016069863624572633,-0.0011381430419525884,0.0,0.0,0.0,1.0
1609059652667830798,1536,1609059652667557908,-0.000773687735573958,-0.0011714939296929572,-0.0005124529732363214,0.0,0.0,0.0,1.0
1609059652717657487,1537,1609059652717285109,-0.0011121073126005854,-0.001289097008438489,-0.000301959983062261,0.0,0.0,0.0,1.0
1609059652772014500,1538,1609059652771368933,-0.0012777332429330102,-0.0010964836476503592,-0.00024409736890618206,0.0,0.0,0.0,1.0
1609059652818808360,1539,1609059652818480921,-0.0002157774397915091,-0.0004247715506657812,-0.00020098992142791872,0.0,0.0,0.0,1.0
1609059652867070533,1540,1609059652866795970,-7.856978580988994e-05,-5.248835174853639e-05,0.00023049499739258295,0.0,0.0,0.0,1.0
1609059652917651513,1541,1609059652917365027,-0.0003650863353570344,-0.0001549736251185152,0.0001823152432933739,0.0,0.0,0.0,1.0
1609059652969174745,1542,1609059652968762112,-0.0005093758478764698,4.3256976148597914e-05,0.0006675187481945954,0.0,0.0,0.0,1.0
1609059653017647676,1543,1609059653017079068,-0.00033529839112844684,0.00010948865735826985,0.0005683852370914622,0.0,0.0,0.0,1.0
1609059653071664384,1544,1609059653071048928,-0.0002478382080610686,2.402945847279625e-05,0.0003295269137808532,0.0,0.0,0.0,1.0
1609059653118547407,1545,1609059653117917014,-0.0003878381242152784,6.00883997492474e-05,0.0007732132146749393,0.0,0.0,0.0,1.0
1609059653168311183,1546,1609059653167936039,-0.00041559945439217927,0.00014372775717319541,0.0007172783260323001,0.0,0.0,0.0,1.0
1609059653216533568,1547,1609059653216130925,-0.0004103335724749968,0.00014594105081044972,0.0007146135155799982,0.0,0.0,0.0,1.0
1609059653270069406,1548,1609059653269761038,-0.00025381335873930766,-5.366461152433999e-05,0.00043457651893774596,0.0,0.0,0.0,1.0
1609059653318434935,1549,1609059653318077040,-0.00031448370583220253,1.9304550516352492e-05,0.0001785975916135385,0.0,0.0,0.0,1.0
1609059653369035321,1550,1609059653368673039,-0.0002674704753928836,-7.200965364617673e-05,0.00019968657150215563,0.0,0.0,0.0,1.0
1609059653419754323,1551,1609059653418377114,-0.0001491205293682185,-0.00017984355990918743,-0.00011109159638067467,0.0,0.0,0.0,1.0
1609059653469773009,1552,1609059653469000054,-0.0003489998726600163,-0.0004981226169071817,-0.00016120891268656123,0.0,0.0,0.0,1.0
1609059653519718460,1553,1609059653518964005,-0.0006404618014670405,-0.0004231609593432495,7.895149129311108e-05,0.0,0.0,0.0,1.0
1609059653571574840,1554,1609059653571012927,-0.0004169492989092305,-8.63120369309911e-05,0.00035258979699293036,0.0,0.0,0.0,1.0
1609059653616937191,1555,1609059653616563988,-0.0005564139209290886,-0.0001908944076944863,0.0003499820779921947,0.0,0.0,0.0,1.0
1609059653669705381,1556,1609059653669161988,-0.000480582235290683,-4.00118965053764e-05,0.000501095131323126,0.0,0.0,0.0,1.0
1609059653718148154,1557,1609059653717698050,-0.000692785622312897,-0.0003026864217368086,0.0003322619926748871,0.0,0.0,0.0,1.0
1609059653762916495,1558,1609059653762232018,-0.0006291149642585481,-3.448366254588109e-05,0.00046273045967737403,0.0,0.0,0.0,1.0
1609059653815385400,1559,1609059653814713908,-0.00045256727742071234,-1.517468368561481e-05,0.0002859829496948407,0.0,0.0,0.0,1.0
1609059653862783724,1560,1609059653862398100,-0.00032403327490371225,-0.00014766800171273076,0.00036743044180909123,0.0,0.0,0.0,1.0
1609059653910655935,1561,1609059653910335017,-0.00027030912280068264,1.2995887271216588e-05,0.00033836818936805457,0.0,0.0,0.0,1.0
1609059653962305505,1562,1609059653961956931,-0.00020593156991211004,-5.495091114582351e-05,0.00015452428886320035,0.0,0.0,0.0,1.0
1609059654011354778,1563,1609059654011049939,-0.0001836495136053884,-0.00012654945505374826,1.4340278632118952e-05,0.0,0.0,0.0,1.0
1609059654066038794,1564,1609059654065762949,-0.00019611670126451486,-5.973780259793671e-05,0.0003570985121328363,0.0,0.0,0.0,1.0
1609059654111177649,1565,1609059654110885096,-0.00031208936881910176,-0.00020805775804078053,3.5511937877430455e-05,0.0,0.0,0.0,1.0
1609059654162360656,1566,1609059654161869956,-0.00011323453076172996,-0.00017984719736929833,6.845581755499097e-05,0.0,0.0,0.0,1.0
1609059654212359375,1567,1609059654211246920,-0.0001225919377425555,8.785862406668343e-05,0.00028396087910920187,0.0,0.0,0.0,1.0
1609059654262452023,1568,1609059654262045098,-0.00020597703271718615,-4.367089041679151e-05,0.00017253760141855423,0.0,0.0,0.0,1.0
1609059654312955812,1569,1609059654312663985,-0.00039478661595993003,-9.875662917480099e-05,0.00030672862223113384,0.0,0.0,0.0,1.0
1609059654362812933,1570,1609059654362198067,-0.0006854266859193103,-0.0005609747315560298,0.00035583496314472995,0.0,0.0,0.0,1.0
1609059654411085385,1571,1609059654409757090,-0.0009648398462189789,-0.0005235716321543293,0.0003003143162914057,0.0,0.0,0.0,1.0
1609059654463887603,1572,1609059654463171912,-0.0004764155924661395,-0.00028664608352713117,0.0005469720570765446,0.0,0.0,0.0,1.0
1609059654511912697,1573,1609059654510996056,-0.00031296701574135,-0.00023415349219035875,0.0004384546323912275,0.0,0.0,0.0,1.0
1609059654564511299,1574,1609059654564134074,-0.00048554460740035665,-0.000283514330057244,0.00034095491704277947,0.0,0.0,0.0,1.0
1609059654612494011,1575,1609059654612175894,-2.3176932664625838e-05,-2.9855064259010078e-05,0.00020143207545331165,0.0,0.0,0.0,1.0
1609059654662607178,1576,1609059654661920977,-0.00030342769900570943,-0.0002316192033617881,0.00020954754435820178,0.0,0.0,0.0,1.0
1609059654712770709,1577,1609059654712494088,-8.942864104355408e-05,-0.00020759775250311918,0.00021802338875431815,0.0,0.0,0.0,1.0
1609059654761980288,1578,1609059654761625004,9.790297267286974e-05,-0.00047522133255029075,1.5221596804337878e-05,0.0,0.0,0.0,1.0
1609059654813480375,1579,1609059654813248110,-0.000184771436458675,-0.0003559141140137001,0.00031565723801918466,0.0,0.0,0.0,1.0
1609059654864180142,1580,1609059654863747073,0.00011839392270829308,-0.00032271321573418277,1.2230550481717728e-05,0.0,0.0,0.0,1.0
1609059654912169794,1581,1609059654911918116,-0.00024219221844035133,-0.00031313638841012903,0.00022952072325566064,0.0,0.0,0.0,1.0
1609059654998659170,1582,1609059654998362017,-0.00019974585910631504,-0.00037484421379119226,8.138699300985763e-05,0.0,0.0,0.0,1.0
1609059655072299779,1583,1609059655071864081,-0.00016502159506970315,-0.0004339974701395022,-5.360273798515891e-05,0.0,0.0,0.0,1.0
1609059655117376785,1584,1609059655117051077,-0.0002432295375207616,-0.0003106418241749509,0.0002347116122862758,0.0,0.0,0.0,1.0
1609059655163017473,1585,1609059655162495089,-0.000195180329164657,-0.0003705577202062216,8.284621948106974e-05,0.0,0.0,0.0,1.0
1609059655211155797,1586,1609059655210229111,-0.00033463622008156335,-0.0007906134104338491,2.140353650403881e-05,0.0,0.0,0.0,1.0
1609059655263729253,1587,1609059655263327075,-0.000581100398555634,-0.0007597844639128937,0.00013841672027936625,0.0,0.0,0.0,1.0
1609059655313104569,1588,1609059655312775088,-0.00039636564273592967,-0.00095429302609773,5.507736823417986e-05,0.0,0.0,0.0,1.0
1609059655362479066,1589,1609059655362157059,-0.0001791355623304014,-0.0004048310352864348,0.00023114935936519032,0.0,0.0,0.0,1.0
1609059655412829813,1590,1609059655412181092,-0.0001987402577192654,-0.0003779384310327316,0.0002970073621746394,0.0,0.0,0.0,1.0
1609059655460538484,1591,1609059655460204077,-4.2812749200038525e-05,-0.000378594409401245,0.00033444005055116577,0.0,0.0,0.0,1.0
1609059655512069361,1592,1609059655511562062,-0.00025458774874209666,-0.00030272917828355617,0.000260658638197242,0.0,0.0,0.0,1.0
1609059655562326344,1593,1609059655562078906,-5.651630333858293e-05,-0.0004975393761768032,0.0003828928826585809,0.0,0.0,0.0,1.0
1609059655611683061,1594,1609059655611159039,0.0001583612204179019,-0.0005509073589635705,0.00026711937514534156,0.0,0.0,0.0,1.0
1609059655662088903,1595,1609059655661734057,0.0002050429721620617,-0.0006164430513564412,0.0003296419186682442,0.0,0.0,0.0,1.0
1609059655709045379,1596,1609059655708805991,0.00015421232620127512,-0.0005612455698340568,0.0002555351141459994,0.0,0.0,0.0,1.0
1609059655764104444,1597,1609059655763646079,-7.948033058724491e-05,-0.0005384669646275597,0.0005664476462143853,0.0,0.0,0.0,1.0
1609059655812349901,1598,1609059655811047984,9.572453802064729e-06,-0.0003442892509397666,0.0003274950741563032,0.0,0.0,0.0,1.0
1609059655862445633,1599,1609059655862096978,-4.886110283663925e-05,-0.00026682122113896867,0.0002977819674825355,0.0,0.0,0.0,1.0
1609059655912330506,1600,1609059655911828948,-0.0002966373682475876,-0.00023510977145591028,0.0004177404481069402,0.0,0.0,0.0,1.0
1609059655960390139,1601,1609059655960056973,-0.0001557450900548929,-0.00013472187600882535,0.0004119937082123215,0.0,0.0,0.0,1.0
1609059656012976609,1602,1609059656012721968,-0.00015262353651124272,-0.00013364103469371003,0.00041004601844463195,0.0,0.0,0.0,1.0
1609059656062203260,1603,1609059656061912966,-0.00013697633001186205,-0.00015042629925687834,0.0003649311473523653,0.0,0.0,0.0,1.0
1609059656113597476,1604,1609059656113312912,-0.0006418581973441917,-0.0009208913764737758,0.0001750461374960821,0.0,0.0,0.0,1.0
1609059656163325396,1605,1609059656162435008,0.00017162774732426556,-0.0008829364034568243,0.0003880670559404109,0.0,0.0,0.0,1.0
1609059656210331535,1606,1609059656210004998,0.00037473114738162394,-0.0014683915475508513,0.0003258784334008169,0.0,0.0,0.0,1.0
1609059656263995856,1607,1609059656263616038,0.0008363985152470832,-0.0019285076736075268,0.00038110595865958885,0.0,0.0,0.0,1.0
1609059656310097795,1608,1609059656309673977,0.0009919228993204854,-0.0025987196583194816,0.0004616227473910328,0.0,0.0,0.0,1.0
1609059656362946651,1609,1609059656362501097,0.0012015248933039402,-0.003257857435809086,0.0002745117335081204,0.0,0.0,0.0,1.0
1609059656411072590,1610,1609059656410673094,0.0016369928165183012,-0.0038095158314312982,0.0004365145225264655,0.0,0.0,0.0,1.0
1609059656461538445,1611,1609059656461059046,0.0015469179275520162,-0.0039765479041697915,0.0004981643398487279,0.0,0.0,0.0,1.0
1609059656512024764,1612,1609059656511692954,0.0017647269009763988,-0.00395890000418575,0.0007137240515646681,0.0,0.0,0.0,1.0
1609059656561790072,1613,1609059656561432076,0.001703596845800348,-0.004102982723257043,0.0007778943278466954,0.0,0.0,0.0,1.0
1609059656613642758,1614,1609059656613110972,0.0018340973485528878,-0.004341096244242948,0.0009105960976754091,0.0,0.0,0.0,1.0
1609059656661845568,1615,1609059656661500884,0.0021838063646164585,-0.004222275711498469,0.0015756567468514504,0.0,0.0,0.0,1.0
1609059656711753700,1616,1609059656711073113,0.0020080886374671536,-0.0042748217750308015,0.002141950252759983,0.0,0.0,0.0,1.0
1609059656763499594,1617,1609059656763162089,0.002357255858591145,-0.003815548520321954,0.0035715034367456155,0.0,0.0,0.0,1.0
1609059656810770605,1618,1609059656810388995,0.0034548442196928875,-0.0033234151892855834,0.006834970000880958,0.0,0.0,0.0,1.0
1609059656862334919,1619,1609059656861833048,0.004784402709738345,-0.003000033821532355,0.011775563011024559,0.0,0.0,0.0,1.0
1609059656910826855,1620,1609059656910278035,0.0062032602468740095,-0.0013467943057747789,0.03138346385273394,0.0,0.0,0.0,1.0
1609059656961065165,1621,1609059656960672093,0.0076308133749769524,6.742842267470905e-05,0.04661836018943788,0.0,0.0,0.0,1.0
1609059657012738355,1622,1609059657012189103,0.00901514913932644,0.0017254687050822781,0.06475114556906547,0.0,0.0,0.0,1.0
1609059657062177883,1623,1609059657061730099,0.010865293736891601,0.0031966722660072833,0.08605770911478317,0.0,0.0,0.0,1.0
1609059657119678095,1624,1609059657119433117,0.015034285165569372,0.0064098064859159365,0.13977105904590204,0.0,0.0,0.0,1.0
1609059657168202668,1625,1609059657167930079,0.01695462574798512,0.008411652146222082,0.17153242189480977,0.0,0.0,0.0,1.0
1609059657217663337,1626,1609059657217385006,0.020012492852053754,0.010187592689529623,0.20677533753185529,0.0,0.0,0.0,1.0
1609059657270544201,1627,1609059657270077897,0.02217218266600085,0.011543998226677843,0.24538428591996464,0.0,0.0,0.0,1.0
1609059657319372263,1628,1609059657318799925,0.024288111877488916,0.013712253850076905,0.2854315059005046,0.0,0.0,0.0,1.0
1609059657372303423,1629,1609059657371524048,0.02959909779521297,0.016675141989246356,0.3777981069201317,0.0,0.0,0.0,1.0
1609059657419368419,1630,1609059657418588114,0.031776542576164246,0.01660100365691619,0.4234127688752807,0.0,0.0,0.0,1.0
1609059657470399574,1631,1609059657468891097,0.03435002392431841,0.018147737774405925,0.47311642284300603,0.0,0.0,0.0,1.0
1609059657517022666,1632,1609059657516695929,0.03544570740212194,0.018870169762251976,0.527010083155119,0.0,0.0,0.0,1.0
1609059657572130482,1633,1609059657571406079,0.03721468439606568,0.018549885791859566,0.5803312979078896,0.0,0.0,0.0,1.0
1609059657619528635,1634,1609059657619152022,0.03983410103911922,0.018318684172083266,0.6939968027518866,0.0,0.0,0.0,1.0
1609059657669315815,1635,1609059657668961001,0.041600713377548004,0.017592990035854683,0.7548892118046062,0.0,0.0,0.0,1.0
1609059657712304264,1636,1609059657711796952,0.043671982791408936,0.01621985848811036,0.8138114497908333,0.0,0.0,0.0,1.0
1609059657766405516,1637,1609059657765041066,0.04475166998550506,0.01544765783683033,0.879759343065686,0.0,0.0,0.0,1.0
1609059657812910353,1638,1609059657812216950,0.04615348923078599,0.014307316929663472,0.9393335988363418,0.0,0.0,0.0,1.0
1609059657870721241,1639,1609059657870021058,0.04789211387027592,0.012672843759336416,1.006901059502738,0.0,0.0,0.0,1.0
1609059657918823559,1640,1609059657918132020,0.05012675476320183,0.009786657231916962,1.133680093918148,0.0,0.0,0.0,1.0
1609059657968976378,1641,1609059657968609047,0.05067232426377544,0.006989223469240358,1.2002363133198983,0.0,0.0,0.0,1.0
1609059658017018702,1642,1609059658016653014,0.05223002046028924,0.004702819305013151,1.2654316674760384,0.0,0.0,0.0,1.0
1609059658069868834,1643,1609059658069469882,0.05361249150118752,0.000983578166831478,1.3297706813661598,0.0,0.0,0.0,1.0
1609059658119248969,1644,1609059658118728114,0.054675533567497325,-0.0014506524286339584,1.392914270406557,0.0,0.0,0.0,1.0
1609059658161900902,1645,1609059658161442948,0.05606585627287686,-0.004797917747527691,1.4568701887131272,0.0,0.0,0.0,1.0
1609059658212751239,1646,1609059658212151003,0.05899939566005585,-0.011478633963093898,1.559121123606273,0.0,0.0,0.0,1.0
1609059658263479566,1647,1609059658262937975,0.060710714749262706,-0.015449421102534444,1.6043400446412193,0.0,0.0,0.0,1.0
1609059658312100886,1648,1609059658311723900,0.062083948930357735,-0.01832545773523009,1.642889276709269,0.0,0.0,0.0,1.0
1609059658361425643,1649,1609059658360968066,0.06390948424690279,-0.021568744966081965,1.6781096395935062,0.0,0.0,0.0,1.0
1609059658413010095,1650,1609059658412733031,0.06542660303738401,-0.025109154360198005,1.707237094101668,0.0,0.0,0.0,1.0
1609059658463541561,1651,1609059658462712002,0.0688253134531891,-0.03204993352214558,1.7516055324701103,0.0,0.0,0.0,1.0
1609059658511363558,1652,1609059658510883999,0.07095828088493761,-0.035264628513029805,1.7670586154405896,0.0,0.0,0.0,1.0
1609059658563827298,1653,1609059658563214970,0.0718022012083317,-0.03885364488018084,1.7801540740889035,0.0,0.0,0.0,1.0
1609059658611428293,1654,1609059658610691023,0.07293532438141881,-0.042177251085796286,1.7904442631915582,0.0,0.0,0.0,1.0
1609059658666915138,1655,1609059658666602088,0.07419523798630578,-0.045544759414735125,1.798314865219412,0.0,0.0,0.0,1.0
1609059658719551280,1656,1609059658719102097,0.0773280291396432,-0.05149853586741315,1.8083480073558071,0.0,0.0,0.0,1.0
1609059658771411544,1657,1609059658770991993,0.07932263199128187,-0.05426625061970114,1.8124497271721243,0.0,0.0,0.0,1.0
1609059658817408218,1658,1609059658816936923,0.08084036570339848,-0.05729914665045044,1.8162201588604425,0.0,0.0,0.0,1.0
1609059658866770842,1659,1609059658866413069,0.08192563122688412,-0.059645176138090505,1.8205663115084398,0.0,0.0,0.0,1.0
1609059658919175313,1660,1609059658918862057,0.08237111252877583,-0.06261117515702708,1.8261035054225232,0.0,0.0,0.0,1.0
1609059658969514333,1661,1609059658969150019,0.08394385273832938,-0.0688426954263548,1.8406063154812866,0.0,0.0,0.0,1.0
1609059659017801395,1662,1609059659017477942,0.084485952523778,-0.07117199481566772,1.8495812264312175,0.0,0.0,0.0,1.0
1609059659061317764,1663,1609059659060991955,0.08507884876658522,-0.07322444354699442,1.8611717026272565,0.0,0.0,0.0,1.0
1609059659117968280,1664,1609059659117699099,0.08510606525623032,-0.07565041131695338,1.8743038631545197,0.0,0.0,0.0,1.0
1609059659170689762,1665,1609059659170153094,0.08615971163611746,-0.07733850340874326,1.8881405454514653,0.0,0.0,0.0,1.0
1609059659222489700,1666,1609059659222061110,0.08390151432020332,-0.08181013557064531,1.9235337800993957,0.0,0.0,0.0,1.0
1609059659269727942,1667,1609059659269287062,0.08240730228385829,-0.08367614538477497,1.9438626377940835,0.0,0.0,0.0,1.0
1609059659317781351,1668,1609059659317410899,0.08023098292557052,-0.08581293610776441,1.9658513141263079,0.0,0.0,0.0,1.0
1609059659368457803,1669,1609059659368162108,0.07814656025770716,-0.08710710817416967,1.9909697380863225,0.0,0.0,0.0,1.0
1609059659420696856,1670,1609059659419976903,0.07626424867821413,-0.0884342506343323,2.0162858326732174,0.0,0.0,0.0,1.0
1609059659471662418,1671,1609059659470663977,0.06958076803330115,-0.09150375869373661,2.0718835456313087,0.0,0.0,0.0,1.0
1609059659519591612,1672,1609059659518475962,0.06472877124165421,-0.09351602714230012,2.1007793813917246,0.0,0.0,0.0,1.0
1609059659567495678,1673,1609059659567202998,0.06058016750763784,-0.09435541521148494,2.1314022903001604,0.0,0.0,0.0,1.0
1609059659617059830,1674,1609059659616642905,0.05671535662237304,-0.09563653293014696,2.1613923523392806,0.0,0.0,0.0,1.0
1609059659670860564,1675,1609059659670530987,0.05211718367062801,-0.09800410522603542,2.1909394749753393,0.0,0.0,0.0,1.0
1609059659719435054,1676,1609059659719023896,0.04641071483553816,-0.10059426141106798,2.2208827325484517,0.0,0.0,0.0,1.0
1609059659770858848,1677,1609059659770456028,0.034954229309519746,-0.10592311579571145,2.2764959749372373,0.0,0.0,0.0,1.0
1609059659817053673,1678,1609059659816714955,0.029774241608318874,-0.10875713881863547,2.2964766689631304,0.0,0.0,0.0,1.0
1609059659869083339,1679,1609059659868567896,0.022851152433300825,-0.11228966611066582,2.3135829446219294,0.0,0.0,0.0,1.0
1609059659919884852,1680,1609059659918898058,0.01687673815667523,-0.11501100256024088,2.326921418688702,0.0,0.0,0.0,1.0
1609059659970655511,1681,1609059659969722939,0.01108903201208733,-0.11746806755295225,2.3370127821806044,0.0,0.0,0.0,1.0
