%time,field.header.seq,field.header.stamp,field.pose.position.x,field.pose.position.y,field.pose.position.z,field.pose.orientation.x,field.pose.orientation.y,field.pose.orientation.z,field.pose.orientation.w
1623490931702013376,4373,1623490931701215076,-2.321320835108054e-06,0.000331885941704968,0.00012993056669330372,0.0,0.0,0.0,1.0
1623490931754301415,4374,1623490931753495025,-1.258396355297009e-05,0.0002448769764669123,0.00015546039823988167,0.0,0.0,0.0,1.0
1623490931799941917,4375,1623490931799434947,8.496587270201417e-06,0.0003563268763855376,0.00011186358594983403,0.0,0.0,0.0,1.0
1623490931851533376,4376,1623490931850657033,-0.00012347441361271194,0.00035486001536355616,0.0001228905948593706,0.0,0.0,0.0,1.0
1623490931902967159,4377,1623490931902246999,-4.5272768147697207e-05,0.0002530498669557346,0.00019927132913011292,0.0,0.0,0.0,1.0
1623490931959133034,4378,1623490931958389091,-3.552084444891079e-05,0.0002795787918330461,0.0001823933024240887,0.0,0.0,0.0,1.0
1623490932008674663,4379,1623490932008447933,-4.657945987673884e-05,0.00026732235301096807,0.00019918927768713957,0.0,0.0,0.0,1.0
1623490932059790719,4380,1623490932059510993,-2.457014943502145e-05,0.00031032583763135335,0.0001633148071888968,0.0,0.0,0.0,1.0
1623490932110863841,4381,1623490932110591936,1.6758350056989002e-05,0.0002699252421507481,0.00011187745966623197,0.0,0.0,0.0,1.0
1623490932160361932,4382,1623490932160160112,-0.00012774124797942932,0.00027632454919057636,0.00013907348966313293,0.0,0.0,0.0,1.0
1623490932209978445,4383,1623490932209499883,-2.8103904696763493e-05,0.0002705129375044635,0.00017340082120398392,0.0,0.0,0.0,1.0
1623490932253890551,4384,1623490932253377008,7.781444992360775e-06,0.00035444142065443884,0.00011309339942755514,0.0,0.0,0.0,1.0
1623490932302989420,4385,1623490932302384901,-0.00012477431755542057,0.00032922374168720125,0.00012804552836342964,0.0,0.0,0.0,1.0
1623490932363475709,4386,1623490932362875986,-1.745171152833791e-05,0.00035741257750032673,0.00014735058729087314,0.0,0.0,0.0,1.0
1623490932410909323,4387,1623490932410342979,7.462494295396027e-06,0.00024208517083934566,0.00012830151616327612,0.0,0.0,0.0,1.0
1623490932454762010,4388,1623490932454525995,-9.084491148314555e-05,0.0002876192556868773,8.692594689563293e-05,0.0,0.0,0.0,1.0
1623490932501546606,4389,1623490932501246976,-6.0276998510744306e-05,0.00023976778618362005,0.00022161998613512424,0.0,0.0,0.0,1.0
1623490932552587280,4390,1623490932552341985,-4.288518243811268e-05,0.0002445213145847447,0.0001971140882019995,0.0,0.0,0.0,1.0
1623490932610629095,4391,1623490932610336112,-6.331244571811112e-05,0.00017037530653851718,0.00023491079473103582,0.0,0.0,0.0,1.0
1623490932655565057,4392,1623490932654784011,-4.366511393527617e-05,0.0002449299466888988,0.0001981313034562504,0.0,0.0,0.0,1.0
1623490932701669979,4393,1623490932701134967,5.2663312999357e-06,0.0004394150603275193,0.00010537705291113753,0.0,0.0,0.0,1.0
1623490932758944588,4394,1623490932758282947,5.839929599460447e-05,0.00037751965112420294,4.055653007384308e-05,0.0,0.0,0.0,1.0
1623490932801406890,4395,1623490932800967025,-9.295581912738271e-05,0.0002796177498112229,9.087631908499816e-05,0.0,0.0,0.0,1.0
1623490932851136409,4396,1623490932850718069,-0.00012707774931186577,0.0003375975453536739,0.00013010761639264956,0.0,0.0,0.0,1.0
1623490932902734215,4397,1623490932902152109,-3.545882077560236e-05,0.0003491525204708523,0.0001731621360008262,0.0,0.0,0.0,1.0
1623490932952985582,4398,1623490932952498006,-0.00016351452495655394,0.00044563336280134536,-4.4383227972844e-06,0.0,0.0,0.0,1.0
1623490933001056541,4399,1623490933000640916,-7.782625743857352e-07,0.00044775428341381485,0.00011258072682096554,0.0,0.0,0.0,1.0
1623490933053768520,4400,1623490933053201961,-3.853473776871397e-05,0.0003529572140905657,6.509769328033599e-06,0.0,0.0,0.0,1.0
1623490933103010150,4401,1623490933102413940,1.2892404811282177e-05,0.00031251399343545927,0.00011158712830905415,0.0,0.0,0.0,1.0
1623490933152170422,4402,1623490933151620912,5.289690966492344e-05,0.0003369155879227037,0.0002238249887724919,0.0,0.0,0.0,1.0
1623490933202864070,4403,1623490933202264118,-2.2735251832273207e-05,0.00033335437410642044,-1.2607521540530797e-05,0.0,0.0,0.0,1.0
1623490933255819038,4404,1623490933255003023,-6.731099460921541e-05,0.0002886064751237427,5.448165655508319e-05,0.0,0.0,0.0,1.0
1623490933301900746,4405,1623490933301667976,9.776460751709237e-05,0.0002565144086474902,0.0001727863853275835,0.0,0.0,0.0,1.0
1623490933350853228,4406,1623490933350637006,-7.307013515855942e-05,0.0003486557169480875,5.4495699394863095e-05,0.0,0.0,0.0,1.0
1623490933400763465,4407,1623490933400500106,4.35263928011409e-07,0.00033662615055618517,0.00012552236205465306,0.0,0.0,0.0,1.0
1623490933452492929,4408,1623490933452188062,-9.965558911062544e-05,0.00023917972646358976,0.00010539185081626101,0.0,0.0,0.0,1.0
1623490933503101709,4409,1623490933502368974,-0.00010433935813125572,0.0002657584878988928,0.0001083290903736156,0.0,0.0,0.0,1.0
1623490933552447819,4410,1623490933551919031,-5.425145968729339e-05,0.00034297210038403136,0.00019977900646495073,0.0,0.0,0.0,1.0
1623490933601418035,4411,1623490933600868034,-0.00012266534372429305,0.00019736183196528145,0.00014248437875608033,0.0,0.0,0.0,1.0
1623490933658402957,4412,1623490933657935905,-0.00013171718046578462,0.0003023962979114003,0.00014110553068746867,0.0,0.0,0.0,1.0
1623490933712416186,4413,1623490933711781072,-0.00019976850330749585,0.00022706240508796327,7.407446082652314e-05,0.0,0.0,0.0,1.0
1623490933761835259,4414,1623490933761203098,-0.00012926754448017164,0.0002822442222623067,0.0001403910698911659,0.0,0.0,0.0,1.0
1623490933809781365,4415,1623490933809126901,-4.934381468046922e-05,0.0002832393387279808,0.00020089259403022197,0.0,0.0,0.0,1.0
1623490933860179786,4416,1623490933859535026,1.6995742271319614e-05,0.00024910821093726554,0.00011428812712921399,0.0,0.0,0.0,1.0
1623490933899211795,4417,1623490933898985910,7.33162173673918e-05,0.00032946302565051155,0.00019676677133873,0.0,0.0,0.0,1.0
1623490933952566846,4418,1623490933952299880,-6.722021680616308e-06,0.0002466622389647455,0.00014717662987351332,0.0,0.0,0.0,1.0
1623490934002455505,4419,1623490934002111005,-0.00012033959183099796,0.00034499685273203795,0.00011988268911977684,0.0,0.0,0.0,1.0
1623490934052754625,4420,1623490934052454996,-6.795862691433285e-05,0.00027153974031079997,5.7614498331304276e-05,0.0,0.0,0.0,1.0
1623490934102036303,4421,1623490934101348924,6.194338993736892e-06,0.0003541497193282339,0.00011531100309980502,0.0,0.0,0.0,1.0
1623490934153213160,4422,1623490934152679967,-4.321656660977169e-06,0.00034131130109926744,0.00013143822079797474,0.0,0.0,0.0,1.0
1623490934200531310,4423,1623490934200165081,-0.00011424884974076122,0.0002563104077353273,0.0001231779747854489,0.0,0.0,0.0,1.0
1623490934259361266,4424,1623490934259028959,1.526395794826385e-05,0.0003153055799884896,0.00010796377265620549,0.0,0.0,0.0,1.0
1623490934299723657,4425,1623490934299478101,-0.0001258229497125285,0.00022424863277592522,0.00014328545722008812,0.0,0.0,0.0,1.0
1623490934352757103,4426,1623490934352540063,-0.00013078489564577467,0.00030352213673268125,0.00013967739585751815,0.0,0.0,0.0,1.0
1623490934400582374,4427,1623490934400126028,-6.504670818685554e-05,0.00025160647442135087,5.6236574529577865e-05,0.0,0.0,0.0,1.0
1623490934452907257,4428,1623490934452615070,1.7727262957123457e-05,0.0002678755574834213,0.00011081649687838535,0.0,0.0,0.0,1.0
1623490934502686725,4429,1623490934502270030,2.382840784775908e-05,0.00042354316508408374,8.197581025370937e-05,0.0,0.0,0.0,1.0
1623490934578773574,4430,1623490934578264045,1.007697596833168e-05,0.00034787455206242157,0.00011080464522450484,0.0,0.0,0.0,1.0
1623490934630023094,4431,1623490934629478979,-7.067851402098313e-05,0.00034507561395002995,5.1682379655915156e-05,0.0,0.0,0.0,1.0
1623490934670717610,4432,1623490934669842052,8.331000344696804e-06,0.0003536364114324897,0.00011244462580606296,0.0,0.0,0.0,1.0
1623490934717344973,4433,1623490934717031049,-8.770916610956192e-05,0.00028132126396940293,0.0002538249468884146,0.0,0.0,0.0,1.0
1623490934760031239,4434,1623490934759640979,1.296607206313638e-05,0.0002792122071468839,0.00011586377649308588,0.0,0.0,0.0,1.0
1623490934814949015,4435,1623490934814537096,7.73898352690594e-05,0.0003529406570805804,0.00018808699593364508,0.0,0.0,0.0,1.0
1623490934855411670,4436,1623490934855100917,1.466248181714036e-05,0.000294473447411292,0.00011152820497528637,0.0,0.0,0.0,1.0
1623490934900922518,4437,1623490934900488901,2.908390433731256e-05,0.0003548781010067614,8.378560218602615e-05,0.0,0.0,0.0,1.0
1623490934952459937,4438,1623490934951863098,-0.0002141475074495247,0.00041588547821902466,6.899652240832665e-05,0.0,0.0,0.0,1.0
1623490935002272694,4439,1623490935000908899,-7.764559131828719e-05,0.0003203913045126683,6.449376777339921e-05,0.0,0.0,0.0,1.0
1623490935052952611,4440,1623490935052327919,0.00012271631521798554,0.0004007178015399404,0.00011956881623120807,0.0,0.0,0.0,1.0
1623490935103243545,4441,1623490935102664995,8.716662978258682e-05,0.00036494878418125154,0.00017308392888537583,0.0,0.0,0.0,1.0
1623490935152770466,4442,1623490935152536916,1.9989744032500312e-05,0.00035218476011777966,9.66268262843073e-05,0.0,0.0,0.0,1.0
1623490935200621949,4443,1623490935200387048,-4.95716972181981e-06,0.00035100811192023684,0.0001310361539594851,0.0,0.0,0.0,1.0
1623490935252920204,4444,1623490935252657938,7.213626076918445e-06,0.00039900675096760096,0.0001080148559680083,0.0,0.0,0.0,1.0
1623490935301961999,4445,1623490935301684904,2.395339834038168e-06,0.0004255436017501779,0.00011114259270783577,0.0,0.0,0.0,1.0
1623490935351662756,4446,1623490935351081895,6.988757377257571e-06,0.00035289640254632104,0.00011438493920223891,0.0,0.0,0.0,1.0
1623490935409815797,4447,1623490935409231948,1.0877936119868536e-05,0.00026301266291284264,0.00012086059756910572,0.0,0.0,0.0,1.0
1623490935456644152,4448,1623490935455989885,-7.27939927855914e-05,0.00035134771849243407,5.3762654090405704e-05,0.0,0.0,0.0,1.0
1623490935503506177,4449,1623490935502876091,-2.9481679575837916e-05,0.0002723386928664695,0.00017505264310813118,0.0,0.0,0.0,1.0
1623490935552915996,4450,1623490935552192020,-6.38925630482845e-05,0.00026285891226507374,5.3172562616055075e-05,0.0,0.0,0.0,1.0
1623490935602226931,4451,1623490935601547050,-4.783526856044773e-05,0.0003489278409460894,1.9809957990446492e-05,0.0,0.0,0.0,1.0
1623490935653126145,4452,1623490935652854967,5.054460848441522e-05,0.0003824313268978585,5.069608560859251e-05,0.0,0.0,0.0,1.0
1623490935708842126,4453,1623490935708577919,-1.2569491900649155e-06,0.0004383023576792766,0.00011448044339346097,0.0,0.0,0.0,1.0
1623490935753731269,4454,1623490935753455924,-0.00013968882922199555,0.0004377741325924944,0.0001342556857935051,0.0,0.0,0.0,1.0
1623490935799190275,4455,1623490935798768091,-2.092014256049879e-05,0.00040119615562161925,0.00014635765469250828,0.0,0.0,0.0,1.0
1623490935852369910,4456,1623490935851760911,-1.05189396890637e-05,0.00035525373198197485,0.00013811494327597984,0.0,0.0,0.0,1.0
1623490935953076995,4457,1623490935952678966,9.252551080862759e-06,0.0003544425691188735,0.00011107327052428673,0.0,0.0,0.0,1.0
1623490936000356759,4458,1623490935999810981,-8.006254552128667e-05,0.0004209377156030314,5.459543887553764e-05,0.0,0.0,0.0,1.0
1623490936052852041,4459,1623490936052296924,-7.116800838957715e-05,0.0003441493942091256,5.247626048543452e-05,0.0,0.0,0.0,1.0
1623490936102103620,4460,1623490936101390886,7.69596545069362e-06,0.00036133575304120313,0.00011230448571808438,0.0,0.0,0.0,1.0
1623490936153292822,4461,1623490936152766036,-3.626948409873876e-05,0.0003573706941324417,0.0001731949493617435,0.0,0.0,0.0,1.0
1623490936201647837,4462,1623490936201201963,-6.538677916978486e-05,0.00026288245192063187,5.5221177788666864e-05,0.0,0.0,0.0,1.0
1623490936251856367,4463,1623490936251380014,9.774924978955823e-05,0.00026368575879587297,0.0001718647153126085,0.0,0.0,0.0,1.0
1623490936300756024,4464,1623490936300359058,2.2901833062860533e-05,0.00035508122107330564,9.224748963987395e-05,0.0,0.0,0.0,1.0
1623490936351955975,4465,1623490936351713943,-1.0039018889074214e-05,0.0002868525057238003,0.00014644776923944391,0.0,0.0,0.0,1.0
1623490936402248254,4466,1623490936401742029,-4.1696584048622753e-05,0.0002178794857172761,0.00019898445175670076,0.0,0.0,0.0,1.0
1623490936453542733,4467,1623490936452949094,-2.5443567437832826e-05,0.00029655260300387454,0.00016632471266575521,0.0,0.0,0.0,1.0
1623490936500679225,4468,1623490936500109958,-4.6239802713898825e-05,0.0002607689875731012,0.00019958440566369973,0.0,0.0,0.0,1.0
1623490936552601886,4469,1623490936551852035,-9.088931369660713e-05,0.00023659668283926294,9.369438134143593e-05,0.0,0.0,0.0,1.0
1623490936601009987,4470,1623490936600069093,-8.868680129126005e-05,0.0003104479992543929,8.096161399606672e-05,0.0,0.0,0.0,1.0
1623490936655508869,4471,1623490936654882001,-0.0001337733815489628,0.0003479550285874211,0.00013793994055788517,0.0,0.0,0.0,1.0
1623490936702737155,4472,1623490936702057886,8.083548573267763e-05,0.0004534602015837663,0.00017014236622969747,0.0,0.0,0.0,1.0
1623490936752273835,4473,1623490936751565027,5.300319799061981e-06,0.00036556837324042135,0.0001150375590270869,0.0,0.0,0.0,1.0
1623490936802448057,4474,1623490936802005100,-7.218603855108086e-05,0.0003503384488112715,5.306054359976997e-05,0.0,0.0,0.0,1.0
1623490936851166850,4475,1623490936850631046,2.631314691825537e-05,0.00038273657082754653,0.00025430408931015336,0.0,0.0,0.0,1.0
1623490936903904115,4476,1623490936903372097,-0.00019187260295439046,0.00034122334557196154,4.8225048068673004e-05,0.0,0.0,0.0,1.0
1623490936952231937,4477,1623490936951642084,-7.801214314895333e-05,0.000290733807446486,0.00023927237096899034,0.0,0.0,0.0,1.0
1623490936999202856,4478,1623490936998599100,-8.074555125858751e-06,0.00035138802877554554,0.0001352667090657178,0.0,0.0,0.0,1.0
1623490937054072924,4479,1623490937053597974,9.803458851820324e-06,0.0003607724826224512,0.0001094847274103472,0.0,0.0,0.0,1.0
1623490937103235596,4480,1623490937102614927,-5.61120164093154e-05,0.00034894740804247704,0.00020154827843299472,0.0,0.0,0.0,1.0
1623490937154470305,4481,1623490937153785037,-3.852385134450742e-05,0.00038575696066800447,0.00017255897709844703,0.0,0.0,0.0,1.0
1623490937199837454,4482,1623490937199451017,6.343241011563805e-06,0.0003680769007132767,0.00011327576810060691,0.0,0.0,0.0,1.0
1623490937254073758,4483,1623490937253802108,2.544913991187059e-05,0.0003578689953656067,8.838332416871708e-05,0.0,0.0,0.0,1.0
1623490937301969927,4484,1623490937301727104,-5.0292968126086635e-05,0.0004442768589569823,0.00018102684800425095,0.0,0.0,0.0,1.0
1623490937351906187,4485,1623490937351299095,-7.423250735882903e-05,0.00039329828211975837,5.022339166060874e-05,0.0,0.0,0.0,1.0
1623490937403975041,4486,1623490937403394031,-1.795728871911706e-05,0.0003529642758621776,0.00014862954763117386,0.0,0.0,0.0,1.0
1623490937454544482,4487,1623490937453744935,-7.105751478775346e-05,0.0003397254921537751,5.290608309849176e-05,0.0,0.0,0.0,1.0
1623490937500248594,4488,1623490937499816942,-1.0336038940295111e-05,0.0003529116195295501,0.00013817168187557627,0.0,0.0,0.0,1.0
1623490937551277515,4489,1623490937550829935,1.1599850722632254e-05,0.0003553263604771928,0.00010773401296404472,0.0,0.0,0.0,1.0
1623490937602933364,4490,1623490937602490949,-4.122600807932031e-05,0.0003443323187184433,1.1338909835956201e-05,0.0,0.0,0.0,1.0
1623490937651983514,4491,1623490937651277112,-7.584461968690448e-05,0.00033593037562695827,5.997815219416225e-05,0.0,0.0,0.0,1.0
1623490937703730178,4492,1623490937703155088,-0.00015682529783589416,0.00039900977947127103,-7.49474899919278e-06,0.0,0.0,0.0,1.0
1623490937753828333,4493,1623490937753583002,-1.2187926358819823e-05,0.0003781734943686388,0.00013739375889798566,0.0,0.0,0.0,1.0
1623490937799666783,4494,1623490937799428987,5.370072881305532e-05,0.0003776731171001302,4.698791642709921e-05,0.0,0.0,0.0,1.0
1623490937850690309,4495,1623490937850458908,-6.717186488458537e-05,0.0004577016977691528,0.00020243884909376675,0.0,0.0,0.0,1.0
1623490937903369463,4496,1623490937902967977,-0.00010841867015187745,0.0003639221059756892,0.00010102614498208595,0.0,0.0,0.0,1.0
1623490937953112556,4497,1623490937952406930,-0.00019329834231029963,0.0004209999561908262,0.00021007297675623704,0.0,0.0,0.0,1.0
1623490938001099740,4498,1623490938000613975,6.59550664749986e-05,0.00046592300077463733,0.00018893652909213188,0.0,0.0,0.0,1.0
1623490938050890599,4499,1623490938050394105,8.532456786269904e-05,0.0004026764181617182,0.00017065387930870202,0.0,0.0,0.0,1.0
1623490938101074604,4500,1623490938100630092,9.087155603992869e-06,0.00033505606722883385,0.00011384882311205047,0.0,0.0,0.0,1.0
1623490938151007376,4501,1623490938150744962,-5.031027967561386e-06,0.00043951266502517683,0.00011950354988243816,0.0,0.0,0.0,1.0
1623490938206454499,4502,1623490938206213998,-0.00014280981167758,0.00041953632603508595,0.00014093849101470823,0.0,0.0,0.0,1.0
1623490938256549774,4503,1623490938256283092,-0.0001454755401937291,0.00044713745353419654,0.00014097072194374505,0.0,0.0,0.0,1.0
1623490938301468026,4504,1623490938301153945,-4.068455905326118e-05,0.00034960455764121434,0.00018027823593058656,0.0,0.0,0.0,1.0
1623490938351610057,4505,1623490938350626039,-2.638182650116505e-06,0.00045913978283351753,0.00011363800260966173,0.0,0.0,0.0,1.0
1623490938402568323,4506,1623490938402078914,7.890984920777555e-05,0.000467225743363997,0.00017097702789214964,0.0,0.0,0.0,1.0
1623490938453605295,4507,1623490938453208017,-2.475819655956002e-06,0.0004564138705518417,0.00011377337244056207,0.0,0.0,0.0,1.0
1623490938502116432,4508,1623490938501267957,-4.7152735760391806e-05,0.00034650875602437736,0.00018956673259395984,0.0,0.0,0.0,1.0
1623490938552075577,4509,1623490938550674962,-1.6407529074058402e-05,0.0003797411633286174,0.00014298164724380058,0.0,0.0,0.0,1.0
1623490938601095083,4510,1623490938600694942,-0.00012411574721227225,0.0004379102398388568,0.00011285418924700252,0.0,0.0,0.0,1.0
1623490938652015981,4511,1623490938651789951,-4.450731194083346e-05,0.00036580757671345054,0.00018339734690187015,0.0,0.0,0.0,1.0
1623490938707692993,4512,1623490938707432079,-5.397343329605064e-06,0.0003736415046660113,0.00012866531727695474,0.0,0.0,0.0,1.0
1623490938755656064,4513,1623490938755293893,4.076813866049633e-06,0.00040935756123872125,0.00011096140089961182,0.0,0.0,0.0,1.0
1623490938800904583,4514,1623490938799857902,-2.847159976226976e-06,0.0003534617568448084,0.00012781634824676757,0.0,0.0,0.0,1.0
1623490938853444672,4515,1623490938853131103,-8.060972913881415e-05,0.0004285787010758213,5.4342384572692026e-05,0.0,0.0,0.0,1.0
1623490938951835362,4516,1623490938951369094,-0.00014672816678285017,0.00040156200566343614,0.00031905919428965035,0.0,0.0,0.0,1.0
1623490939000166282,4517,1623490938999754953,2.631419829413062e-05,0.00046699479310063907,7.285099996323652e-05,0.0,0.0,0.0,1.0
1623490939053768217,4518,1623490939053333091,-7.269641059792775e-05,0.0003473384944072677,5.415569180655666e-05,0.0,0.0,0.0,1.0
1623490939112460186,4519,1623490939111814069,-2.6076200356328627e-05,0.0003498311888279204,0.00016018955061980478,0.0,0.0,0.0,1.0
1623490939160853194,4520,1623490939160256910,-8.279068447336613e-05,0.00046005144565697265,5.3200071391756865e-05,0.0,0.0,0.0,1.0
1623490939209189780,4521,1623490939208519983,-0.00010002075600823446,0.00045237879169235384,7.786729465664166e-05,0.0,0.0,0.0,1.0
1623490939252350505,4522,1623490939251888084,-7.45153195111925e-05,0.00035934416803229396,5.507505058943707e-05,0.0,0.0,0.0,1.0
1623490939301750929,4523,1623490939301142978,0.00014654089136456605,0.0003760902242220254,9.009282721450518e-05,0.0,0.0,0.0,1.0
1623490939361259615,4524,1623490939360787916,-3.7810194271514774e-05,0.0004487722937938088,0.0001632956906689742,0.0,0.0,0.0,1.0
1623490939412432088,4525,1623490939411745119,-1.3763159586233087e-05,0.00042813144773390377,0.00013298971814634797,0.0,0.0,0.0,1.0
1623490939462913162,4526,1623490939462374973,-4.875621925748419e-05,0.00045214247461444756,0.00017788280188568706,0.0,0.0,0.0,1.0
1623490939509557580,4527,1623490939509009885,-0.00010155318409488245,0.00040794276355882175,8.581250995831624e-05,0.0,0.0,0.0,1.0
1623490939563478770,4528,1623490939563226985,-1.8524065126257483e-06,0.00046544127951619885,0.00011173074543791017,0.0,0.0,0.0,1.0
1623490939610277265,4529,1623490939609948921,-1.248247599505703e-06,0.000469063488253596,0.00011042505024505544,0.0,0.0,0.0,1.0
1623490939655221537,4530,1623490939654794979,-3.0648936899524415e-06,0.0004667482337481488,0.00011322382093226224,0.0,0.0,0.0,1.0
1623490939715279092,4531,1623490939714922952,-1.8600302837512572e-05,0.0004633535094171748,-3.537348231219539e-05,0.0,0.0,0.0,1.0
1623490939761721485,4532,1623490939760985898,8.911976692616008e-06,0.00035552203917177394,0.00011139901308609979,0.0,0.0,0.0,1.0
1623490939813148616,4533,1623490939812531995,4.554182396532269e-06,0.0004197918092359032,0.00010893434902214949,0.0,0.0,0.0,1.0
1623490939858847960,4534,1623490939858212041,0.0001143054007570754,0.0003994566194478466,0.0001312835811333457,0.0,0.0,0.0,1.0
1623490939917270477,4535,1623490939916997957,9.734126365401607e-05,0.00046763925377035775,0.00014561449219030465,0.0,0.0,0.0,1.0
1623490939965120522,4536,1623490939964863109,4.618796697286598e-05,0.0004577144252380094,4.6782308004367223e-05,0.0,0.0,0.0,1.0
1623490940009755862,4537,1623490940009548950,-4.599646672431845e-07,0.00046773896178819996,0.00010951676039638869,0.0,0.0,0.0,1.0
1623490940060966843,4538,1623490940060736942,4.690108426075312e-06,0.0004298315833466404,0.00010742799351248777,0.0,0.0,0.0,1.0
1623490940109313768,4539,1623490940109061050,5.323342747942661e-06,0.0003744197309742958,0.00011384240971779036,0.0,0.0,0.0,1.0
1623490940160557431,4540,1623490940160024929,-7.278662360477028e-05,0.0003467806990329336,5.435288790067716e-05,0.0,0.0,0.0,1.0
1623490940211189991,4541,1623490940210701036,-0.00011500464120217657,0.00033284352116425,0.00011415482604348881,0.0,0.0,0.0,1.0
1623490940259148637,4542,1623490940258556890,5.4709844562239596e-05,0.0004627112982689141,3.44241785441568e-05,0.0,0.0,0.0,1.0
1623490940302588760,4543,1623490940302149105,-4.365394761407515e-05,0.00034923672421882657,0.00018440389422380576,0.0,0.0,0.0,1.0
1623490940359614231,4544,1623490940359030055,-0.00011919410644622985,0.00044892197206536366,0.00010464876786642208,0.0,0.0,0.0,1.0
1623490940420025972,4545,1623490940419411945,-0.00012504346386776888,0.0003615367965039695,0.00012416738919540649,0.0,0.0,0.0,1.0
1623490940460209964,4546,1623490940459580945,-5.652449544868432e-05,0.0004417985932150259,0.00018990920726480454,0.0,0.0,0.0,1.0
1623490940501448505,4547,1623490940500897932,9.186873512589955e-06,0.0003546078377212325,0.00011114172712467507,0.0,0.0,0.0,1.0
1623490940551929037,4548,1623490940551074075,-3.4443053209542995e-06,0.0004705747519437864,0.00011324181377148079,0.0,0.0,0.0,1.0
1623490940600657101,4549,1623490940600081968,8.723068890503782e-05,0.00036757762848083075,0.00017265039765845813,0.0,0.0,0.0,1.0
1623490940653396373,4550,1623490940652982997,-4.1678724528537714e-05,0.00035952639098013606,0.00018033906541603528,0.0,0.0,0.0,1.0
1623490940711873354,4551,1623490940711632061,8.022167548915604e-06,0.00039820911888455157,0.00010700949606956556,0.0,0.0,0.0,1.0
1623490940758691876,4552,1623490940758333015,-1.263371586901485e-06,0.00046065071899192844,0.00011155163960552272,0.0,0.0,0.0,1.0
1623490940809919682,4553,1623490940809720087,6.0572770053113345e-06,0.00037549006754034053,0.00011269394470048155,0.0,0.0,0.0,1.0
1623490940857926819,4554,1623490940857729005,-2.9338104923226638e-06,0.0004635904158476478,0.00011345891179104228,0.0,0.0,0.0,1.0
1623490940901575882,4555,1623490940901289987,-0.00012843761078329408,0.00034930967626678466,0.0001304352425748334,0.0,0.0,0.0,1.0
1623490940960577926,4556,1623490940960273075,-1.720360614854144e-06,0.000462564105077945,0.00011192762514866672,0.0,0.0,0.0,1.0
1623490941011454469,4557,1623490941010783958,-5.572628651862033e-07,0.00045871453937706974,0.00011083658347388337,0.0,0.0,0.0,1.0
1623490941059051774,4558,1623490941058572101,8.262095434474759e-07,0.00045676506999825506,0.00010919318497570885,0.0,0.0,0.0,1.0
1623490941112945806,4559,1623490941112166929,-7.25489358046616e-05,0.00037041545886040694,5.091965540771071e-05,0.0,0.0,0.0,1.0
1623490941162268200,4560,1623490941161737012,-4.883716337644728e-05,0.00046634571242520906,0.0001761269773510321,0.0,0.0,0.0,1.0
1623490941212369954,4561,1623490941211413908,5.448407841868175e-05,0.0003763967657732792,4.60800845871745e-05,0.0,0.0,0.0,1.0
1623490941252208656,4562,1623490941251646089,-8.034537972889666e-05,0.0004479533065477881,5.1432669451401125e-05,0.0,0.0,0.0,1.0
1623490941302654258,4563,1623490941301780986,-6.16220436313597e-05,0.0004525406801576537,2.5120666357736354e-05,0.0,0.0,0.0,1.0
1623490941353677192,4564,1623490941353242921,2.517308757887804e-06,0.00045018602270374686,0.00010773592688195777,0.0,0.0,0.0,1.0
1623490941411947295,4565,1623490941411476898,-0.0001031898793826258,0.0004232645944739488,8.604582620819201e-05,0.0,0.0,0.0,1.0
1623490941458912985,4566,1623490941458325910,-0.00013525505619327305,0.00035096890167096717,0.00013957826248400806,0.0,0.0,0.0,1.0
1623490941509151960,4567,1623490941508542108,-0.0001263793978978356,0.0004484115808054412,0.00011458206092385126,0.0,0.0,0.0,1.0
1623490941551525589,4568,1623490941550984907,-1.2883326007795404e-05,0.00035146826314758073,0.0001418591126665092,0.0,0.0,0.0,1.0
1623490941600817414,4569,1623490941600273895,5.205113393458305e-05,0.00035954611587385443,0.00022201142247979533,0.0,0.0,0.0,1.0
1623490941660849151,4570,1623490941660517024,-0.00011384156368876575,0.00034222613362544507,0.0001113243975083833,0.0,0.0,0.0,1.0
1623490941709698700,4571,1623490941709457921,9.902725241772714e-05,0.0002679033152617194,0.00016955544361962893,0.0,0.0,0.0,1.0
1623490941769263234,4572,1623490941769026088,-0.00010605251122797199,0.00023978400781743403,0.00011409608602974686,0.0,0.0,0.0,1.0
1623490941811501040,4573,1623490941811198997,-5.396436563387397e-06,0.000355930662180981,0.00013099222273638134,0.0,0.0,0.0,1.0
1623490941862156190,4574,1623490941861568975,-0.00013161170318198856,0.000335275632437515,0.00013663848102396514,0.0,0.0,0.0,1.0
1623490941916097615,4575,1623490941915648031,9.178130994769162e-06,0.0003466508957217229,0.00011219970571829663,0.0,0.0,0.0,1.0
1623490941961423702,4576,1623490941960875082,-8.053568944887957e-05,0.00041845098871817754,5.557199046535288e-05,0.0,0.0,0.0,1.0
1623490942016745557,4577,1623490942015853929,-0.00011195128058716364,0.00044012308239871345,0.00026623710490270014,0.0,0.0,0.0,1.0
1623490942064679499,4578,1623490942064200925,-6.07166032295936e-05,0.0003514992492910096,3.7159267314734734e-05,0.0,0.0,0.0,1.0
1623490942114174096,4579,1623490942113755035,-2.222226521553239e-05,0.00029004431155499333,0.0001627570866915562,0.0,0.0,0.0,1.0
1623490942208285609,4581,1623490942207841920,-0.00013714602891923278,0.0003467762005584518,0.0001427259365698319,0.0,0.0,0.0,1.0
1623490942260967329,4582,1623490942260319042,-3.899073954016785e-05,0.0003337292109790724,0.00018003933571009156,0.0,0.0,0.0,1.0
1623490942314486721,4583,1623490942313899087,-3.693984172059572e-05,0.00035696509405624965,0.00017416874273123994,0.0,0.0,0.0,1.0
1623490942361337006,4584,1623490942360666084,-8.974020374807878e-06,0.00038265797388703504,0.00013239123241248762,0.0,0.0,0.0,1.0
1623490942410812569,4585,1623490942410028028,-3.50530531250115e-05,0.0004103284488792269,0.0001645632326230384,0.0,0.0,0.0,1.0
1623490942458883412,4586,1623490942458339023,-0.00014978313788560627,0.0003163339354159689,0.00016407999148526642,0.0,0.0,0.0,1.0
1623490942512895171,4587,1623490942512420940,3.709920929395594e-05,0.000367633490782282,0.00024147895550896692,0.0,0.0,0.0,1.0
1623490942562618084,4588,1623490942561929988,-0.00019587889460126462,0.00022834044500541495,6.856557416767828e-05,0.0,0.0,0.0,1.0
1623490942610652293,4589,1623490942610051918,-4.64156314592401e-05,0.0003268582979671919,2.0761797188129094e-05,0.0,0.0,0.0,1.0
1623490942652106442,4590,1623490942651665019,-6.543724157381803e-05,0.00034415056097714114,0.00021498347312132182,0.0,0.0,0.0,1.0
1623490942710171282,4591,1623490942709640073,-0.00016276593123620842,0.0003383320540706336,8.638549878980939e-06,0.0,0.0,0.0,1.0
1623490942761862915,4592,1623490942760931062,0.00014398745656762912,0.00037878076454944676,9.324524364018316e-05,0.0,0.0,0.0,1.0
1623490942810537087,4593,1623490942809901046,-4.16514658354572e-05,0.00035625527277716174,0.00018073163908383094,0.0,0.0,0.0,1.0
1623490942861819112,4594,1623490942861263084,-1.1484016567919753e-05,0.00031129561807574646,0.0001452186497701291,0.0,0.0,0.0,1.0
1623490942909864683,4595,1623490942909431982,-0.00013570177452493226,0.0003408041094417058,0.00014152787040444537,0.0,0.0,0.0,1.0
1623490942959184362,4596,1623490942958629894,-3.4848961604438955e-05,0.0003768419404650558,0.00016868484787835314,0.0,0.0,0.0,1.0
1623490942999795501,4597,1623490942998842048,1.3233390973255155e-05,0.000302706287016008,0.00011240821677205304,0.0,0.0,0.0,1.0
1623490943053453009,4598,1623490943053104925,4.1701134705363074e-06,0.00043083714842850895,0.00010800981964109724,0.0,0.0,0.0,1.0
1623490943102416415,4599,1623490943102182912,7.928249033284374e-06,0.0003202231682735146,0.00011738999448596132,0.0,0.0,0.0,1.0
1623490943152650812,4600,1623490943152217912,-5.294985589898715e-05,0.00033673615348561725,0.00019881150721090535,0.0,0.0,0.0,1.0
1623490943201203282,4601,1623490943200643110,-0.00012897334727313137,0.0003373200804617227,0.00013274696239307104,0.0,0.0,0.0,1.0
1623490943254097028,4602,1623490943253588008,-4.586575096254819e-05,0.00025957270236176555,0.0001992280559264259,0.0,0.0,0.0,1.0
1623490943314945488,4603,1623490943314446973,-0.000110683543880441,0.0003404380637448412,0.00010722313849242937,0.0,0.0,0.0,1.0
1623490943357155816,4604,1623490943356677103,8.53786812058388e-05,0.00034358613368112856,0.000178347184970562,0.0,0.0,0.0,1.0
1623490943401740149,4605,1623490943401169109,8.816252830001758e-07,0.00046149113313731505,0.00010849587101091629,0.0,0.0,0.0,1.0
1623490943453972444,4606,1623490943453234958,8.374226808882668e-06,0.00036655132112173305,0.00011068756024457116,0.0,0.0,0.0,1.0
1623490943501905337,4607,1623490943501385021,7.655012950635864e-06,0.0003726397810623894,0.00011087476851656675,0.0,0.0,0.0,1.0
1623490943550219798,4608,1623490943549510049,0.00015887009340076474,0.0004715229592875403,0.00023099426434924908,0.0,0.0,0.0,1.0
1623490943602717760,4609,1623490943601924943,-8.225959095398139e-05,0.0004491086438065395,5.390921200643106e-05,0.0,0.0,0.0,1.0
1623490943652081328,4610,1623490943651358890,-5.734715841754223e-05,0.0003637808856638003,0.00020129434026472381,0.0,0.0,0.0,1.0
1623490943701686694,4611,1623490943701462078,-3.7569681353488704e-05,0.00041397207473892195,0.0001675398856733068,0.0,0.0,0.0,1.0
1623490943757335460,4612,1623490943757087993,-4.5250888433656655e-05,0.00045890974570284015,0.00017218005159236327,0.0,0.0,0.0,1.0
1623490943808882934,4613,1623490943808369922,-0.00013682345979759702,0.0003520720406413602,0.00014158684900422713,0.0,0.0,0.0,1.0
1623490943855440361,4614,1623490943854411888,-2.434749603708042e-06,0.00048253011073029484,0.00011028412004776555,0.0,0.0,0.0,1.0
1623490943910448514,4615,1623490943909641075,-3.460321522652521e-06,0.00046892401519471605,0.00011348078732709155,0.0,0.0,0.0,1.0
1623490943952653199,4616,1623490943952076959,-0.00013842914540873608,0.0004267040493459717,0.00013398113975426895,0.0,0.0,0.0,1.0
1623490944009860440,4617,1623490944009350109,-4.210453653286095e-05,0.0004172111142679569,0.00017334097445598218,0.0,0.0,0.0,1.0
1623490944060442238,4618,1623490944059944915,-1.9529936253093183e-05,0.0004578715795560129,0.0001369988440487191,0.0,0.0,0.0,1.0
1623490944112587370,4619,1623490944112153100,2.8688828024314716e-06,0.0003853249602343567,0.0001157791182961887,0.0,0.0,0.0,1.0
1623490944157963511,4620,1623490944157295989,-5.3050247515784577e-05,0.00034298635341656336,0.00019812773027894082,0.0,0.0,0.0,1.0
1623490944209908890,4621,1623490944209243106,-7.682104819650704e-05,0.00042336028184308816,4.982609053882925e-05,0.0,0.0,0.0,1.0
1623490944259391298,4622,1623490944258622932,-9.573283341524075e-05,0.0003462169165686646,8.59345361305941e-05,0.0,0.0,0.0,1.0
1623490944313089367,4623,1623490944312618064,1.1596556532822433e-05,0.00046558142958019744,9.324554115153205e-05,0.0,0.0,0.0,1.0
1623490944361370609,4624,1623490944360878992,-0.00013288039190229028,0.0003495962567967581,0.00013649801583426324,0.0,0.0,0.0,1.0
1623490944410072494,4625,1623490944409836101,-5.226398479862837e-05,0.0003555669445631793,0.00019539431656312445,0.0,0.0,0.0,1.0
1623490944458006149,4626,1623490944457741069,8.907962092052912e-05,0.00036242722319457243,0.0001707886662529745,0.0,0.0,0.0,1.0
1623490944509271198,4627,1623490944508919048,-5.61060767267918e-05,0.00044642309376285993,0.00018872678904813256,0.0,0.0,0.0,1.0
1623490944560882912,4628,1623490944560315895,-2.542802849347936e-05,0.0002769985541135611,0.0001688739446237264,0.0,0.0,0.0,1.0
1623490944611003014,4629,1623490944610535907,-5.668545759363042e-05,0.00039273747586321406,0.00019657931549943441,0.0,0.0,0.0,1.0
1623490944660639499,4630,1623490944659850883,-1.7591258028915036e-05,0.00034414721324083075,0.00031966286831419666,0.0,0.0,0.0,1.0
1623490944710508925,4631,1623490944709941911,-4.00845744934486e-05,0.00042577531542065117,0.00016944158102916163,0.0,0.0,0.0,1.0
1623490944755141759,4632,1623490944754509019,-3.993481345787586e-05,0.0003483374565576014,0.00017941531803700173,0.0,0.0,0.0,1.0
1623490944804238021,4633,1623490944803539085,-0.00012316980087234697,0.00023409319146594498,0.0001383481779200224,0.0,0.0,0.0,1.0
1623490944860966805,4634,1623490944860513973,2.5586366746210842e-05,0.0003593079703705371,0.00025838183001525294,0.0,0.0,0.0,1.0
1623490944901962885,4635,1623490944901486921,7.641354181942006e-05,0.00036143941645150335,0.0001883103479087822,0.0,0.0,0.0,1.0
1623490944951367697,4636,1623490944950933980,2.5161430130538065e-05,0.00035837991310927464,0.00025908731493728965,0.0,0.0,0.0,1.0
1623490945003957726,4637,1623490945003517913,-1.0278329909851891e-05,0.00036606242622383434,0.00013636371663494629,0.0,0.0,0.0,1.0
1623490945053480264,4638,1623490945052732038,-3.879216956192977e-05,0.00034914566799670865,0.00017774009655369127,0.0,0.0,0.0,1.0
1623490945102825280,4639,1623490945102045106,-0.00013408904419520695,0.0003388573936717876,0.00013956931211112078,0.0,0.0,0.0,1.0
1623490945152206536,4640,1623490945151579904,2.427968411211623e-06,0.0003546691199289853,0.00012041433826937009,0.0,0.0,0.0,1.0
1623490945203666493,4641,1623490945202856111,-0.00010575418423286465,0.00023812494191588485,0.00011390455553339507,0.0,0.0,0.0,1.0
1623490945260323024,4642,1623490945259748029,-5.290822628012393e-05,0.0003429465270983201,0.00019793795420497418,0.0,0.0,0.0,1.0
1623490945310257109,4643,1623490945309805917,3.1027703244035365e-05,0.0003131806249712099,0.0002569740032427603,0.0,0.0,0.0,1.0
1623490945352852688,4644,1623490945352340030,-0.0001417774103629199,0.000385368620754889,0.00014401225328697365,0.0,0.0,0.0,1.0
1623490945400764165,4645,1623490945400334882,-3.352106000420463e-05,0.0003460682415834526,0.00017090681983233935,0.0,0.0,0.0,1.0
1623490945458191892,4646,1623490945457588958,-0.00012751394297083607,0.0003394177391555786,0.00013046728552978948,0.0,0.0,0.0,1.0
1623490945516398600,4647,1623490945515697050,-8.585886189393932e-05,0.00034812401906947343,7.212583377480541e-05,0.0,0.0,0.0,1.0
1623490945562783588,4648,1623490945562362957,-4.8401969479527907e-05,0.0003037219229327093,0.00019690670299610247,0.0,0.0,0.0,1.0
1623490945608207089,4649,1623490945607998895,-5.412653104031051e-05,0.00034927019316910446,0.00019877954608915616,0.0,0.0,0.0,1.0
1623490945656112529,4650,1623490945655849981,-5.372786245061434e-05,0.00034902304548722896,0.00019826461726069056,0.0,0.0,0.0,1.0
1623490945703288896,4651,1623490945703014898,-5.552127277042018e-06,0.00037359134728376375,0.00012888444513237118,0.0,0.0,0.0,1.0
1623490945759815088,4652,1623490945759014892,-7.108691124813049e-05,0.00031229653325226536,5.655213727351338e-05,0.0,0.0,0.0,1.0
1623490945837251506,4653,1623490945836695957,3.86294136660581e-05,0.0003613681712977268,0.00024020141717784327,0.0,0.0,0.0,1.0
1623490945888069002,4654,1623490945887402105,-0.00010803881559695583,0.0003408000669651301,0.00010354404949453055,0.0,0.0,0.0,1.0
1623490945966791468,4655,1623490945966265010,-0.00012870554292021552,0.0003564856383491133,0.000129859832682655,0.0,0.0,0.0,1.0
1623490946007901832,4656,1623490946007449913,-0.0001226384429173777,0.0003709032670258239,0.0001196337719804319,0.0,0.0,0.0,1.0
1623490946052839682,4657,1623490946052248048,9.672390592641023e-05,0.0002829675507882712,0.00017073781810950095,0.0,0.0,0.0,1.0
1623490946122762372,4658,1623490946122233915,-2.5226399202438188e-05,0.0003081867708942809,0.0001644971071073087,0.0,0.0,0.0,1.0
1623490946168334728,4659,1623490946166966009,-7.487456946364546e-05,0.00024032058740885986,7.121489660733005e-05,0.0,0.0,0.0,1.0
1623490946210541298,4660,1623490946209859895,4.824139659831417e-05,0.00028472626490838593,0.00023707825143759464,0.0,0.0,0.0,1.0
1623490946257387032,4661,1623490946256938982,-7.193412648121011e-05,0.00034924768942801165,5.285802718191235e-05,0.0,0.0,0.0,1.0
1623490946308066965,4662,1623490946307462024,-7.038801845737908e-05,0.00034816322670394584,5.0877620843436944e-05,0.0,0.0,0.0,1.0
1623490946352858048,4663,1623490946352429914,-4.774117633132846e-05,0.00024228062238762504,0.0002040764936239725,0.0,0.0,0.0,1.0
1623490946400822626,4664,1623490946400258111,-7.72202631651453e-05,0.00024102718327867478,7.434288694696534e-05,0.0,0.0,0.0,1.0
1623490946461249430,4665,1623490946460731077,3.0972362310421886e-06,0.0002498582525731763,0.00013327360051818005,0.0,0.0,0.0,1.0
1623490946511737937,4666,1623490946511046934,-5.937820151302731e-05,0.00023984767540241592,4.999897407742537e-05,0.0,0.0,0.0,1.0
1623490946551680384,4667,1623490946551105070,-9.78289524482534e-05,0.00023653473647300416,0.00010323139740364695,0.0,0.0,0.0,1.0
1623490946601203416,4668,1623490946600793886,-0.00011484623792057391,0.0003419947980773941,0.00011273433663205878,0.0,0.0,0.0,1.0
1623490946652656274,4669,1623490946652374076,-0.0001264874395019433,0.00033342697145144484,0.00012984529937654088,0.0,0.0,0.0,1.0
1623490946701544300,4670,1623490946701277065,4.9866113613461494e-05,0.0003418099654481921,5.696751617989548e-05,0.0,0.0,0.0,1.0
1623490946762045571,4671,1623490946761379051,7.524968054894998e-05,0.0002533325226750094,0.0002041200097622209,0.0,0.0,0.0,1.0
1623490946811647410,4672,1623490946810832071,2.591467591628316e-05,0.00035871515683538746,0.0002580089521373452,0.0,0.0,0.0,1.0
1623490946862348862,4673,1623490946861415910,-0.0001370639799915807,0.0003472125569032869,0.00014255591268863554,0.0,0.0,0.0,1.0
1623490946911442041,4674,1623490946910785961,8.299728278871044e-06,0.00035482775376749487,0.00011233095886353794,0.0,0.0,0.0,1.0
1623490946952072867,4675,1623490946951509046,-9.734329069033265e-05,0.0003480912525901658,8.789947631271389e-05,0.0,0.0,0.0,1.0
1623490947002161694,4676,1623490947001651096,-7.185831100287032e-05,0.0003531778870637936,5.2237285778744535e-05,0.0,0.0,0.0,1.0
1623490947062485021,4677,1623490947062160062,-5.2210921012374456e-05,0.00035444790319161257,2.509252121285499e-05,0.0,0.0,0.0,1.0
1623490947109145458,4678,1623490947108892011,-7.550438363068679e-05,0.00035259795060937904,5.731994950508579e-05,0.0,0.0,0.0,1.0
1623490947158367986,4679,1623490947157913017,4.943607677887485e-05,0.0002528203905285409,0.00023963222309930643,0.0,0.0,0.0,1.0
1623490947208790855,4680,1623490947208536911,1.8583224118629005e-05,0.000244389966496783,0.00011272862474243084,0.0,0.0,0.0,1.0
1623490947252069155,4681,1623490947251576948,-6.691598105135199e-05,0.0002771360086626373,5.544715715188886e-05,0.0,0.0,0.0,1.0
1623490947305504185,4682,1623490947304997968,-7.235487009893404e-05,0.0003453385587590674,5.3949621687365834e-05,0.0,0.0,0.0,1.0
1623490947351456653,4683,1623490947351023960,-4.335624453233322e-05,0.0002433124000162934,0.0001979198381221181,0.0,0.0,0.0,1.0
1623490947404507494,4684,1623490947403749036,2.520304178688093e-06,0.000441934295736246,0.00010881647944671613,0.0,0.0,0.0,1.0
1623490947452528606,4685,1623490947451923894,1.4709633660459076e-05,0.00030029872345949116,0.00011069767968052702,0.0,0.0,0.0,1.0
1623490947504975747,4686,1623490947504358100,-7.00072782819916e-05,0.0003407724728958783,5.132637138416385e-05,0.0,0.0,0.0,1.0
1623490947554439770,4687,1623490947554121065,-7.353254295594525e-05,0.0003540507931347747,5.4421429659612386e-05,0.0,0.0,0.0,1.0
1623490947601204219,4688,1623490947600776958,-6.997181117185391e-05,0.00033572991617347725,5.19405390519978e-05,0.0,0.0,0.0,1.0
1623490947653437045,4689,1623490947653187084,8.505126061209012e-06,0.00035731060825128225,0.00011172254587421548,0.0,0.0,0.0,1.0
1623490947701345108,4690,1623490947701103973,4.7688224412922864e-05,0.00035975868706827896,5.759853350895128e-05,0.0,0.0,0.0,1.0
1623490947751669108,4691,1623490947751356887,2.770775995486474e-05,0.0003548265727886246,8.568195583080751e-05,0.0,0.0,0.0,1.0
1623490947801948003,4692,1623490947801496076,8.888932552508777e-05,0.00035946128900832264,0.0001714398456513777,0.0,0.0,0.0,1.0
1623490947857603407,4693,1623490947856628942,-0.00010439632910674845,0.00032886792769204476,0.00010011106222407307,0.0,0.0,0.0,1.0
1623490947912111933,4694,1623490947911665010,7.428665708175686e-05,0.00034898423291451763,2.2492824875541828e-05,0.0,0.0,0.0,1.0
1623490947959327977,4695,1623490947958879041,-0.0001941725538472383,0.00024808823388866585,6.362648733926335e-05,0.0,0.0,0.0,1.0
1623490948000330807,4696,1623490947999798107,-7.124443686734594e-05,0.00034642763455394743,5.22817206345394e-05,0.0,0.0,0.0,1.0
1623490948056480840,4697,1623490948055821943,1.5333381725213258e-05,0.0002687459960952765,0.00011398910937288065,0.0,0.0,0.0,1.0
1623490948102965452,4698,1623490948102074909,-3.63790402388986e-05,0.0003536962988164305,0.00017382839781987514,0.0,0.0,0.0,1.0
1623490948152970637,4699,1623490948152536916,-0.00012605680444721656,0.00026825010024822404,-3.2554022759256895e-05,0.0,0.0,0.0,1.0
1623490948201248698,4700,1623490948200827884,-5.521425282495329e-05,0.0003532974809559164,0.00019974370596997915,0.0,0.0,0.0,1.0
1623490948253117423,4701,1623490948252461957,-0.00010014205327024683,0.0003403403042057107,-7.761409701600996e-05,0.0,0.0,0.0,1.0
1623490948302250503,4702,1623490948301795053,-1.2298042747715954e-05,0.00031048137543621124,0.000146443432804233,0.0,0.0,0.0,1.0
1623490948352567891,4703,1623490948352042007,2.9251856403789134e-05,0.0003528271743107325,0.00025420062643632946,0.0,0.0,0.0,1.0
1623490948403592799,4704,1623490948402889060,-9.006519144350023e-05,0.00042213189908579807,6.817313196449959e-05,0.0,0.0,0.0,1.0
1623490948454727603,4705,1623490948454272079,1.0535266028455226e-05,0.00035960104798959946,0.0001086338714486601,0.0,0.0,0.0,1.0
1623490948501601365,4706,1623490948501164960,9.09903567389847e-05,0.00036675462740731746,0.00016759617875550248,0.0,0.0,0.0,1.0
1623490948555350748,4707,1623490948554764080,9.21088667382719e-06,0.00038386908136089914,0.00010726228005353278,0.0,0.0,0.0,1.0
1623490948602551765,4708,1623490948601919937,2.903640734075452e-06,0.00042536122373348917,0.00011046861705921174,0.0,0.0,0.0,1.0
1623490948651892913,4709,1623490948651550102,-0.00013341870180738624,0.0003526568330016744,0.00013683485054372113,0.0,0.0,0.0,1.0
1623490948702106849,4710,1623490948701618003,1.6379031194446725e-05,0.00027583870337366534,0.0001116209182399075,0.0,0.0,0.0,1.0
1623490948752148866,4711,1623490948751845884,-6.280773845901422e-05,0.00028841418998126755,4.832350927586049e-05,0.0,0.0,0.0,1.0
1623490948803428980,4712,1623490948803012895,9.88680026239308e-05,0.00025884504009354714,0.00017096492333479318,0.0,0.0,0.0,1.0
1623490948852209544,4713,1623490948851341056,1.6525324099347927e-05,0.00029916632354343164,0.00010835341702630785,0.0,0.0,0.0,1.0
1623490948901954008,4714,1623490948901229906,-0.000134187466073854,0.0003265613963776559,0.00014132083855145083,0.0,0.0,0.0,1.0
1623490948952087015,4715,1623490948951509046,-0.00013300923751558003,0.00033746937810974487,0.00013826907559888468,0.0,0.0,0.0,1.0
1623490948999249681,4716,1623490948998658943,-7.200091431514011e-05,0.000342803203807307,0.0002241732909524785,0.0,0.0,0.0,1.0
1623490949062482288,4717,1623490949062217998,-3.236315251342603e-06,0.00035065121710431413,0.0002990967682379164,0.0,0.0,0.0,1.0
1623490949103133098,4718,1623490949102562952,-0.00010126029269486025,0.00033129155451661063,0.0002658632821024298,0.0,0.0,0.0,1.0
1623490949160192500,4719,1623490949159872102,-0.00014235108437787858,0.0003480134687379177,0.00014971043781741855,0.0,0.0,0.0,1.0
1623490949210198891,4720,1623490949209941911,-3.2963995181489736e-05,0.00035183661509563535,0.0001693836265559412,0.0,0.0,0.0,1.0
1623490949252900375,4721,1623490949252548027,-0.0001027005996547814,0.000342009559062717,0.00026643204913767704,0.0,0.0,0.0,1.0
1623490949304115831,4722,1623490949303581047,5.0593852165548014e-05,0.0003507188123421656,5.479715934342266e-05,0.0,0.0,0.0,1.0
1623490949353621520,4723,1623490949352829027,-6.23906696546328e-05,0.0002933185136271277,0.00021748243656105615,0.0,0.0,0.0,1.0
1623490949411329748,4724,1623490949410898017,-9.882002632366493e-05,0.00042751171031341073,7.948727495232788e-05,0.0,0.0,0.0,1.0
1623490949453498757,4725,1623490949452832984,-0.00012342789409558463,0.0003509484562300713,0.00012334090945387288,0.0,0.0,0.0,1.0
1623490949508247244,4726,1623490949507807064,4.556027192847978e-05,0.0003654629919083163,0.00023014629165629685,0.0,0.0,0.0,1.0
1623490949562973161,4727,1623490949562394905,-6.646387419095845e-06,0.0003627761552706943,0.0003021853208551306,0.0,0.0,0.0,1.0
1623490949612281206,4728,1623490949611724901,-5.234333661974233e-05,0.0003512230987325893,0.00019607429554469036,0.0,0.0,0.0,1.0
1623490949655744870,4729,1623490949655263948,-0.00013457665750138403,0.0003422355458724269,0.00013979478526238154,0.0,0.0,0.0,1.0
1623490949702160878,4730,1623490949701114940,-2.389238261457649e-06,0.00026962779816130933,0.00013820817238041627,0.0,0.0,0.0,1.0
1623490949757334467,4731,1623490949756907987,-2.719967847042426e-05,0.00034707063787209336,0.00016209509697517888,0.0,0.0,0.0,1.0
1623490949804491827,4732,1623490949804040956,1.5088828604348237e-06,0.00034928195702832454,0.0001223845032711779,0.0,0.0,0.0,1.0
1623490949851971967,4733,1623490949851740884,-5.487113526214671e-05,0.00034967639612659696,0.00019974857597304663,0.0,0.0,0.0,1.0
1623490949901574879,4734,1623490949901232051,-8.370772047783248e-05,0.0003453907171433457,6.95313963419153e-05,0.0,0.0,0.0,1.0
1623490949955144857,4735,1623490949954664039,-7.613102911818714e-05,0.00039046382960350456,5.320284541454612e-05,0.0,0.0,0.0,1.0
1623490950001954773,4736,1623490950001471090,-5.554974904953269e-06,0.000377729434376306,0.00012834439279885146,0.0,0.0,0.0,1.0
1623490950052022321,4737,1623490950051593112,4.258039325577556e-06,0.0002727039621959193,0.00012867637258295872,0.0,0.0,0.0,1.0
1623490950103464756,4738,1623490950102750110,-7.170823528213077e-05,0.00034530217885730963,5.3066508449717276e-05,0.0,0.0,0.0,1.0
1623490950153240419,4739,1623490950152823019,4.956552629664657e-06,0.0003660351954977159,0.00011544822107367736,0.0,0.0,0.0,1.0
1623490950200188667,4740,1623490950199810075,-0.00011560214147721126,0.0003837951767309278,0.00010827747551900302,0.0,0.0,0.0,1.0
1623490950253763398,4741,1623490950253444004,-0.00012000997162431304,0.00034467277953353914,0.00011947268468048833,0.0,0.0,0.0,1.0
1623490950303145058,4742,1623490950302515077,1.1577825262065744e-05,0.0003340460368690401,0.00011056165518397165,0.0,0.0,0.0,1.0
1623490950354655324,4743,1623490950354178953,-4.237244138494134e-05,0.00035016929359699134,0.0001825216507072014,0.0,0.0,0.0,1.0
1623490950405666313,4744,1623490950404228973,-0.00012054420358253992,0.00033768648017939995,0.00012112462974300797,0.0,0.0,0.0,1.0
1623490950455139688,4745,1623490950454521942,-3.6322923506304505e-05,0.000293573052431384,1.1279104832340181e-05,0.0,0.0,0.0,1.0
1623490950502457716,4746,1623490950501641082,-9.06863165255345e-05,0.00034752435192331177,7.883326482982511e-05,0.0,0.0,0.0,1.0
1623490950551424528,4747,1623490950550832080,-4.8343382331950124e-05,0.00035661136473663646,0.00018987358749456007,0.0,0.0,0.0,1.0
1623490950600892315,4748,1623490950600510883,7.299542312466656e-05,0.00046422936861745256,0.00017949200627498385,0.0,0.0,0.0,1.0
1623490950651939139,4749,1623490950651743936,-2.1000601691412157e-05,0.0003120464517678556,0.00015818724134675222,0.0,0.0,0.0,1.0
1623490950703122501,4750,1623490950702909040,6.116834151725925e-05,0.0002283970034113736,0.0002267333175112185,0.0,0.0,0.0,1.0
1623490950753612512,4751,1623490950753262090,-5.630349733110052e-06,0.00035307866505718266,0.0001316883172464145,0.0,0.0,0.0,1.0
1623490950801176562,4752,1623490950800724077,1.4539537005475722e-06,0.00036161896821340633,0.00012083817665597962,0.0,0.0,0.0,1.0
1623490950852200295,4753,1623490950851713943,0.00014907168679201277,0.0003105126930904589,0.00026561372273192774,0.0,0.0,0.0,1.0
1623490950902613039,4754,1623490950902047920,-0.00011427611661929404,0.000347237913160825,0.00011126226454649668,0.0,0.0,0.0,1.0
1623490950966583824,4755,1623490950966126012,-2.2238207293412415e-06,0.00032786252040750696,0.0001303255918756463,0.0,0.0,0.0,1.0
1623490951010667852,4756,1623490951009799051,-0.00012845593187194027,0.0002662843465941478,0.00014137472338404677,0.0,0.0,0.0,1.0
1623490951056485828,4757,1623490951056053924,-9.54102263222012e-05,0.00030163079941303295,0.00026172956283687654,0.0,0.0,0.0,1.0
1623490951104787230,4758,1623490951104255962,-4.764962000081141e-05,0.00043545068479033944,0.00017855741810990367,0.0,0.0,0.0,1.0
1623490951150655164,4759,1623490951150054979,-0.0001320582962307526,0.00033314155075458984,0.00013753224185109048,0.0,0.0,0.0,1.0
1623490951200339960,4760,1623490951199352073,-1.0759812766991672e-05,0.0003560600506489209,0.00013833969354948294,0.0,0.0,0.0,1.0
1623490951254921910,4761,1623490951253982114,-0.00011918637051167025,0.00025299855531102367,0.00013039312781160106,0.0,0.0,0.0,1.0
1623490951302931349,4762,1623490951302075910,-9.752364894666243e-05,0.00034764541078402544,8.82057354019139e-05,0.0,0.0,0.0,1.0
1623490951381461287,4763,1623490951380882072,-0.00012196749366921722,0.0003455485403947023,0.00012204545908645059,0.0,0.0,0.0,1.0
1623490951422665520,4764,1623490951422076034,-3.637357372099359e-05,0.0003882348925117185,0.00016928067755372922,0.0,0.0,0.0,1.0
1623490951466826487,4765,1623490951465903091,-4.225692441650608e-05,0.0002484772608113417,0.0001957313578486719,0.0,0.0,0.0,1.0
1623490951510175006,4766,1623490951509573030,-0.0001282954794987745,0.00043238916941845673,0.00011931916380802932,0.0,0.0,0.0,1.0
1623490951554855068,4767,1623490951554411935,-0.00012963615131411643,0.00028857031225015817,0.000140065584858462,0.0,0.0,0.0,1.0
1623490951602174731,4768,1623490951601516056,-4.986074827684206e-05,0.00043834293285271997,0.0001812133648826375,0.0,0.0,0.0,1.0
1623490951652071572,4769,1623490951651811885,2.8543681764858775e-05,0.00035120516599818075,0.00025538625362742096,0.0,0.0,0.0,1.0
1623490951702018216,4770,1623490951701755094,-3.304479378130054e-05,0.00034934312498080544,0.00016982235329976447,0.0,0.0,0.0,1.0
1623490951754225720,4771,1623490951753953027,-0.0001278500712942332,0.00034534770531990944,0.0001301493037502155,0.0,0.0,0.0,1.0
1623490951800279895,4772,1623490951800031948,-7.836726354071288e-06,0.0003543500002933797,0.0001345507809773494,0.0,0.0,0.0,1.0
1623490951854285753,4773,1623490951853806066,-5.402644819696434e-05,0.00035021306723592716,0.00019851817534544125,0.0,0.0,0.0,1.0
1623490951902439238,4774,1623490951901947069,-9.060274214789388e-05,0.00034681858551266487,7.881128450293318e-05,0.0,0.0,0.0,1.0
1623490951952933178,4775,1623490951952271032,1.1591728707571747e-05,0.0003553658222017475,0.0001077399778068866,0.0,0.0,0.0,1.0
1623490952003263806,4776,1623490952002693939,7.743438345642062e-06,0.000344291594956303,0.00011447982575418791,0.0,0.0,0.0,1.0
1623490952058072600,4777,1623490952057383108,-0.00010511520054024004,0.0003089663066475623,0.00010371435006106822,0.0,0.0,0.0,1.0
1623490952105350764,4778,1623490952104946899,-6.657621202066366e-05,0.000318688819675117,4.9518183750763e-05,0.0,0.0,0.0,1.0
1623490952151272148,4779,1623490952150670099,3.815873014900717e-06,0.0003425631947493457,0.00012009998135908972,0.0,0.0,0.0,1.0
1623490952202849056,4780,1623490952202249097,-5.847890679433476e-05,0.00034872973822075437,3.4450751194015083e-05,0.0,0.0,0.0,1.0
1623490952260062956,4781,1623490952259364891,-0.0001967107855307404,0.00033073160182084393,5.624759811695412e-05,0.0,0.0,0.0,1.0
1623490952308911871,4782,1623490952308249998,-3.433103756833589e-05,0.0003732325012606452,0.00016844815253591605,0.0,0.0,0.0,1.0
1623490952357287463,4783,1623490952356524038,-7.538315344390867e-05,0.00034217151608118,5.852408482809324e-05,0.0,0.0,0.0,1.0
1623490952402179531,4784,1623490952401655006,-8.883047985364101e-05,0.0003505896514752749,7.58820595407883e-05,0.0,0.0,0.0,1.0
1623490952452780536,4785,1623490952452100086,-8.444627701464924e-05,0.0003454685278256875,7.053528283762489e-05,0.0,0.0,0.0,1.0
1623490952502627151,4786,1623490952501757907,-0.00015241442292790452,0.00034190504470643646,-6.044816935002473e-06,0.0,0.0,0.0,1.0
1623490952553786707,4787,1623490952553155946,-0.00011425994830460695,0.0004072713508094239,0.00010334853279658773,0.0,0.0,0.0,1.0
1623490952602145077,4788,1623490952601476001,-3.6767568190043676e-05,0.00038178224963303364,0.00017066989036607083,0.0,0.0,0.0,1.0
1623490952652300717,4789,1623490952651862907,-0.00016397633680753643,0.0004236250778149042,-9.112878487371745e-07,0.0,0.0,0.0,1.0
1623490952701590396,4790,1623490952701145935,-5.2175256996633834e-05,0.0003391289614000925,0.00019743334458866002,0.0,0.0,0.0,1.0
1623490952751906912,4791,1623490952751297044,6.517588644783245e-06,0.0003902123818306791,0.00011012661433795756,0.0,0.0,0.0,1.0
1623490952802482162,4792,1623490952801861095,-2.4286111056426307e-05,0.00041748775413452677,0.00014883795675757483,0.0,0.0,0.0,1.0
1623490952852828032,4793,1623490952852251100,-3.525446959429246e-05,0.0002746801773128027,0.00018267151431672346,0.0,0.0,0.0,1.0
1623490952952588524,4794,1623490952952132987,-6.687142126793333e-05,0.0002939239336683386,5.3179054198437825e-05,0.0,0.0,0.0,1.0
1623490953001890642,4795,1623490953001240062,-2.4010253127926262e-05,0.00031522162089459016,-8.473186092317064e-06,0.0,0.0,0.0,1.0
1623490953052286404,4796,1623490953051794099,6.45861496195721e-06,0.00035209270720315544,0.00011521852803753063,0.0,0.0,0.0,1.0
1623490953102840829,4797,1623490953102434921,-9.667421318226843e-05,0.0003432657661051053,8.761509288746083e-05,0.0,0.0,0.0,1.0
1623490953154208838,4798,1623490953153776931,-0.00012489147047745064,0.0002469287593385161,0.0001390248267938432,0.0,0.0,0.0,1.0
1623490953201910796,4799,1623490953201686906,-4.110885106456408e-05,0.0003496697230502832,0.0001808522702759774,0.0,0.0,0.0,1.0
1623490953251938027,4800,1623490953251718091,-5.416709404926223e-05,0.0003577713314371067,0.00019771772733179205,0.0,0.0,0.0,1.0
1623490953303324674,4801,1623490953302960920,1.194659125758335e-05,0.0002623392543910086,0.00011948175180265252,0.0,0.0,0.0,1.0
1623490953353785698,4802,1623490953353401947,-5.378995183491497e-05,0.00035017083189359255,0.00019819899046780165,0.0,0.0,0.0,1.0
1623490953402117952,4803,1623490953401634979,-4.7479660679528024e-05,0.00035174962908968155,0.0001893266977575081,0.0,0.0,0.0,1.0
1623490953453837516,4804,1623490953453439044,-4.3596881596386083e-05,0.00025593636644316575,0.00019659067925914542,0.0,0.0,0.0,1.0
1623490953503624955,4805,1623490953502591896,7.79621118454088e-05,0.0003539692365848168,0.0001871659889189914,0.0,0.0,0.0,1.0
1623490953553629017,4806,1623490953553027915,-0.00013152153360351804,0.0003141172386449398,0.0001392960762203188,0.0,0.0,0.0,1.0
1623490953609676323,4807,1623490953609031009,-0.00011778102543757996,0.00034812026262898144,0.00011595890491378213,0.0,0.0,0.0,1.0
1623490953653097780,4808,1623490953652495908,-0.00012153668967584963,0.00034788707625921234,0.00012114650542827121,0.0,0.0,0.0,1.0
1623490953702611868,4809,1623490953701961088,-0.00013888740750189754,0.00040668910708063777,0.00013724134197445892,0.0,0.0,0.0,1.0
1623490953752811639,4810,1623490953752449083,-7.133985241125629e-05,0.0003464418357452814,0.0002227872550335519,0.0,0.0,0.0,1.0
1623490953802428383,4811,1623490953802007007,-0.00012706615643764962,0.0003434575451137789,0.0001293213706219376,0.0,0.0,0.0,1.0
1623490953851298715,4812,1623490953851017045,1.93197470252926e-05,0.0002535124461928717,0.00011051804564488066,0.0,0.0,0.0,1.0
1623490953902663641,4813,1623490953902375030,4.684378018282587e-05,0.00035825849249704333,5.895523919008383e-05,0.0,0.0,0.0,1.0
1623490953952440945,4814,1623490953951773929,3.4102100016752956e-05,0.0002764905387948602,8.719970053761017e-05,0.0,0.0,0.0,1.0
1623490954002908616,4815,1623490954002384948,-7.03331440945476e-05,0.0003276209966998067,5.3502644824732215e-05,0.0,0.0,0.0,1.0
1623490954055712173,4816,1623490954055063056,2.7396069299356895e-05,0.00036145666922493547,8.523838821616891e-05,0.0,0.0,0.0,1.0
1623490954102478917,4817,1623490954101856994,-1.4736278671989567e-05,0.0004081073777797428,0.00013695806648428288,0.0,0.0,0.0,1.0
1623490954153464076,4818,1623490954153265047,-3.104570828327269e-05,0.0003562436667152724,0.00016617027968379716,0.0,0.0,0.0,1.0
1623490954221933485,4819,1623490954221698093,4.0994206528921495e-05,0.0003481500856423736,0.00023869187760539035,0.0,0.0,0.0,1.0
1623490954265549652,4820,1623490954265303897,-3.3669143022052594e-05,0.0003413962475633525,0.00017172431288514645,0.0,0.0,0.0,1.0
1623490954310501693,4821,1623490954310227918,7.105946224328363e-06,0.00035202836636472057,0.00011433813411088067,0.0,0.0,0.0,1.0
1623490954353624918,4822,1623490954353276062,-5.378281298362708e-05,0.00034934741370307165,0.00019829743065002958,0.0,0.0,0.0,1.0
1623490954411356910,4823,1623490954410934019,-0.00012221461884109885,0.00036214110275523126,0.00012020362862585898,0.0,0.0,0.0,1.0
1623490954456464165,4824,1623490954456223058,-1.0432826456963085e-05,0.0004388723355077673,0.00012700495026507497,0.0,0.0,0.0,1.0
1623490954506644206,4825,1623490954506356048,7.505582971134572e-06,0.0003487809157149968,0.00011421628362029423,0.0,0.0,0.0,1.0
1623490954552110694,4826,1623490954551887083,-0.00017619616710362607,0.00039881292195786955,1.9129340543599938e-05,0.0,0.0,0.0,1.0
1623490954600923616,4827,1623490954600669908,-1.1106025112894713e-05,0.000364016146704671,0.00013776922032349148,0.0,0.0,0.0,1.0
1623490954655212060,4828,1623490954654718923,-7.177804718594416e-06,0.00038720983491202787,0.00012932648929364632,0.0,0.0,0.0,1.0
1623490954702968421,4829,1623490954702539014,-0.00013482359554473078,0.00034183947559540684,0.0001401859252538884,0.0,0.0,0.0,1.0
1623490954754225278,4830,1623490954753787088,2.0598843093466712e-06,0.000357383344748996,0.00012056296018414514,0.0,0.0,0.0,1.0
1623490954801238056,4831,1623490954800798940,-0.00015277374814104405,0.00034806098619810655,-6.360647567760225e-06,0.0,0.0,0.0,1.0
1623490954852485982,4832,1623490954852043914,-3.581805754038214e-05,0.0003564855720696869,0.0001726914435593585,0.0,0.0,0.0,1.0
1623490954952563607,4833,1623490954952007102,-0.00010635776698109112,0.0003497834303516356,0.00010005488154263276,0.0,0.0,0.0,1.0
1623490955004402867,4834,1623490955003727960,-3.494957036309643e-05,0.00034764643669404904,0.0001726608609189384,0.0,0.0,0.0,1.0
1623490955054896052,4835,1623490955054678010,-7.896786860328575e-05,0.00035453456598588673,6.18210944409725e-05,0.0,0.0,0.0,1.0
1623490955111384668,4836,1623490955111111927,-7.127188723643485e-05,0.00034464287534774485,5.255402652437624e-05,0.0,0.0,0.0,1.0
