%time,field.header.seq,field.header.stamp,field.pose.position.x,field.pose.position.y,field.pose.position.z,field.pose.orientation.x,field.pose.orientation.y,field.pose.orientation.z,field.pose.orientation.w
1624180431608757699,2,1624180431608295059,0.0004506937320911675,0.0021415147824654923,8.364469778143757e-05,0.0,0.0,0.0,1.0
1624180431658195884,3,1624180431657746887,0.0004536825524610322,0.001998734316430273,-5.8581902365517635e-05,0.0,0.0,0.0,1.0
1624180431709880098,4,1624180431709023094,0.0005243252783202479,0.0018745956397197006,-7.674100984900178e-05,0.0,0.0,0.0,1.0
1624180431755456127,5,1624180431754891014,0.0008289026034162816,0.0019132725470853984,-9.775940317879872e-05,0.0,0.0,0.0,1.0
1624180431812689166,6,1624180431812104082,0.0004954928058396035,0.001978594706770309,-0.00010383295404281512,0.0,0.0,0.0,1.0
1624180431863402512,7,1624180431862506961,0.0008349194863512821,0.0019082062328834581,-0.00011262047540938624,0.0,0.0,0.0,1.0
1624180431911390665,8,1624180431911110019,0.00045283454824129876,0.00218941547416307,0.00026976808669587626,0.0,0.0,0.0,1.0
1624180431954269071,9,1624180431953976011,0.0008507354416451562,0.0021059259585172185,-0.00014960783180129056,0.0,0.0,0.0,1.0
1624180432007244085,10,1624180432007011985,0.000590482441111817,0.0018602898561539405,-8.071255219022078e-05,0.0,0.0,0.0,1.0
1624180432055178339,11,1624180432054894065,0.00042280095544811047,0.0020911998882411353,0.00027364576478561276,0.0,0.0,0.0,1.0
1624180432107647518,12,1624180432107373094,0.00040092370613820094,0.001897405442946365,-8.425308725179548e-05,0.0,0.0,0.0,1.0
1624180432154619472,13,1624180432154094076,0.0007269208690559026,0.0019310140058905745,-0.00010823997757114512,0.0,0.0,0.0,1.0
1624180432209767902,14,1624180432207445955,0.0007233711137359933,0.0020378013431354702,0.00030026067001642787,0.0,0.0,0.0,1.0
1624180432256890618,15,1624180432256444072,0.000858177885902478,0.0020987951777442504,0.0002340005980983051,0.0,0.0,0.0,1.0
1624180432307697095,16,1624180432307218885,0.00043331291590220644,0.002089846809667506,-0.00012876086193713832,0.0,0.0,0.0,1.0
1624180432354706981,17,1624180432354239082,0.0008146219524860498,0.002109477853991848,0.00024148334552620554,0.0,0.0,0.0,1.0
1624180432408727826,18,1624180432407910919,0.0008257573995251732,0.0019454184330243152,2.3604877902982935e-05,0.0,0.0,0.0,1.0
1624180432457580443,19,1624180432457160091,0.0008571863118049805,0.0021087300629005767,0.0002714944663146923,0.0,0.0,0.0,1.0
1624180432507791198,20,1624180432507062053,0.0008615728872882755,0.0020846254238904294,0.0001820552152196342,0.0,0.0,0.0,1.0
1624180432555820578,21,1624180432555274105,0.0008376879543448013,0.002015563776694762,0.0003029581926838887,0.0,0.0,0.0,1.0
1624180432607122389,22,1624180432606566047,0.0008235877110109868,0.0020237788139638724,-8.162014014700958e-05,0.0,0.0,0.0,1.0
1624180432656303292,23,1624180432655387973,0.0008468052353691746,0.0020055158021250463,-0.00013401065178442195,0.0,0.0,0.0,1.0
1624180432709760622,24,1624180432708886957,0.000855613318435644,0.0020269215065127355,-4.477062966046219e-05,0.0,0.0,0.0,1.0
1624180432756381414,25,1624180432755761957,0.0008124526793835685,0.001923172017086472,-7.234757799423619e-05,0.0,0.0,0.0,1.0
1624180432809050453,26,1624180432808759069,0.0007446136169164674,0.0021307227067381973,0.0002692014751808358,0.0,0.0,0.0,1.0
1624180432853610426,27,1624180432853412961,0.00084507242604559,0.00196155250114316,0.00010066314434808987,0.0,0.0,0.0,1.0
1624180432909341888,28,1624180432909092044,0.0008300627221160539,0.0019109079302097598,-0.00010596912824212268,0.0,0.0,0.0,1.0
1624180432957318091,29,1624180432957074975,0.0005155377139089978,0.002072473965199606,-0.0001321285676674222,0.0,0.0,0.0,1.0
1624180433007729427,30,1624180433007434940,0.0008263001136583625,0.0020036516646086966,-0.00015703417966150823,0.0,0.0,0.0,1.0
1624180433056748077,31,1624180433056165075,0.0005620724261916621,0.0020409692447174166,0.0001878210295629401,0.0,0.0,0.0,1.0
1624180433114773254,32,1624180433114254093,0.0004242823581535049,0.0020930193419417265,-0.00012352131150450418,0.0,0.0,0.0,1.0
1624180433161999507,33,1624180433161299085,0.0005045395707838907,0.0019761105227189546,-0.00010640910022630123,0.0,0.0,0.0,1.0
1624180433213783049,34,1624180433212832069,0.0008319843454955844,0.0019138188895340136,-9.327410240445033e-05,0.0,0.0,0.0,1.0
1624180433257336296,35,1624180433256646013,0.0004044293921197095,0.0019912742352516943,-0.0005306799812458962,0.0,0.0,0.0,1.0
1624180433305480723,36,1624180433304889059,0.0008421354259553482,0.0020059916719219473,-0.00013578652920642753,0.0,0.0,0.0,1.0
1624180433353609681,37,1624180433353006935,0.0008098893908936589,0.001854901420188071,-0.0003372379923050062,0.0,0.0,0.0,1.0
1624180433406199304,38,1624180433405567026,0.0008330947962349455,0.0019715731938276804,0.00012999791827184026,0.0,0.0,0.0,1.0
1624180433454379014,39,1624180433453607892,0.0005176438592116028,0.002262916957079142,0.0001975860235603477,0.0,0.0,0.0,1.0
1624180433508154320,40,1624180433507645940,0.00044626802946368116,0.0020978070177761765,0.0003172238396231819,0.0,0.0,0.0,1.0
1624180433556067434,41,1624180433555612897,0.0008419721482368914,0.002010804424799062,-0.00011737871791339671,0.0,0.0,0.0,1.0
1624180433607978809,42,1624180433607103919,0.0007012404757915647,0.001965058521022911,-0.0004022908858196672,0.0,0.0,0.0,1.0
1624180433663742648,43,1624180433663153028,0.0008384345076137834,0.0019595530918650184,8.783400831546828e-05,0.0,0.0,0.0,1.0
1624180433713996826,44,1624180433713246917,0.00044632342496697675,0.0021930177219928737,0.0002786094239013437,0.0,0.0,0.0,1.0
1624180433763080425,45,1624180433762631988,0.0008687940073741629,0.0021153634630763918,0.0007113366307009983,0.0,0.0,0.0,1.0
1624180433813785887,46,1624180433812977886,0.0006946568926196051,0.0022483204680838753,0.0006834822280659125,0.0,0.0,0.0,1.0
1624180433863588276,47,1624180433862646913,0.0004525161548372125,0.002119021829571466,-1.568571427412735e-06,0.0,0.0,0.0,1.0
1624180433913325910,48,1624180433912879085,0.0009015893433570454,0.002204410319222916,0.00026895701602214217,0.0,0.0,0.0,1.0
1624180433959801109,49,1624180433959505891,0.0008352284219199646,0.002009929046380421,-0.00012596083073290743,0.0,0.0,0.0,1.0
1624180434012093820,50,1624180434011792993,0.0008560911830954865,0.0020286066393282454,-3.791187450374878e-05,0.0,0.0,0.0,1.0
1624180434063428472,51,1624180434063170051,0.0007972477148996404,0.0018141491541427968,-0.0005039414363636752,0.0,0.0,0.0,1.0
1624180434129348760,52,1624180434129009103,0.00039341985097962606,0.001889630321443292,-0.000930607817249296,0.0,0.0,0.0,1.0
1624180434172478446,53,1624180434172045087,0.0008020892209970043,0.0018059400550782811,-0.0009371166371714423,0.0,0.0,0.0,1.0
1624180434221812996,54,1624180434221356010,0.000717304227691784,0.001825781232355439,-0.0009262233631837091,0.0,0.0,0.0,1.0
1624180434265119853,55,1624180434264872884,0.0004316021440899931,0.001979424620003556,-0.0009606196762881325,0.0,0.0,0.0,1.0
1624180434320665249,56,1624180434320451116,0.00037555097810582083,0.0018580536227545963,-0.0006607106522196204,0.0,0.0,0.0,1.0
1624180434365392658,57,1624180434365145063,0.00078739656714788,0.0017698144149562722,-0.001087583799829872,0.0,0.0,0.0,1.0
1624180434418934928,58,1624180434418664073,0.0007751959196866665,0.0016886251326013735,-0.0010043601671192448,0.0,0.0,0.0,1.0
1624180434463204471,59,1624180434462282991,0.0007905464908617432,0.0016993027517173687,-0.0013566768094399606,0.0,0.0,0.0,1.0
1624180434513645577,60,1624180434513014888,0.00039623730390303535,0.001860046493675327,-0.001042353924201933,0.0,0.0,0.0,1.0
1624180434562165434,61,1624180434561206912,0.0007872409162246186,0.0017070845211719643,-0.001329265020363124,0.0,0.0,0.0,1.0
1624180434613074516,62,1624180434612464046,0.0008080934401277773,0.001803285709343072,-0.0009426987528762254,0.0,0.0,0.0,1.0
1624180434663775729,63,1624180434663324928,0.0008119620156321616,0.0019128194567201717,-0.0005179059302271583,0.0,0.0,0.0,1.0
1624180434718971876,64,1624180434718036031,0.0007771443204092066,0.0017284654462628168,-0.0012547328632273036,0.0,0.0,0.0,1.0
1624180434758427912,65,1624180434757366037,0.0008069769255598658,0.001876113327625717,-0.0006631105481389454,0.0,0.0,0.0,1.0
1624180434814122352,66,1624180434813434934,0.0008194199417630443,0.001909141435589845,-0.0005263069877869953,0.0,0.0,0.0,1.0
1624180434861897616,67,1624180434861476039,0.00038268791854534356,0.0018970369984572244,-0.0005050738998839677,0.0,0.0,0.0,1.0
1624180434913753862,68,1624180434913050985,0.0008701029005351302,0.0020874876598782066,0.00019966932040915708,0.0,0.0,0.0,1.0
1624180434961832180,69,1624180434961244916,0.0008122000458570255,0.0018416650303834103,-0.00038642540100752854,0.0,0.0,0.0,1.0
1624180435012417490,70,1624180435011784887,0.00063098381610871,0.0019489820272156066,-0.00011317676663225029,0.0,0.0,0.0,1.0
1624180435062688700,71,1624180435062291955,0.0008330231466970872,0.0020139115794108875,0.0002929907707382995,0.0,0.0,0.0,1.0
1624180435112475763,72,1624180435112159109,0.0008982974027276214,0.002211574187185761,0.0011046627713042767,0.0,0.0,0.0,1.0
1624180435162805869,73,1624180435162526941,0.00079185885078914,0.0022074737281627677,0.0006012870757494682,0.0,0.0,0.0,1.0
1624180435214571273,74,1624180435214109992,0.00043639901150527294,0.002141660326856254,7.31595276306507e-05,0.0,0.0,0.0,1.0
1624180435264253083,75,1624180435263783073,0.0008691170457950648,0.0021157038315777754,0.0007128970754273212,0.0,0.0,0.0,1.0
1624180435316395755,76,1624180435315766906,0.0009000807228858321,0.00220662512083436,0.000681647203506941,0.0,0.0,0.0,1.0
1624180435361156532,77,1624180435360576963,0.0008725671402771695,0.0021278076645785404,0.0003568495021539775,0.0,0.0,0.0,1.0
1624180435413295254,78,1624180435412681913,0.0010028119136222813,0.0021245023264100382,0.0008500953335683903,0.0,0.0,0.0,1.0
1624180435462663278,79,1624180435462252950,0.00085653289079346,0.002152601372586105,0.0004399425586250061,0.0,0.0,0.0,1.0
1624180435514371454,80,1624180435513794040,0.000885826730154804,0.0022088486690563514,0.0006791956599592197,0.0,0.0,0.0,1.0
1624180435561910430,81,1624180435561534976,0.0008840007517392223,0.002206751882908975,0.0006697095641854389,0.0,0.0,0.0,1.0
1624180435615599065,82,1624180435615326023,0.0008694447178640985,0.002180023610094395,0.0009608580154782942,0.0,0.0,0.0,1.0
1624180435663556461,83,1624180435663172101,0.0007002010645464907,0.002140916042776553,0.0002741380489297285,0.0,0.0,0.0,1.0
1624180435712640915,84,1624180435712354993,0.001258129256484608,0.0021392653675320616,0.0002935925318432453,0.0,0.0,0.0,1.0
1624180435762364800,85,1624180435761845922,0.0008519090856680123,0.001996504682892919,-0.00016476871158843664,0.0,0.0,0.0,1.0
1624180435815225774,86,1624180435814565038,0.0008467173468034161,0.0020081554029047766,-0.00012391342665907246,0.0,0.0,0.0,1.0
1624180435863435664,87,1624180435862706041,0.001111765921677943,0.0018179508324465132,-0.0006515765711796462,0.0,0.0,0.0,1.0
1624180435945281239,88,1624180435944763994,0.001231120040301903,0.0018273775496027156,-0.0005230477392181854,0.0,0.0,0.0,1.0
1624180435990848520,89,1624180435990599012,0.00081355030101804,0.0019096006724339532,-0.0005290739976224756,0.0,0.0,0.0,1.0
1624180436037113178,90,1624180436036805009,0.0007980566508649645,0.0017929658558841766,-0.0005848917881436932,0.0,0.0,0.0,1.0
1624180436079489673,91,1624180436079238033,0.0008165900521817093,0.0018819604700865966,-0.00022785643249179088,0.0,0.0,0.0,1.0
1624180436125461634,92,1624180436125144100,0.0009008257643472461,0.0018162401640893222,-0.00041585335144134206,0.0,0.0,0.0,1.0
1624180436171749841,93,1624180436171449995,0.0008271403855815151,0.0019109739075702237,-0.00010797319859889853,0.0,0.0,0.0,1.0
1624180436222821051,94,1624180436222354984,0.0003809642489613907,0.0018930092122673159,-0.0009272202460444134,0.0,0.0,0.0,1.0
1624180436269541772,95,1624180436269092893,0.0008100498350813723,0.001910846772716468,-0.0005269801696954346,0.0,0.0,0.0,1.0
1624180436317567594,96,1624180436316954946,0.00048489169239473995,0.001770892882291264,-0.000911871752695248,0.0,0.0,0.0,1.0
1624180436383960558,97,1624180436383404111,0.0008013389556253969,0.0018044256958091864,-0.0009435279472107538,0.0,0.0,0.0,1.0
1624180436431750259,98,1624180436431330060,0.0007365201206539496,0.0016155828160435703,-0.0013155166680363095,0.0,0.0,0.0,1.0
1624180436498150537,99,1624180436497454977,0.0004885832349827979,0.0016988547366736384,-0.0011864266842742666,0.0,0.0,0.0,1.0
1624180436580132618,100,1624180436579868888,0.0003544901474015205,0.001691527054163089,-0.0013182527102273411,0.0,0.0,0.0,1.0
1624180436629134212,101,1624180436628903007,0.0003313711574719491,0.0017224095460051103,-0.001217193504736258,0.0,0.0,0.0,1.0
1624180436676157287,102,1624180436675911998,0.0006047782464975171,0.0018473121243687274,-0.0009302578409027262,0.0,0.0,0.0,1.0
1624180436725980074,103,1624180436725477075,0.00034914698744614725,0.0017975508312702004,-0.0009141019119596194,0.0,0.0,0.0,1.0
1624180436773776573,104,1624180436773336029,0.0007851817720165855,0.0017062590557088697,-0.0013340347628059135,0.0,0.0,0.0,1.0
1624180436826075933,105,1624180436824908113,0.0007653099175968237,0.001607231481443705,-0.0017307195248221774,0.0,0.0,0.0,1.0
1624180436871226022,106,1624180436870740032,0.0004311903155667096,0.0016509686532799606,-0.0014151713176779879,0.0,0.0,0.0,1.0
1624180436924469206,107,1624180436923309898,0.0005769088111264864,0.001736231851850789,-0.0013795422291593695,0.0,0.0,0.0,1.0
1624180436971008154,108,1624180436970424032,0.00041269331177318236,0.0017000728744278604,-0.0016456636810531222,0.0,0.0,0.0,1.0
1624180437021355662,109,1624180437020788049,0.00036587496106221806,0.0017886820678540971,-0.0013406251449765705,0.0,0.0,0.0,1.0
1624180437067348746,110,1624180437066718912,0.00043199872379773296,0.0016908944074884857,-0.00166609120228145,0.0,0.0,0.0,1.0
1624180437132157733,111,1624180437131845092,0.0007750486283839564,0.0017066478387732786,-0.0013403672693819146,0.0,0.0,0.0,1.0
1624180437178949348,112,1624180437178706026,0.0004337078087246482,0.0018720224771868743,-0.0013725797488284286,0.0,0.0,0.0,1.0
1624180437231162946,113,1624180437230745887,0.0011581474550439452,0.001427934242997253,-0.0017123223321071634,0.0,0.0,0.0,1.0
1624180437278351800,114,1624180437277812099,0.0007768001298700256,0.0015986688270004379,-0.001349525446944,0.0,0.0,0.0,1.0
1624180437331265479,115,1624180437330799913,0.00046650771764689125,0.0017680947790950086,-0.0013421477294954798,0.0,0.0,0.0,1.0
1624180437379341605,116,1624180437378717994,0.000597715267986132,0.0016411512475542622,-0.0013243085166187996,0.0,0.0,0.0,1.0
1624180437447466308,117,1624180437447002029,0.0003718619809660595,0.0017818504908291288,-0.0013623061928136337,0.0,0.0,0.0,1.0
1624180437493319742,118,1624180437492924070,0.0003593233880110347,0.0016901664458828236,-0.0013197576920020992,0.0,0.0,0.0,1.0
1624180437542648425,119,1624180437541811084,0.0003657695226593205,0.0018286528222688503,-0.0011867870616057985,0.0,0.0,0.0,1.0
1624180437589295201,120,1624180437588718032,0.0003896946491295239,0.0018884955521798474,-0.0009378560191422025,0.0,0.0,0.0,1.0
1624180437638815911,121,1624180437638053989,0.0005565350334109098,0.0018563120615908701,-0.0009328768764405027,0.0,0.0,0.0,1.0
1624180437685480628,122,1624180437684880113,0.0004471732936508488,0.0017701163529864061,-0.0013493020111781107,0.0,0.0,0.0,1.0
1624180437739089105,123,1624180437738462066,0.00034536153407316306,0.0016948064563848675,-0.001312677700294529,0.0,0.0,0.0,1.0
1624180437785536645,124,1624180437785261011,0.0007308603553610737,0.0017134326351424534,-0.0013483835823464574,0.0,0.0,0.0,1.0
1624180437832307855,125,1624180437832039928,0.0007537198023328529,0.0016116902536396083,-0.0013172163430930084,0.0,0.0,0.0,1.0
1624180437878856924,126,1624180437878208971,0.000778661966933214,0.0017074885691954478,-0.0013343378596957223,0.0,0.0,0.0,1.0
1624180437944689459,127,1624180437944417095,0.0007554657272521581,0.0016625365399249858,-0.0011200682052816546,0.0,0.0,0.0,1.0
1624180437994545020,128,1624180437994318103,0.0003598063753997849,0.0017927569239191143,-0.000924326406885001,0.0,0.0,0.0,1.0
1624180438041462104,129,1624180438041127061,0.0007945223424030701,0.0017778189790078613,-0.001051253548951081,0.0,0.0,0.0,1.0
1624180438081792186,130,1624180438081473922,0.000797238913264664,0.0018009109151080338,-0.0013655269723926722,0.0,0.0,0.0,1.0
1624180438176726739,131,1624180438175752973,0.0005481644213887193,0.0018546129174410453,-0.0009458878424446482,0.0,0.0,0.0,1.0
1624180438223080787,132,1624180438222657060,0.0007829782673525187,0.0018121300445272936,-0.0009280466788190722,0.0,0.0,0.0,1.0
1624180438267436689,133,1624180438267077064,0.000777227681965087,0.0016830198461548207,-0.0010243753284910895,0.0,0.0,0.0,1.0
1624180438319680679,134,1624180438319363927,0.0008021036123864178,0.0018606014858733033,-0.0007266108180274955,0.0,0.0,0.0,1.0
1624180438365454426,135,1624180438365165090,0.0008102849837996473,0.0018349388938077027,-0.0008191129916035322,0.0,0.0,0.0,1.0
1624180438413528908,136,1624180438413169002,0.0007546673998604092,0.001613350285992965,-0.0013100917285875369,0.0,0.0,0.0,1.0
1624180438462578776,137,1624180438461947059,0.00043778091958301957,0.0016781518457946731,-0.0013054025219894072,0.0,0.0,0.0,1.0
1624180438514568702,138,1624180438514374113,0.0005247209546723752,0.0017591143092658967,-0.0013317504704097871,0.0,0.0,0.0,1.0
1624180438562635553,139,1624180438562354898,0.0005223930650117836,0.0015482199573852995,-0.002145642798922154,0.0,0.0,0.0,1.0
1624180438612639900,140,1624180438612372970,0.00041870365566865075,0.0014981860185798723,-0.0024184173306238677,0.0,0.0,0.0,1.0
1624180438662873824,141,1624180438662613010,0.0007259682963649539,0.0014069070542745976,-0.0021272194401014133,0.0,0.0,0.0,1.0
1624180438715876869,142,1624180438715288972,0.00047588537108822493,0.001578613624474201,-0.0020645410616388915,0.0,0.0,0.0,1.0
1624180438762867327,143,1624180438762270069,0.0007804273459441902,0.0014406514161464656,-0.0023604811090827127,0.0,0.0,0.0,1.0
1624180438812963837,144,1624180438812558984,0.0002984498482874187,0.0014827621333779462,-0.002570717977558701,0.0,0.0,0.0,1.0
1624180438864402853,145,1624180438863951063,0.0003078326719787583,0.0014960479635419688,-0.002512310769418491,0.0,0.0,0.0,1.0
1624180438913867689,146,1624180438913306093,0.00031186547175821033,0.0014944172827426883,-0.002110199812104696,0.0,0.0,0.0,1.0
1624180438959913970,147,1624180438959677076,0.00031939953737492033,0.0014854216334470038,-0.0025442914668261096,0.0,0.0,0.0,1.0
1624180439013188431,148,1624180439012945985,0.00045765825916532776,0.001411222164733772,-0.002723179697269984,0.0,0.0,0.0,1.0
1624180439063091823,149,1624180439062833881,0.0006989012633766833,0.001407950260272628,-0.002549389196342844,0.0,0.0,0.0,1.0
1624180439112726253,150,1624180439111873960,0.00031130669094636687,0.0014838358761153359,-0.002556650144676098,0.0,0.0,0.0,1.0
1624180439161772420,151,1624180439161351060,0.00048629720140525023,0.0014316661596467384,-0.0022170602533400086,0.0,0.0,0.0,1.0
1624180439214912699,152,1624180439214320039,0.0005958262863714481,0.0015717905492920181,-0.001998143333072022,0.0,0.0,0.0,1.0
1624180439264330677,153,1624180439263671970,0.0007321714194858941,0.0014052617713105064,-0.002128762010926266,0.0,0.0,0.0,1.0
1624180439316483592,154,1624180439315928077,0.00032779327557364013,0.0015873036051061717,-0.0021454994960947715,0.0,0.0,0.0,1.0
1624180439363977652,155,1624180439363071060,0.000322982876923561,0.0014892165116862088,-0.002121636506839053,0.0,0.0,0.0,1.0
1624180439415467542,156,1624180439414510107,0.0006552791760441323,0.0017238198772702162,-0.0017720723815379813,0.0,0.0,0.0,1.0
1624180439463516102,157,1624180439462896919,0.0007429804541061458,0.001536263161028728,-0.002021249160083727,0.0,0.0,0.0,1.0
1624180439513438583,158,1624180439512986993,0.000765562416290777,0.001608182349514209,-0.002132144706560979,0.0,0.0,0.0,1.0
1624180439562684688,159,1624180439562147951,0.00035758486183112836,0.0016894485171405904,-0.0017291543927733244,0.0,0.0,0.0,1.0
1624180439610464907,160,1624180439610050058,0.0006636397451984521,0.00160253587466741,-0.0018273570222078206,0.0,0.0,0.0,1.0
1624180439660896978,161,1624180439660333013,0.0005576003504756954,0.001701421408142778,-0.001528508018157737,0.0,0.0,0.0,1.0
1624180439714468294,162,1624180439714046096,0.0007700854771428567,0.0016483806176665894,-0.0015685755003254087,0.0,0.0,0.0,1.0
1624180439764028816,163,1624180439763552999,0.00037850830813113134,0.00168936712282175,-0.0013080123544568778,0.0,0.0,0.0,1.0
1624180439814552494,164,1624180439814112997,0.0007874144400830119,0.0018946431051745094,-0.0006068698259262817,0.0,0.0,0.0,1.0
1624180439864276447,165,1624180439863241052,0.0008164735208993079,0.0018043036019435021,-0.0009323037790949229,0.0,0.0,0.0,1.0
1624180439914732541,166,1624180439914188003,0.0007996223341706354,0.0018016534695561859,-0.000955529816550893,0.0,0.0,0.0,1.0
1624180439962234021,167,1624180439961665010,0.0004042138698423514,0.001886922995936402,-0.0009326931311974818,0.0,0.0,0.0,1.0
1624180440013754454,168,1624180440013095951,0.00039360486198347644,0.0018827039353936925,-0.0005518342676111843,0.0,0.0,0.0,1.0
1624180440063303419,169,1624180440062678909,0.0008124139826577448,0.0019099082475122486,-0.0005287675837628569,0.0,0.0,0.0,1.0
1624180440113565816,170,1624180440113122081,0.0008086311199804186,0.0018548072154089823,-0.000743880184057133,0.0,0.0,0.0,1.0
1624180440160619069,171,1624180440160184955,0.0007749569788302324,0.0017119648362040607,-0.0009146670264783552,0.0,0.0,0.0,1.0
1624180440213302824,172,1624180440212835884,0.0008094823842839105,0.0018074596221140382,-0.0009255523653948217,0.0,0.0,0.0,1.0
1624180440264035388,173,1624180440263573980,0.001133580247142163,0.0017615677052162937,-0.0008518458251032257,0.0,0.0,0.0,1.0
1624180440315312563,174,1624180440314885950,0.0008137713007272396,0.001806905434023065,-0.0009243724608474224,0.0,0.0,0.0,1.0
1624180440363418094,175,1624180440362808084,0.0011769834468395857,0.0018062351786056752,-0.0006462979024313142,0.0,0.0,0.0,1.0
1624180440417693152,176,1624180440416899061,0.0007873871384163067,0.00170347678761118,-0.0013430446508237992,0.0,0.0,0.0,1.0
1624180440459964866,177,1624180440459384059,0.0010794100380735472,0.0015443388107314604,-0.0013249172385130237,0.0,0.0,0.0,1.0
1624180440513747716,178,1624180440513474082,0.0008070497499375051,0.001602857327611673,-0.001310023289104123,0.0,0.0,0.0,1.0
1624180440561505504,179,1624180440561244106,0.0007528283474584896,0.0016079100649903921,-0.0017377505050859554,0.0,0.0,0.0,1.0
1624180440613699363,180,1624180440613443946,0.0007972902560595685,0.0017043130823140018,-0.0013321723611205982,0.0,0.0,0.0,1.0
1624180440695213955,181,1624180440694105005,0.0007748461514438532,0.0017095008478236196,-0.0013295373876189842,0.0,0.0,0.0,1.0
1624180440737798285,182,1624180440736894941,0.0007923125692741451,0.0016871159893980803,-0.0014022407289289163,0.0,0.0,0.0,1.0
1624180440778820216,183,1624180440778293943,0.0007702590610279003,0.0016571240633993511,-0.0015347725870569207,0.0,0.0,0.0,1.0
1624180440870005923,184,1624180440869462108,0.0007805250843375688,0.001703499572158762,-0.0013482590493438806,0.0,0.0,0.0,1.0
1624180440922853553,185,1624180440922082996,0.000703853991581127,0.0016212587503332543,-0.0013189000944535678,0.0,0.0,0.0,1.0
1624180440968864802,186,1624180440968140935,0.00044164583846395544,0.0016778694517824988,-0.001303503691875818,0.0,0.0,0.0,1.0
1624180441018578064,187,1624180441017973041,0.000672109719744185,0.0017299732758147002,-0.0013300840322330032,0.0,0.0,0.0,1.0
1624180441063830250,188,1624180441063447093,0.0006653437544628105,0.0017294490862695966,-0.0013373304335182468,0.0,0.0,0.0,1.0
1624180441113559807,189,1624180441113350963,0.0007845384982374526,0.0017071847076977065,-0.0013309673154857649,0.0,0.0,0.0,1.0
1624180441160534948,190,1624180441160261011,0.001116258526508318,0.0016423574958253084,-0.001324288607317925,0.0,0.0,0.0,1.0
1624180441213054807,191,1624180441212823963,0.0007645106743439101,0.0016094724933282123,-0.0013174186285560552,0.0,0.0,0.0,1.0
1624180441263539101,192,1624180441262825107,0.0007634860273810773,0.0016110894838448075,-0.0013119836631645398,0.0,0.0,0.0,1.0
1624180441315895095,193,1624180441315267896,0.0007939413653730298,0.0017024595887278338,-0.001341897376185841,0.0,0.0,0.0,1.0
1624180441364894331,194,1624180441364204025,0.000376393466922309,0.0017793539572039663,-0.0017737069866790023,0.0,0.0,0.0,1.0
1624180441416172067,195,1624180441415560102,0.0005554865047088242,0.00164774055849648,-0.0017368519080775968,0.0,0.0,0.0,1.0
1624180441463123006,196,1624180441462198114,0.0007466738236416859,0.001505213352515966,-0.002137957341965091,0.0,0.0,0.0,1.0
1624180441514418715,197,1624180441514174079,0.0007472827062429133,0.0016007342221655563,-0.002174948474259253,0.0,0.0,0.0,1.0
1624180441562374058,198,1624180441561958885,0.0006293589694905677,0.001222891233737755,-0.0033156858815743817,0.0,0.0,0.0,1.0
1624180441613527715,199,1624180441613231992,0.0003911172625521431,0.0014785680052682437,-0.0033257989770909546,0.0,0.0,0.0,1.0
1624180441662907399,200,1624180441662531948,0.0002986880185744667,0.0014276620217970049,-0.003187961258731775,0.0,0.0,0.0,1.0
1624180441713377293,201,1624180441712879037,0.00031323841699304467,0.0016227506195036767,-0.002425527270158767,0.0,0.0,0.0,1.0
1624180441781992402,202,1624180441781225061,0.0007033763401977922,0.00140250946208198,-0.002566881730725612,0.0,0.0,0.0,1.0
1624180441829927292,203,1624180441829356050,0.0007295723405604804,0.0013916505513407174,-0.0025884547794561286,0.0,0.0,0.0,1.0
1624180441872353790,204,1624180441871861076,0.0006884332944991911,0.0013999698170437114,-0.0029934719710951185,0.0,0.0,0.0,1.0
1624180441967442153,205,1624180441966971969,0.0008733913664400461,0.0015469096064180121,-0.0018794906135113365,0.0,0.0,0.0,1.0
1624180442017821614,206,1624180442017429924,0.0007400671063351183,0.0016061347359936917,-0.0017544468696328863,0.0,0.0,0.0,1.0
1624180442063465849,207,1624180442063016986,0.0010650283963968832,0.0015667282024196538,-0.0016551031820739581,0.0,0.0,0.0,1.0
1624180442115470218,208,1624180442114892101,0.0007830970941995474,0.0016981781927825068,-0.0017720516863128921,0.0,0.0,0.0,1.0
1624180442162127263,209,1624180442161661958,0.0009631116265609307,0.0015108974730537739,-0.0019488383546466537,0.0,0.0,0.0,1.0
1624180442215184958,210,1624180442214620923,0.0007031718912458018,0.001407590586495644,-0.0025474745322391357,0.0,0.0,0.0,1.0
1624180442263410093,211,1624180442262811994,0.0003443698046794452,0.0016938854096224532,-0.0017222796768443516,0.0,0.0,0.0,1.0
1624180442313025781,212,1624180442312420940,0.0003995442027644458,0.0016811670620882069,-0.0017286243481322572,0.0,0.0,0.0,1.0
1624180442365624872,213,1624180442365027046,0.0007748098382762691,0.0016026656084022761,-0.0017409611720218265,0.0,0.0,0.0,1.0
1624180442416094155,214,1624180442415849065,0.0011222344942325435,0.0015336470831925908,-0.0017382873595046533,0.0,0.0,0.0,1.0
1624180442475132273,215,1624180442474887943,0.0007625193143212528,0.001602443219894667,-0.0017513139218401363,0.0,0.0,0.0,1.0
1624180442526292788,216,1624180442525960063,0.000358737933993325,0.0016873487394377662,-0.001736349128979242,0.0,0.0,0.0,1.0
1624180442575420655,217,1624180442575155115,0.0007536476030054473,0.0016156522721075817,-0.001707304471622706,0.0,0.0,0.0,1.0
1624180442623956817,218,1624180442623459911,0.0007754351977382612,0.001605296716434168,-0.0017303463432973842,0.0,0.0,0.0,1.0
1624180442672043562,219,1624180442671312904,0.000751438589531972,0.0015065030218011088,-0.0017240284280077844,0.0,0.0,0.0,1.0
1624180442723473349,220,1624180442723229026,0.0007674195312574739,0.0016113221439582048,-0.0013080484168384032,0.0,0.0,0.0,1.0
1624180442769172891,221,1624180442768946981,0.0007698926881403167,0.0017098780131163949,-0.0013319124209090205,0.0,0.0,0.0,1.0
1624180442820365968,222,1624180442819993114,0.0003821687525942252,0.0017840095201790973,-0.001346028642117858,0.0,0.0,0.0,1.0
1624180442866876885,223,1624180442866483068,0.0003569386387880513,0.0016986144885322574,-0.0012890686314719346,0.0,0.0,0.0,1.0
1624180442918073505,224,1624180442917380905,0.0007805079351328459,0.0017046310530304254,-0.0013439152105618746,0.0,0.0,0.0,1.0
1624180442963951332,225,1624180442962860918,0.0007921884994175343,0.0016593089683283324,-0.0011041219650991252,0.0,0.0,0.0,1.0
1624180443015836797,226,1624180443015467977,0.0007711561049745796,0.0016118202108827973,-0.0013032433075395033,0.0,0.0,0.0,1.0
1624180443064708646,227,1624180443064396953,0.000697445874038749,0.0016373826914559686,-0.0016670515212950932,0.0,0.0,0.0,1.0
1624180443112547367,228,1624180443112291908,0.0005705846472210396,0.0016455593627142662,-0.0017335854734383815,0.0,0.0,0.0,1.0
1624180443161979219,229,1624180443161652898,0.0007433595951624739,0.0015082612204651014,-0.001723500430639291,0.0,0.0,0.0,1.0
1624180443212388853,230,1624180443212061977,0.0007961148296544707,0.0017022144591010147,-0.0013411619350058857,0.0,0.0,0.0,1.0
1624180443262273467,231,1624180443261745071,0.0007914787247500499,0.0017281647733398131,-0.0016501055653499463,0.0,0.0,0.0,1.0
1624180443312457446,232,1624180443311898088,0.0009536320421830169,0.0015649727848767725,-0.00174793570946008,0.0,0.0,0.0,1.0
1624180443360991249,233,1624180443360060071,0.0010769261289169663,0.0014430252488182305,-0.0017169691428229328,0.0,0.0,0.0,1.0
1624180443416472324,234,1624180443416159963,0.0007778991757732001,0.0016052444883598582,-0.0017286436392467408,0.0,0.0,0.0,1.0
1624180443463923570,235,1624180443463697052,0.0011277457911091915,0.0014362725511318786,-0.001703704650665827,0.0,0.0,0.0,1.0
1624180443514078793,236,1624180443513757085,0.0007588519629280199,0.0016026471787427,-0.0017533621495928742,0.0,0.0,0.0,1.0
1624180443614274579,238,1624180443613613939,0.000751913834392326,0.0014968117238822742,-0.0025715339013814287,0.0,0.0,0.0,1.0
1624180443662146969,239,1624180443661511993,0.0007240933350658452,0.0014244157329130758,-0.00246652363594535,0.0,0.0,0.0,1.0
1624180443713361344,240,1624180443712706899,0.0007676127736431226,0.0015645109418755965,-0.0022987227725295156,0.0,0.0,0.0,1.0
1624180443761358139,241,1624180443760794973,0.0007358308457696694,0.0015079429022080149,-0.0021358246108640344,0.0,0.0,0.0,1.0
1624180443814122498,242,1624180443813309049,0.0010183641288676881,0.0016481563371826269,-0.0017828886201733951,0.0,0.0,0.0,1.0
1624180443862051305,243,1624180443861779069,0.0012014413521228562,0.0016152374653302104,-0.0017681903876862748,0.0,0.0,0.0,1.0
1624180443914335192,244,1624180443914004898,0.0007855559631479991,0.001697120450330658,-0.0017742248758167989,0.0,0.0,0.0,1.0
1624180443962222611,245,1624180443961984014,0.0007794375130742992,0.0016537678267241063,-0.0015406047183468274,0.0,0.0,0.0,1.0
1624180444014740793,246,1624180444014442062,0.001201299455942717,0.0016194240931781678,-0.0013468896906267958,0.0,0.0,0.0,1.0
1624180444066976715,247,1624180444065171098,0.0008120712320760504,0.0018040891281998483,-0.0009365312962508199,0.0,0.0,0.0,1.0
1624180444114608962,248,1624180444114132022,0.0007856605129745731,0.0017018925880165625,-0.0013504791827614326,0.0,0.0,0.0,1.0
1624180444160623756,249,1624180444160188055,0.0008062825854722178,0.001752402830675237,-0.0011400399066303635,0.0,0.0,0.0,1.0
1624180444211491379,250,1624180444210687017,0.0007909131813903514,0.0016947743421269479,-0.0017791197473968623,0.0,0.0,0.0,1.0
1624180444259910777,251,1624180444259288883,0.0007690000520597096,0.0016027036783725634,-0.0017453035666434857,0.0,0.0,0.0,1.0
1624180444313562689,252,1624180444312897062,0.0008154792440109304,0.001797617161173548,-0.0013641166614632994,0.0,0.0,0.0,1.0
1624180444362254691,253,1624180444361528968,0.0007609824685914646,0.0016088978328525627,-0.0017276465323341483,0.0,0.0,0.0,1.0
1624180444415272742,254,1624180444414855098,0.0007419860712616355,0.0015052668222779175,-0.0021413734177819777,0.0,0.0,0.0,1.0
1624180444463701227,255,1624180444463226890,0.0008561172555801022,0.0014797857926396318,-0.0021513083922108933,0.0,0.0,0.0,1.0
1624180444515647593,256,1624180444515262937,0.0007695396761846496,0.0015965405873430427,-0.0021738999039122575,0.0,0.0,0.0,1.0
1624180444564513702,257,1624180444564179039,0.0007401089733320987,0.0015016940915302257,-0.0021565810253640905,0.0,0.0,0.0,1.0
1624180444613274783,258,1624180444613036012,0.0009369687809339666,0.0014150599656659324,-0.0023380728153270525,0.0,0.0,0.0,1.0
1624180444663537667,259,1624180444663242912,0.0009986705329083634,0.001389937131420993,-0.0019818602970467225,0.0,0.0,0.0,1.0
1624180444717388686,260,1624180444714886999,0.0007945955223931378,0.0016958175946228948,-0.0017722572882057364,0.0,0.0,0.0,1.0
1624180444762457716,261,1624180444761901950,0.0008377182994081522,0.001588401421031449,-0.0017472814510561818,0.0,0.0,0.0,1.0
1624180444812447284,262,1624180444811949110,0.0007702907050770591,0.0016021264115124723,-0.001746529217648174,0.0,0.0,0.0,1.0
1624180444860986341,263,1624180444860705947,0.0007705425759922946,0.001649023875529565,-0.001971030085478276,0.0,0.0,0.0,1.0
1624180444915442498,264,1624180444915212965,0.0006851828618437139,0.0013053719121671747,-0.0029549683828129503,0.0,0.0,0.0,1.0
1624180444964623839,265,1624180444964408016,0.001105679709553442,0.0014157476398395374,-0.0026103427624875053,0.0,0.0,0.0,1.0
1624180445014945773,266,1624180445014614915,0.0008176497074146027,0.0014815934728176217,-0.0021740695726286674,0.0,0.0,0.0,1.0
1624180445066213430,267,1624180445065385913,0.001022008072141034,0.00161231271295037,-0.0019180958373503643,0.0,0.0,0.0,1.0
1624180445114892927,268,1624180445114358997,0.0007478934871869569,0.0015039380646157952,-0.002141925644217224,0.0,0.0,0.0,1.0
1624180445160992198,269,1624180445160200929,0.0006841905947112537,0.001591664030343054,-0.002258621940292471,0.0,0.0,0.0,1.0
1624180445214776882,270,1624180445214140987,0.0007583963613342348,0.0016003781888684898,-0.0021677325267823733,0.0,0.0,0.0,1.0
1624180445263391225,271,1624180445262602901,0.0007566912270249304,0.0016476001177352373,-0.0019872147732691303,0.0,0.0,0.0,1.0
1624180445314944667,272,1624180445314179039,0.0007769467865728075,0.0015952682404076768,-0.0021730761788205655,0.0,0.0,0.0,1.0
1624180445361456182,273,1624180445361017084,0.0007709530857482605,0.0015960296803996243,-0.002174775155527442,0.0,0.0,0.0,1.0
1624180445415049632,274,1624180445414573049,0.0007092718053627323,0.001415974502606332,-0.0025104787645631177,0.0,0.0,0.0,1.0
1624180445464129495,275,1624180445463588094,0.0007498078330172575,0.0015017614229009268,-0.002148827986111712,0.0,0.0,0.0,1.0
1624180445515819460,276,1624180445515333986,0.0004514497120453598,0.0015224913566953546,-0.0022995269058299073,0.0,0.0,0.0,1.0
1624180445564502584,277,1624180445564235067,0.0005521489340480912,0.001592660853475536,-0.0019515257137463493,0.0,0.0,0.0,1.0
1624180445615830346,278,1624180445615564918,0.00034739673537842464,0.0016912859612148168,-0.0017299506860055658,0.0,0.0,0.0,1.0
1624180445662668911,279,1624180445662452077,0.0007676518926018616,0.0016039841335668825,-0.0017414145739067521,0.0,0.0,0.0,1.0
1624180445713258188,280,1624180445712876892,0.0007689906462928775,0.0017034587650641697,-0.0017626172141191887,0.0,0.0,0.0,1.0
1624180445760741097,281,1624180445760057067,0.0006858459610157297,0.0017001875412461231,-0.0018394559851486747,0.0,0.0,0.0,1.0
1624180445814578746,282,1624180445814097023,0.0007359865048783831,0.0015130410820347606,-0.0017107914568690319,0.0,0.0,0.0,1.0
1624180445864275883,283,1624180445863576984,0.0011940384679292038,0.0016161066971562832,-0.0017705632835962604,0.0,0.0,0.0,1.0
1624180445914533028,284,1624180445914013004,0.001144652443826999,0.0014222176183693591,-0.0021500436724082306,0.0,0.0,0.0,1.0
1624180445962970673,285,1624180445962215995,0.0011506582950460142,0.0014521636459221554,-0.002030091747922569,0.0,0.0,0.0,1.0
1624180446016161082,286,1624180446015699005,0.0007388820904452587,0.0015135057393536044,-0.001706764892649204,0.0,0.0,0.0,1.0
1624180446064749767,287,1624180446064404106,0.0011757771812881401,0.0015197361132095466,-0.0017504831915680086,0.0,0.0,0.0,1.0
1624180446114496331,288,1624180446114240980,0.0007527704717631423,0.0016074731270236953,-0.001739477745339002,0.0,0.0,0.0,1.0
1624180446213894069,290,1624180446213557100,0.001184375077173172,0.00162016740762283,-0.0017623933734114416,0.0,0.0,0.0,1.0
1624180446264216049,291,1624180446263463115,0.0011619666327078448,0.0014932662584214995,-0.001863081599445593,0.0,0.0,0.0,1.0
1624180446313401151,292,1624180446312847948,0.0010115098111782572,0.0015561722672146061,-0.0017371035236948273,0.0,0.0,0.0,1.0
1624180446361789172,293,1624180446360958909,0.000811575934449138,0.0015990589344028194,-0.0017264416843687513,0.0,0.0,0.0,1.0
1624180446408041807,294,1624180446407688951,0.0011896283583610057,0.0016194716063182568,-0.0017610136024721612,0.0,0.0,0.0,1.0
1624180446464603952,295,1624180446464234924,0.0006571228996108402,0.0016255170310159883,-0.001743898674483546,0.0,0.0,0.0,1.0
1624180446516930593,296,1624180446516692972,0.00035225466513111314,0.0016946977381167017,-0.001713059455742183,0.0,0.0,0.0,1.0
1624180446566001890,297,1624180446565742111,0.00047178362024169473,0.0016351050838920855,-0.0018501801217425395,0.0,0.0,0.0,1.0
1624180446617436639,298,1624180446616191005,0.000748314552993179,0.0016113873639369558,-0.0017278480537648022,0.0,0.0,0.0,1.0
1624180446662761229,299,1624180446662319040,0.0004164695178587863,0.0017763120360996254,-0.0017544561037432516,0.0,0.0,0.0,1.0
1624180446717457372,300,1624180446716166114,0.0007733823608759849,0.0017068460787186268,-0.0017461803401168652,0.0,0.0,0.0,1.0
1624180446762348176,301,1624180446761883115,0.000785976634688268,0.0018064969336819559,-0.0013527184817299087,0.0,0.0,0.0,1.0
1624180446814962168,302,1624180446814545011,0.0007832686565052427,0.0017338669600803769,-0.001634491590550624,0.0,0.0,0.0,1.0
1624180446861984728,303,1624180446861399984,0.0007709843039265252,0.001713270817049306,-0.0013180039847000558,0.0,0.0,0.0,1.0
1624180446915077286,304,1624180446913884019,0.0007857649256948207,0.001705574587163028,-0.0013362199167161748,0.0,0.0,0.0,1.0
1624180446964699345,305,1624180446964089965,0.0007441082875629945,0.001609080518051087,-0.0017399810639879831,0.0,0.0,0.0,1.0
1624180447017888214,306,1624180447016953086,0.0007054959469314781,0.0014076679076424625,-0.002545381170570238,0.0,0.0,0.0,1.0
1624180447065382317,307,1624180447064612007,0.0007707681390911603,0.001608891984346883,-0.0021253899732620596,0.0,0.0,0.0,1.0
1624180447114914538,308,1624180447114647006,0.0003702251815411728,0.0017888982273461806,-0.0013364315358224133,0.0,0.0,0.0,1.0
1624180447162043824,309,1624180447161829090,0.0004898452896213712,0.0019493781970822965,-0.0010313213295667367,0.0,0.0,0.0,1.0
1624180447213717362,310,1624180447213380908,0.0008084109877017909,0.001887064455786458,-0.0006198305567473028,0.0,0.0,0.0,1.0
1624180447262116025,311,1624180447261640882,0.0009693870581486408,0.0017514755412548766,-0.001017581694295444,0.0,0.0,0.0,1.0
1624180447313717787,312,1624180447313237047,0.0006273575083923788,0.0014060170955190188,-0.002612109488211445,0.0,0.0,0.0,1.0
1624180447361563700,313,1624180447361070013,0.0007305601270672923,0.0014031939397227688,-0.002543243128254602,0.0,0.0,0.0,1.0
1624180447414156711,314,1624180447413889026,0.0007785764969412412,0.0017134252481127987,-0.0013115430007175632,0.0,0.0,0.0,1.0
1624180447478319206,315,1624180447478001928,0.000979455646529459,0.0016657936370165771,-0.001745035925630134,0.0,0.0,0.0,1.0
1624180447522965994,316,1624180447522724008,0.000634071798685909,0.001736444785024105,-0.0017398434402942087,0.0,0.0,0.0,1.0
1624180447569936220,317,1624180447569685077,0.0007673399484247057,0.001706042892806181,-0.001753941909438339,0.0,0.0,0.0,1.0
1624180447619519307,318,1624180447619090890,0.00032703013926038693,0.0016092992815401885,-0.0020613915436591412,0.0,0.0,0.0,1.0
1624180447668464965,319,1624180447667786931,0.0007261267339799815,0.001605062954809,-0.001769345122756505,0.0,0.0,0.0,1.0
1624180447715100776,320,1624180447714660978,0.0007526835374846996,0.0016755286715124385,-0.0018827674294890073,0.0,0.0,0.0,1.0
1624180447762100960,321,1624180447761603927,0.0007179152596563654,0.0015112003673038998,-0.002137123671737129,0.0,0.0,0.0,1.0
1624180447847633157,322,1624180447847014045,0.0007415506254346838,0.0016028962901373234,-0.0021710519977986564,0.0,0.0,0.0,1.0
1624180447891305199,323,1624180447890721893,0.0006844277602340298,0.001517560946354024,-0.0021385052776246027,0.0,0.0,0.0,1.0
1624180447940511499,324,1624180447940044975,0.0007370965524842177,0.0015695383229967774,-0.002302942329450275,0.0,0.0,0.0,1.0
1624180447988700906,325,1624180447988186931,0.0005009719102417876,0.0015851973852250012,-0.0020198064803764737,0.0,0.0,0.0,1.0
1624180448029487196,326,1624180448028385972,0.00040114842545335705,0.001679477526181472,-0.002139172445172477,0.0,0.0,0.0,1.0
1624180448074119161,327,1624180448073372936,0.0011149532624585845,0.0012424123368646178,-0.0028653422682936025,0.0,0.0,0.0,1.0
1624180448122830901,328,1624180448122135972,0.0007656203465558065,0.0015189858207804718,-0.0024755609408089185,0.0,0.0,0.0,1.0
1624180448169863467,329,1624180448169426059,0.0007025097729638219,0.001357479911689552,-0.002740939311841828,0.0,0.0,0.0,1.0
1624180448217424887,330,1624180448217202043,0.0006787728045765107,0.0012846032126390128,-0.0026346257442959597,0.0,0.0,0.0,1.0
1624180448264364686,331,1624180448264014101,0.000687336143300854,0.0013623493332488579,-0.002733912962259666,0.0,0.0,0.0,1.0
1624180448318067553,332,1624180448317467069,0.0007292104751286388,0.0015179379175833674,-0.0025077274248808124,0.0,0.0,0.0,1.0
1624180448361605085,333,1624180448361164903,0.0010593205818167917,0.001355343148816246,-0.002473482617503464,0.0,0.0,0.0,1.0
1624180448414273217,334,1624180448413915967,0.0005593094128926168,0.0017179896070729228,-0.0018686740509785693,0.0,0.0,0.0,1.0
1624180448480884426,335,1624180448480367040,0.0008171507984116033,0.0019306895210320363,-0.0004450798424144864,0.0,0.0,0.0,1.0
1624180448528446897,336,1624180448528189992,0.0008651829277823708,0.0021129482389596888,-0.00011140102174778121,0.0,0.0,0.0,1.0
1624180448575536036,337,1624180448575090980,0.000706141992168341,0.001987409540106455,-0.00031243030631245006,0.0,0.0,0.0,1.0
1624180448665699586,338,1624180448665422058,0.0008241882098900533,0.0019297625253784645,-0.00044321179262141186,0.0,0.0,0.0,1.0
1624180448717576426,339,1624180448717192983,0.000776865591888054,0.0017303356863749286,-0.0012477463050117876,0.0,0.0,0.0,1.0
1624180448762075189,340,1624180448761461114,0.0007717787157162093,0.0017309249022900985,-0.001249407866982466,0.0,0.0,0.0,1.0
1624180448815107195,341,1624180448814606046,0.0007626336234807241,0.0016271838368311364,-0.0016559564678573224,0.0,0.0,0.0,1.0
1624180448862537152,342,1624180448862092113,0.001039353660416964,0.001774451479718664,-0.001280339102372352,0.0,0.0,0.0,1.0
1624180448914022344,343,1624180448913340902,0.0007995265725639911,0.001823372983722038,-0.001277262547507263,0.0,0.0,0.0,1.0
1624180448961879997,344,1624180448961392974,0.0008248339634064905,0.0018974387006664983,-0.0009724933625854248,0.0,0.0,0.0,1.0
1624180449017277513,345,1624180449016512966,0.0007904365213562414,0.0018246674123929552,-0.0012793016390517664,0.0,0.0,0.0,1.0
1624180449065573547,346,1624180449064730024,0.0007822419077001541,0.0017296460736133668,-0.0012462477060672938,0.0,0.0,0.0,1.0
1624180449115696541,347,1624180449115186071,0.0007847504787150683,0.0017259648485605794,-0.0012584850588268637,0.0,0.0,0.0,1.0
1624180449163646676,348,1624180449163237905,0.001185163034051584,0.0016420852253986595,-0.001272095005816709,0.0,0.0,0.0,1.0
1624180449217231723,349,1624180449216770029,0.0007797622367888835,0.0017324305194961198,-0.0012374413374871551,0.0,0.0,0.0,1.0
1624180449264169044,350,1624180449263558959,0.0007782293939726515,0.0017188306341040516,-0.0016962860690803439,0.0,0.0,0.0,1.0
1624180449314886577,351,1624180449313943958,0.001128434022575675,0.0016536765558612387,-0.0016765836254073463,0.0,0.0,0.0,1.0
1624180449361529677,352,1624180449361043071,0.0012399609013300505,0.0017882398569781799,-0.001072233911031617,0.0,0.0,0.0,1.0
1624180449416392311,353,1624180449415900087,0.0008030068784137256,0.0018267400964759872,-0.0008563093281317435,0.0,0.0,0.0,1.0
1624180449465913826,354,1624180449465308046,0.0008314235224133881,0.002023205324007904,-0.00048308619699355404,0.0,0.0,0.0,1.0
1624180449515090633,355,1624180449514496898,0.0008256666494617093,0.0019293535326596611,-0.00044364440183031206,0.0,0.0,0.0,1.0
1624180449562488728,356,1624180449562239980,0.0011685280430810963,0.0019370628469914664,-0.000554330606352238,0.0,0.0,0.0,1.0
1624180449615823236,357,1624180449615558958,0.00125472925901704,0.0019429294538895192,-0.0004651288767725248,0.0,0.0,0.0,1.0
1624180449664602806,358,1624180449664373970,0.001262187053271191,0.001984667725196232,-0.0002986333026093746,0.0,0.0,0.0,1.0
1624180449714730072,359,1624180449714447116,0.0012774187166542106,0.002047434580731533,-4.5147637585785105e-05,0.0,0.0,0.0,1.0
1624180449764325427,360,1624180449763947105,0.0013035889410275558,0.0018344919612900412,-0.000439651817355724,0.0,0.0,0.0,1.0
1624180449814159227,361,1624180449813648080,0.0010540128741922672,0.001990673013892774,-3.105555430948925e-05,0.0,0.0,0.0,1.0
1624180449862270792,362,1624180449861794090,0.0012498817782216065,0.0018988746002150947,-0.0006385270250497399,0.0,0.0,0.0,1.0
1624180449942970259,363,1624180449942706918,0.000807110015557555,0.001935510069756674,-0.00043427471978318977,0.0,0.0,0.0,1.0
1624180449988016738,364,1624180449987770891,0.0011593635392728174,0.0018638107915194269,-0.0004381933568673446,0.0,0.0,0.0,1.0
1624180450035910130,365,1624180450035512065,0.0010814338133968704,0.0018803876282618148,-0.00043457478917829917,0.0,0.0,0.0,1.0
1624180450079393565,366,1624180450079022979,0.001250088139613581,0.0019430424199526897,-0.0004682801708533191,0.0,0.0,0.0,1.0
1624180450126455394,367,1624180450126071071,0.0011868108631460927,0.0018567734950920567,-0.00044408441943133425,0.0,0.0,0.0,1.0
1624180450170610552,368,1624180450170132970,0.0008397598835472309,0.0018290990398099893,-0.0004135207315201228,0.0,0.0,0.0,1.0
1624180450220830844,369,1624180450220354890,0.0008071623178693699,0.0018385212125622274,-0.0004024248167979749,0.0,0.0,0.0,1.0
1624180450269339605,370,1624180450268886899,0.001232750694725837,0.0018455851395628997,-0.0004516713069584455,0.0,0.0,0.0,1.0
1624180450323068355,371,1624180450322654104,0.0010570466738499817,0.0018175068291839125,-0.0006955686329312982,0.0,0.0,0.0,1.0
1624180450362078412,372,1624180450361600971,0.0011020952581475285,0.0018737080818027607,-0.00044433187332870716,0.0,0.0,0.0,1.0
1624180450413764904,373,1624180450413057899,0.0012364887491003174,0.002152913586201066,0.000329430349886195,0.0,0.0,0.0,1.0
1624180450463179879,374,1624180450462848997,0.0008036136009650363,0.0022338745219485645,0.000306717143892854,0.0,0.0,0.0,1.0
1624180450514243268,375,1624180450513997888,0.000748324468077044,0.00202800120291613,-0.00012351697898083103,0.0,0.0,0.0,1.0
1624180450562371821,376,1624180450562112903,0.0008272778936770919,0.001959147444267728,-0.0003276640507081652,0.0,0.0,0.0,1.0
1624180450614996119,377,1624180450614703989,0.0008174156789664266,0.0019303840458633204,-0.0004460515378497121,0.0,0.0,0.0,1.0
1624180450665146888,378,1624180450664616918,0.0008397223950851185,0.0019260387216490926,-0.00044554858571643763,0.0,0.0,0.0,1.0
1624180450716640312,379,1624180450716226911,0.0007651514390545344,0.0020452025887607306,-4.4271537468887345e-05,0.0,0.0,0.0,1.0
1624180450764795581,380,1624180450764166927,0.0010692468727029336,0.0018794026325394952,-0.00044778505765563636,0.0,0.0,0.0,1.0
1624180450816292122,381,1624180450815725898,0.0008208899237160949,0.0019069420717414687,-0.0005336407392491083,0.0,0.0,0.0,1.0
1624180450864664144,382,1624180450863797044,0.0008024384796954109,0.001830109275488212,-0.000843774228226124,0.0,0.0,0.0,1.0
1624180450915800172,383,1624180450915004110,0.0008125625297452643,0.0018350134748743585,-0.0004117601685891259,0.0,0.0,0.0,1.0
1624180450964453859,384,1624180450964037990,0.0008328374387929216,0.0019305495694652564,-0.000433497583024689,0.0,0.0,0.0,1.0
1624180451015017823,385,1624180451014576053,0.0008138983396293042,0.001905562310867026,-0.0009496603100380696,0.0,0.0,0.0,1.0
1624180451065307462,386,1624180451064874029,0.000833196942039649,0.0019291662498517326,-0.0004385468944327897,0.0,0.0,0.0,1.0
1624180451114457674,387,1624180451114046907,0.0008290941229915916,0.0019329527768832122,-2.182241317072453e-05,0.0,0.0,0.0,1.0
1624180451164674777,388,1624180451164146041,0.0007789526905526145,0.00205855924991738,-0.00038748424023893335,0.0,0.0,0.0,1.0
1624180451215270814,389,1624180451214696979,0.0008328868227636121,0.0019276855804264414,-0.0004444885173100488,0.0,0.0,0.0,1.0
1624180451263470531,390,1624180451262739992,0.0008006119587662397,0.001945013683553043,-0.0004026977929072473,0.0,0.0,0.0,1.0
1624180451317134797,391,1624180451316366052,0.0008923712800879002,0.002127002108522902,0.00036905067000958525,0.0,0.0,0.0,1.0
1624180451362382455,392,1624180451361903047,0.000901003402987044,0.0022479253258325116,0.0008414147732231925,0.0,0.0,0.0,1.0
1624180451415257716,393,1624180451414671993,0.0007843434857477405,0.002290433295911498,0.0009149719224694763,0.0,0.0,0.0,1.0
1624180451463930019,394,1624180451462814903,0.0007260847116867808,0.0023682855753577314,0.0011697794210761003,0.0,0.0,0.0,1.0
1624180451514930340,395,1624180451514443969,0.000506653341517449,0.002313166874387207,0.0011932750272443116,0.0,0.0,0.0,1.0
1624180451563746092,396,1624180451562801933,0.0005304665262428898,0.002515677451697229,0.001586262966295493,0.0,0.0,0.0,1.0
1624180451614451316,397,1624180451613588905,0.0005229156429322757,0.0024132535535272837,0.0015913055612344351,0.0,0.0,0.0,1.0
1624180451663403928,398,1624180451662737941,0.0005281744986405101,0.002478204950307372,0.0018455206639238497,0.0,0.0,0.0,1.0
1624180451716237927,399,1624180451715140914,0.0003740736847248627,0.002586182503591772,0.001736947826550761,0.0,0.0,0.0,1.0
1624180451764536066,400,1624180451764033889,0.0005186889598007838,0.0025155093369448878,0.0015765141883470335,0.0,0.0,0.0,1.0
1624180451815983692,401,1624180451815346097,0.0005126242456299224,0.002396085688928906,0.0015172336292650357,0.0,0.0,0.0,1.0
1624180451864703581,402,1624180451864199972,0.0006610003588320978,0.002326993948031486,0.0013657999171954316,0.0,0.0,0.0,1.0
1624180451912986943,403,1624180451912366008,0.0007429618137848593,0.002466527820615738,0.0015611815157328124,0.0,0.0,0.0,1.0
1624180451961677662,404,1624180451961404895,0.0005439883441340498,0.002531401146598,0.001657269600752187,0.0,0.0,0.0,1.0
1624180452013861430,405,1624180452013631916,0.00055840525919848,0.0026097058574805487,0.0019699920407312277,0.0,0.0,0.0,1.0
1624180452062757815,406,1624180452062523937,0.0004983109390650498,0.002408329186209812,0.0019586758733538545,0.0,0.0,0.0,1.0
1624180452113302618,407,1624180452112936115,0.0004358140668045962,0.0025138342583659323,0.001506020245233941,0.0,0.0,0.0,1.0
1624180452162290117,408,1624180452161641931,0.00011612427852014662,0.002531411313498211,0.0013266748271441031,0.0,0.0,0.0,1.0
1624180452214723802,409,1624180452214255905,0.0005202108395678806,0.0024928224058839987,0.0014903153860963414,0.0,0.0,0.0,1.0
1624180452265593510,410,1624180452264792060,0.0005109349392569129,0.0024133944109507866,0.001177246933576015,0.0,0.0,0.0,1.0
1624180452315714255,411,1624180452315157032,0.0005242574484327633,0.002463965216406905,0.0017876510604644125,0.0,0.0,0.0,1.0
1624180452363815316,412,1624180452363325929,0.0007040079863145365,0.002520298624062889,0.0017381690288758023,0.0,0.0,0.0,1.0
1624180452415280054,413,1624180452414661979,0.0005446268380637775,0.0025113185160989815,0.0015804178534928326,0.0,0.0,0.0,1.0
1624180452464371865,414,1624180452463385915,0.0008413437810759206,0.002375458394794805,0.0016918170422925982,0.0,0.0,0.0,1.0
1624180452515605036,415,1624180452515062904,0.0005340769250778976,0.0025156928843443893,0.0015891124008859947,0.0,0.0,0.0,1.0
1624180452562915012,416,1624180452562641954,0.0008088419981504558,0.0023824902826845573,0.0012884375525530345,0.0,0.0,0.0,1.0
1624180452612907306,417,1624180452612666940,0.0005043545254466153,0.0023668256206974547,0.0013981534853293454,0.0,0.0,0.0,1.0
1624180452680462645,418,1624180452680214023,0.0008690414958891779,0.002132822821863556,0.00037343900254427354,0.0,0.0,0.0,1.0
1624180452729610551,419,1624180452729347085,0.000899763621191596,0.002231543248399248,0.0007773662305581297,0.0,0.0,0.0,1.0
1624180452790573819,420,1624180452789856052,0.0009640858108923567,0.00211004936579684,0.00035918069947271647,0.0,0.0,0.0,1.0
1624180452840789536,421,1624180452840250110,0.0008876908595993882,0.0021890750895181554,0.0006044849758239934,0.0,0.0,0.0,1.0
1624180452898793257,422,1624180452898316955,0.0008763136659126758,0.002156566527787618,0.00047049830594758646,0.0,0.0,0.0,1.0
1624180452972786504,423,1624180452972222900,0.0008409517920426879,0.001963803914691198,0.00010614932319086279,0.0,0.0,0.0,1.0
1624180453019041250,424,1624180453018481111,0.0007112626531124988,0.001989067696854363,0.00010322734156886781,0.0,0.0,0.0,1.0
1624180453098997367,425,1624180453098421907,0.0006125002935277735,0.001981306468337607,-2.9770194380773773e-06,0.0,0.0,0.0,1.0
1624180453180448024,426,1624180453179921007,0.0004910186160032026,0.002354921182700309,0.0009366621988569079,0.0,0.0,0.0,1.0
1624180453231984393,427,1624180453231453990,0.0005023928601985972,0.002317088197287376,0.0012050847739288884,0.0,0.0,0.0,1.0
1624180453280385428,428,1624180453279807901,0.0004925452253701224,0.002409217831541355,0.0011469511737765004,0.0,0.0,0.0,1.0
1624180453331729373,429,1624180453330850934,8.68368902047223e-05,0.002395579604581144,0.0011862581148101015,0.0,0.0,0.0,1.0
1624180453378421675,430,1624180453377932882,0.00046797586901448085,0.002231142708410516,0.00044216420420184477,0.0,0.0,0.0,1.0
1624180453444728890,431,1624180453444121932,0.0004759555379223457,0.0022169723392835294,0.0007990867541636248,0.0,0.0,0.0,1.0
1624180453501770591,432,1624180453501258945,0.000756682449946311,0.002363831688171558,0.0011762711180232088,0.0,0.0,0.0,1.0
1624180453544254267,433,1624180453543404912,0.0004330309791384934,0.0019128305856384031,-0.0008106599153840932,0.0,0.0,0.0,1.0
1624180453589589119,434,1624180453589113092,0.00041208020638805465,0.001809941284591332,-0.0008177610099444621,0.0,0.0,0.0,1.0
1624180453639275736,435,1624180453638778066,0.00034698721515269426,0.0016517900327244206,-0.0014770681765732263,0.0,0.0,0.0,1.0
1624180453696462158,436,1624180453696199989,0.0003986799804351904,0.0018022463844999947,-0.001668335068377047,0.0,0.0,0.0,1.0
1624180453739086124,437,1624180453738716936,0.0003002162993652746,0.0014067123261156667,-0.002862185361841796,0.0,0.0,0.0,1.0
1624180453819081982,438,1624180453818844890,0.00033243130701521295,0.0016565275047923933,-0.0022806370794867803,0.0,0.0,0.0,1.0
1624180453881379345,439,1624180453881053066,0.00031072786464392266,0.001594306874949325,-0.0025369918743329833,0.0,0.0,0.0,1.0
1624180453933513740,440,1624180453932814931,0.0003480055081581668,0.0017038949350762778,-0.0020862093306703855,0.0,0.0,0.0,1.0
1624180454018280926,441,1624180454017752027,0.0005696166429061122,0.0015597159714388908,-0.002470164571249711,0.0,0.0,0.0,1.0
1624180454067681541,442,1624180454067221021,0.0007533393627454643,0.001507625138287949,-0.0021235203309508677,0.0,0.0,0.0,1.0
1624180454124391669,443,1624180454123519039,0.00028954933009117667,0.0015068200713130864,-0.002890225631343668,0.0,0.0,0.0,1.0
1624180454169882909,444,1624180454169391012,0.0007683460214593651,0.0015947578035593324,-0.0025869608278483724,0.0,0.0,0.0,1.0
1624180454216934518,445,1624180454216672992,0.0012772387838140276,0.0014777151284306456,-0.002239175783394387,0.0,0.0,0.0,1.0
1624180454264897637,446,1624180454264522886,0.0010873196886223013,0.0015637894715609946,-0.0016491954462729552,0.0,0.0,0.0,1.0
1624180454314851436,447,1624180454314570999,0.0007776594231927447,0.001625904172783521,-0.0016492742193712218,0.0,0.0,0.0,1.0
1624180454361051441,448,1624180454360768890,0.0009909179757414677,0.0016600517499227863,-0.0017582896811738635,0.0,0.0,0.0,1.0
1624180454415002020,449,1624180454414441919,0.00079622891598774,0.0016204271919377788,-0.00165601659652026,0.0,0.0,0.0,1.0
1624180454465270686,450,1624180454462627983,0.0007955655084970203,0.0016164059986749635,-0.002077296513370186,0.0,0.0,0.0,1.0
1624180454515493970,451,1624180454515009021,0.0011726010923212016,0.0015385471607487489,-0.002085784029080884,0.0,0.0,0.0,1.0
1624180454563106375,452,1624180454562860107,0.0007548798209882079,0.0017158421480871766,-0.001725835203586712,0.0,0.0,0.0,1.0
1624180454629230486,453,1624180454628986930,0.0007733758977792604,0.0017247977017404992,-0.001677058643412721,0.0,0.0,0.0,1.0
1624180454670884725,454,1624180454670362091,0.0004246520491051342,0.0015172426493563762,-0.0023404421342725357,0.0,0.0,0.0,1.0
1624180454725570971,455,1624180454725041007,0.001148697828512013,0.0015454597180450946,-0.0020776354480851467,0.0,0.0,0.0,1.0
1624180454771519550,456,1624180454771149969,0.0007381738623735146,0.001524276966506477,-0.0020711176445935564,0.0,0.0,0.0,1.0
1624180454823692478,457,1624180454823120927,0.0007516125535858009,0.0016284994807165276,-0.0016594058518428767,0.0,0.0,0.0,1.0
1624180454868442684,458,1624180454867951011,0.0007920189882497652,0.0016235253497143276,-0.0016473392981346535,0.0,0.0,0.0,1.0
1624180454918906446,459,1624180454917970037,0.0006639355128754687,0.0015364157026169778,-0.0020817355497193546,0.0,0.0,0.0,1.0
1624180454965564547,460,1624180454965143060,0.00042988859240722377,0.0016963343720135526,-0.00164677375801503,0.0,0.0,0.0,1.0
1624180455016452929,461,1624180455016122913,0.0007555877182312543,0.0016215954564131607,-0.0020882024986121905,0.0,0.0,0.0,1.0
1624180455065156427,462,1624180455064195013,0.0007609355814111041,0.0016189939175319523,-0.0020940881010957924,0.0,0.0,0.0,1.0
1624180455114502618,463,1624180455114240026,0.0005313875160481984,0.0015701769228826379,-0.0020541448743465196,0.0,0.0,0.0,1.0
1624180455162270167,464,1624180455162036037,0.0009152752147656429,0.001588472638559324,-0.0020923641591394926,0.0,0.0,0.0,1.0
1624180455222567067,465,1624180455222091054,0.0007737184610050463,0.0016254114923412999,-0.0016542164360764389,0.0,0.0,0.0,1.0
1624180455267597412,466,1624180455267272090,0.0011495114263198047,0.0016603199966311877,-0.001634715448620483,0.0,0.0,0.0,1.0
1624180455319189737,467,1624180455318379974,0.0009828888391893997,0.001680395011590008,-0.0016861574176658678,0.0,0.0,0.0,1.0
1624180455366355472,468,1624180455365202045,0.0011838756402084982,0.0016414397709922923,-0.001680865463917769,0.0,0.0,0.0,1.0
1624180455411384947,469,1624180455411141967,0.0009685634049674263,0.0015862928652268238,-0.0016543011050025314,0.0,0.0,0.0,1.0
1624180455463448229,470,1624180455462867116,0.0011851962888158596,0.0016404616814043038,-0.001683611375053573,0.0,0.0,0.0,1.0
1624180455515296532,471,1624180455514597988,0.0011609818700435426,0.0015466950027303028,-0.001658104260567228,0.0,0.0,0.0,1.0
1624180455563603010,472,1624180455562460994,0.0016022668216919556,0.0015671742869471927,-0.0012382631559404444,0.0,0.0,0.0,1.0
1624180455613438411,473,1624180455612963056,0.0011761438217945397,0.0016408947979016375,-0.0016889382329701164,0.0,0.0,0.0,1.0
1624180455663931420,474,1624180455663257932,0.001523293929949432,0.0015742726548069186,-0.0016772424902313787,0.0,0.0,0.0,1.0
1624180455715584106,475,1624180455715015029,0.0011848929586903978,0.0016399178562096495,-0.001685939872015041,0.0,0.0,0.0,1.0
1624180455765810283,476,1624180455765255069,0.000779136416667825,0.0017213126694741732,-0.0016860276120453932,0.0,0.0,0.0,1.0
1624180455815229544,477,1624180455814452981,0.0011607459582592128,0.0016303655062301914,-0.0013360921070066922,0.0,0.0,0.0,1.0
