%time,field.header.seq,field.header.stamp,field.pose.position.x,field.pose.position.y,field.pose.position.z,field.pose.orientation.x,field.pose.orientation.y,field.pose.orientation.z,field.pose.orientation.w
1623492988182796571,2,1623492988182362079,-1.7638562894717325e-06,7.37190930522047e-09,2.2507958021833474e-06,0.0,0.0,0.0,1.0
1623492988234138984,3,1623492988233719110,7.496576927223941e-05,2.854830358955951e-05,5.971768811718903e-05,0.0,0.0,0.0,1.0
1623492988285176762,4,1623492988284331083,-7.774499567858584e-05,-2.7934234822168946e-05,-5.6460518010226224e-05,0.0,0.0,0.0,1.0
1623492988333291833,5,1623492988332839012,-1.5105798865988618e-05,3.519364395287994e-05,2.405987650888619e-06,0.0,0.0,0.0,1.0
1623492988380678873,6,1623492988380193948,0.00019496880895530921,7.336467842833372e-05,5.40626261127386e-05,0.0,0.0,0.0,1.0
1623492988433561053,7,1623492988432894945,-1.6467149634991074e-06,-6.494511808341485e-07,2.4164944036897396e-06,0.0,0.0,0.0,1.0
1623492988483413177,8,1623492988482867002,7.544152231275802e-05,2.728209551605687e-05,5.971768811718903e-05,0.0,0.0,0.0,1.0
1623492988535990839,9,1623492988535655021,3.370691047166474e-05,0.0001271851550654901,6.508343790301296e-05,0.0,0.0,0.0,1.0
1623492988583976201,10,1623492988583690881,3.39311941388587e-05,1.5738904494355666e-05,-5.092435822007246e-05,0.0,0.0,0.0,1.0
1623492988632789868,11,1623492988632565975,0.00010156043276765558,3.9270998968277127e-05,2.0578719201580498e-05,0.0,0.0,0.0,1.0
1623492988678671733,12,1623492988678338050,9.75433536041237e-05,3.595667783429235e-05,2.730438191633766e-05,0.0,0.0,0.0,1.0
1623492988731811457,13,1623492988731339931,1.737640741339419e-05,7.978770327099483e-06,-2.6039755930185038e-05,0.0,0.0,0.0,1.0
1623492988782881808,14,1623492988782180070,1.4609068330173614e-05,6.254640652514354e-06,-2.1674963107898293e-05,0.0,0.0,0.0,1.0
1623492988835886927,15,1623492988834875106,5.6898652928794036e-05,1.9004735236194392e-05,-8.184647908393572e-05,0.0,0.0,0.0,1.0
1623492988881377947,16,1623492988880600929,5.6309309456992196e-05,2.6274433707840217e-05,-8.458421660861859e-05,0.0,0.0,0.0,1.0
1623492988933150507,17,1623492988932262897,8.478150311930222e-05,3.726870761511236e-05,4.298485477249869e-05,0.0,0.0,0.0,1.0
1623492988978773994,18,1623492988978084087,5.693705656995007e-05,0.00010961639986817318,4.3830176011283584e-05,0.0,0.0,0.0,1.0
1623492989032841904,19,1623492989032505035,-5.457414317788789e-06,1.16207138489699e-06,6.4169328197749564e-06,0.0,0.0,0.0,1.0
1623492989081840682,20,1623492989081453084,-8.166777888618526e-06,9.530692636872118e-06,5.860996971307486e-06,0.0,0.0,0.0,1.0
1623492989133015160,21,1623492989132772922,-2.93799462269817e-06,-4.191270136288949e-06,5.767664667644112e-06,0.0,0.0,0.0,1.0
1623492989182282796,22,1623492989182018041,-3.5197338092984864e-06,2.7792921173386276e-06,3.1638290209912157e-06,0.0,0.0,0.0,1.0
1623492989234137137,23,1623492989232891082,-7.870685021771351e-05,-2.469429512075294e-05,-5.6787051939011235e-05,0.0,0.0,0.0,1.0
1623492989282140409,24,1623492989281672954,9.735676053423958e-05,7.902340041709977e-05,6.8619129365288245e-06,0.0,0.0,0.0,1.0
1623492989334695609,25,1623492989334131002,-1.8000812360696727e-05,4.8482745000910654e-05,-2.755009518295992e-07,0.0,0.0,0.0,1.0
1623492989382778296,26,1623492989382334947,5.6680411944398656e-05,0.00010866009245091846,4.4617409471925384e-05,0.0,0.0,0.0,1.0
1623492989434480291,27,1623492989433958053,-4.232949549987097e-06,6.01546867073921e-06,2.5213241627852767e-06,0.0,0.0,0.0,1.0
1623492989480780988,28,1623492989480232954,7.153273122639803e-05,3.425964678172022e-05,6.13627117473925e-05,0.0,0.0,0.0,1.0
1623492989535117729,29,1623492989534523010,0.00011284286165391677,4.038105942072434e-05,5.625976896794782e-06,0.0,0.0,0.0,1.0
1623492989580593597,30,1623492989580106973,-7.457799279109167e-05,-3.135294616640749e-05,-5.886647429065306e-05,0.0,0.0,0.0,1.0
1623492989634299658,31,1623492989633829116,7.426872048199584e-05,2.870169748803164e-05,6.053490552915264e-05,0.0,0.0,0.0,1.0
1623492989682151204,32,1623492989681559085,-4.2027423205581727e-05,0.00010392951037374587,3.806477231194094e-06,0.0,0.0,0.0,1.0
1623492989779736044,34,1623492989779130935,-9.349108722744859e-06,1.3061222375654324e-05,5.676706386736896e-06,0.0,0.0,0.0,1.0
1623492989833361339,35,1623492989832870960,-3.916884475074767e-05,0.00010031950864686223,1.8865326794070825e-06,0.0,0.0,0.0,1.0
1623492989883129293,36,1623492989882339954,-3.857824435726798e-05,0.00010222073581189761,2.187254537489025e-07,0.0,0.0,0.0,1.0
1623492989935587807,37,1623492989935030937,-1.5783869002916617e-06,7.710161753493594e-08,1.980267441581418e-06,0.0,0.0,0.0,1.0
1623492989984664452,38,1623492989984061956,-2.2180081487022107e-06,4.724628297481104e-07,2.607893208050882e-06,0.0,0.0,0.0,1.0
1623492990035557831,39,1623492990034729003,-1.3924193353886949e-06,1.5848734165047063e-06,1.0185391516870368e-06,0.0,0.0,0.0,1.0
1623492990081318620,40,1623492990080755949,0.00010307674301657244,3.439315662490117e-05,2.0983156630904887e-05,0.0,0.0,0.0,1.0
1623492990133624558,41,1623492990133131027,-9.550470963404223e-05,2.1709635802835692e-05,-5.760173712587857e-05,0.0,0.0,0.0,1.0
1623492990191997213,42,1623492990191404104,-1.1687861842801794e-06,-4.393160565996368e-06,3.6034376122984213e-06,0.0,0.0,0.0,1.0
1623492990238939353,43,1623492990238450050,7.423068223033624e-05,2.302342920756928e-05,6.331028872352817e-05,0.0,0.0,0.0,1.0
1623492990282419471,44,1623492990281903982,7.635299743924406e-05,2.1093042846587196e-05,6.152480946752803e-05,0.0,0.0,0.0,1.0
1623492990334071014,45,1623492990333483934,-4.690809873864055e-08,-5.055185624769365e-06,2.487508112380965e-06,0.0,0.0,0.0,1.0
1623492990383464882,46,1623492990381900072,6.630319194300682e-05,5.172272506115405e-05,5.96605026359498e-05,0.0,0.0,0.0,1.0
1623492990432458883,47,1623492990432014942,-8.340937370121537e-05,8.426116437476594e-05,6.61407705564443e-05,0.0,0.0,0.0,1.0
1623492990481917734,48,1623492990481352090,-3.843530635094794e-05,0.00010120156889570353,5.254471915350223e-07,0.0,0.0,0.0,1.0
1623492990536046669,49,1623492990535759925,3.551569375304098e-05,0.00013207617359967116,6.04229925755817e-05,0.0,0.0,0.0,1.0
1623492990579917389,50,1623492990579442977,2.665828105818946e-06,0.00013075113190552656,0.00010304399373239903,0.0,0.0,0.0,1.0
1623492990633158344,51,1623492990632790088,9.760143075254746e-05,0.00015754660478251026,0.0001380803590578239,0.0,0.0,0.0,1.0
1623492990681808155,52,1623492990681123018,3.7846675240871264e-05,0.00012756714136230585,5.960907478907984e-05,0.0,0.0,0.0,1.0
1623492990742253029,53,1623492990741791963,-4.080019516550237e-05,0.00010066715924494929,3.8045787675855536e-06,0.0,0.0,0.0,1.0
1623492990784441643,54,1623492990784030914,-3.853569251077715e-05,9.731045531680138e-05,2.52227431474239e-06,0.0,0.0,0.0,1.0
1623492990836045226,55,1623492990835257053,4.895045117336849e-05,4.288266336516244e-05,-8.31545113655352e-05,0.0,0.0,0.0,1.0
1623492990882285040,56,1623492990881072044,5.629998145195714e-05,2.33923371979472e-05,-8.318829515019388e-05,0.0,0.0,0.0,1.0
1623492990933029729,57,1623492990932617902,3.4595454735608655e-05,4.3024028855143115e-05,-6.487582115255464e-05,0.0,0.0,0.0,1.0
1623492990981372432,58,1623492990980669975,0.00011906655231541663,5.3514763180828595e-05,-8.635193651684858e-06,0.0,0.0,0.0,1.0
1623492991034067055,59,1623492991033818006,0.00010756146048152004,0.00011410713079840207,-2.3027666259167745e-05,0.0,0.0,0.0,1.0
1623492991082046135,60,1623492991081703901,9.500310602561512e-05,0.00014797225526308466,-2.323934387504778e-05,0.0,0.0,0.0,1.0
1623492991134170425,61,1623492991133897066,0.0001325710190940299,4.801523209607694e-05,-2.3253818461910214e-05,0.0,0.0,0.0,1.0
1623492991182275452,62,1623492991181957006,0.00013356909244066628,4.869393558237789e-05,-2.485533367746484e-05,0.0,0.0,0.0,1.0
1623492991234867168,63,1623492991234496116,6.424127036552818e-05,0.00014162787795157783,1.9122882122246665e-05,0.0,0.0,0.0,1.0
1623492991280733055,64,1623492991279428958,5.544193209061632e-05,2.2820313461124897e-05,-8.181696698983387e-05,0.0,0.0,0.0,1.0
1623492991336674496,65,1623492991336054086,0.00010446486771797936,4.064185850438662e-05,1.6208360612779416e-05,0.0,0.0,0.0,1.0
1623492991381891636,66,1623492991381464004,3.253175350437232e-05,1.2453982549232023e-05,-4.755833663239173e-05,0.0,0.0,0.0,1.0
1623492991434296030,67,1623492991433670997,5.605919545814686e-05,2.5432814595660602e-05,-8.386040546781715e-05,0.0,0.0,0.0,1.0
1623492991516025982,68,1623492991515501022,0.00012829112370127405,5.542872202113358e-05,-2.134385771057623e-05,0.0,0.0,0.0,1.0
1623492991555359411,69,1623492991554774045,0.00013436530412036518,4.983634471500409e-05,-2.6421531757137018e-05,0.0,0.0,0.0,1.0
1623492991616877180,70,1623492991616182088,5.4616223451375845e-05,1.8516767454457295e-05,-7.86950715223611e-05,0.0,0.0,0.0,1.0
1623492991681670673,71,1623492991680587053,0.0001309294409566064,5.6887344044298516e-05,-2.5416224701757528e-05,0.0,0.0,0.0,1.0
1623492991735398698,72,1623492991734635114,1.915933739837783e-05,0.00012344225035576528,-8.376447205193926e-05,0.0,0.0,0.0,1.0
1623492991774814069,73,1623492991773817062,0.00010212910979134904,4.019038965452637e-05,1.941041276154465e-05,0.0,0.0,0.0,1.0
1623492991819444508,74,1623492991819210052,5.4001641501599806e-05,7.764501344809105e-05,6.293469392915085e-05,0.0,0.0,0.0,1.0
1623492991899875893,75,1623492991899528980,5.255262476566713e-05,8.848796642269008e-05,5.957978500248373e-05,0.0,0.0,0.0,1.0
1623492991948031254,76,1623492991947765111,-9.149810693998006e-06,2.294091075327742e-05,6.776676073627641e-07,0.0,0.0,0.0,1.0
1623492991983499888,77,1623492991983062982,1.4402270608115941e-05,5.058765395915543e-06,0.00014840260370618807,0.0,0.0,0.0,1.0
1623492992034390695,78,1623492992033937931,7.14586410595075e-05,3.3391021474926674e-05,6.18745272902288e-05,0.0,0.0,0.0,1.0
1623492992081458734,79,1623492992080895900,-2.4013877464312827e-06,5.101342935631692e-06,6.194279009719139e-07,0.0,0.0,0.0,1.0
1623492992132124270,80,1623492992131540060,-1.9929018435504986e-06,6.437992396968184e-07,2.2379134776429055e-06,0.0,0.0,0.0,1.0
1623492992182876048,81,1623492992182391881,-1.60399574724579e-05,0.00011062640749059938,-3.26232659233483e-05,0.0,0.0,0.0,1.0
1623492992234748341,82,1623492992234141111,-2.102096095768502e-05,5.24934455370385e-05,1.6585048570050276e-06,0.0,0.0,0.0,1.0
1623492992283829064,83,1623492992283165931,-8.75362811711966e-05,-1.683930918261467e-06,-5.655219651146126e-05,0.0,0.0,0.0,1.0
1623492992336101629,84,1623492992335493087,7.177654902079666e-05,3.495492535421363e-05,6.071721470846114e-05,0.0,0.0,0.0,1.0
1623492992380870167,85,1623492992380424022,0.00010072916848002933,3.972291710852005e-05,2.1424115175250336e-05,0.0,0.0,0.0,1.0
1623492992433931702,86,1623492992433150053,0.00010453475101712684,3.942817352253769e-05,1.6701866847768088e-05,0.0,0.0,0.0,1.0
1623492992481588000,87,1623492992480310916,2.9397895332294866e-05,1.3084406646157731e-05,-4.385579542542928e-05,0.0,0.0,0.0,1.0
1623492992537230047,88,1623492992536711931,1.6879784197953995e-05,2.4363004058614024e-06,-2.27434905113455e-05,0.0,0.0,0.0,1.0
1623492992582970037,89,1623492992582494020,-1.5131877262319904e-06,6.293498699960764e-07,1.6317425917122819e-06,0.0,0.0,0.0,1.0
1623492992633395437,90,1623492992633131027,5.662390572069853e-05,2.3665809862905007e-05,-8.373361283986469e-05,0.0,0.0,0.0,1.0
1623492992681268085,91,1623492992681032896,5.4168622227734886e-05,2.8397336791385897e-05,-8.286772013832433e-05,0.0,0.0,0.0,1.0
1623492992732725133,92,1623492992732426881,-1.9703479438248905e-05,-2.0778967382284463e-06,-0.00014305785243351465,0.0,0.0,0.0,1.0
1623492992781014729,93,1623492992780498981,4.494637801144563e-05,3.231456173580227e-05,-7.296220352515093e-05,0.0,0.0,0.0,1.0
1623492992834287689,94,1623492992833812952,-1.3286764897202374e-06,2.1926506406089175e-06,6.452100791420889e-07,0.0,0.0,0.0,1.0
1623492992882656305,95,1623492992881917953,2.6904229571300675e-05,1.1039950550184585e-05,-3.968696087497392e-05,0.0,0.0,0.0,1.0
1623492992932909599,96,1623492992932476997,0.00011955823742937355,-6.079719014451257e-06,1.935422260856967e-05,0.0,0.0,0.0,1.0
1623492992983400188,97,1623492992982767105,0.00010290770865140075,3.601570017508493e-05,2.0420033926882297e-05,0.0,0.0,0.0,1.0
1623492993034130697,98,1623492993033343076,2.8004001251247246e-06,6.296194555943657e-06,-6.6026108669348105e-06,0.0,0.0,0.0,1.0
1623492993084041161,99,1623492993083724021,0.00010938316950159788,-6.785335631320777e-05,6.202327878668257e-05,0.0,0.0,0.0,1.0
1623492993135180377,100,1623492993134800910,-7.723817998339655e-05,-2.9576060569524998e-05,-5.631984264198309e-05,0.0,0.0,0.0,1.0
1623492993217949414,101,1623492993217709064,8.405302423852845e-05,3.623304496613855e-05,4.441323712001122e-05,0.0,0.0,0.0,1.0
1623492993256202728,102,1623492993255423069,-5.050529125583125e-06,5.967020456409955e-06,3.5895156926812888e-06,0.0,0.0,0.0,1.0
1623492993299155302,103,1623492993298552989,9.567669167154236e-06,1.1600814673329296e-05,-1.7798988572792496e-05,0.0,0.0,0.0,1.0
1623492993343191326,104,1623492993342340946,7.307140595003148e-05,2.8689953637694998e-05,6.207079970721452e-05,0.0,0.0,0.0,1.0
1623492993388021866,105,1623492993387382030,3.4829072774300585e-05,3.253769625644054e-05,-6.013880264532645e-05,0.0,0.0,0.0,1.0
1623492993435189212,106,1623492993434704065,7.470363652828382e-05,1.9928149868064793e-05,6.419220733988595e-05,0.0,0.0,0.0,1.0
1623492993486033419,107,1623492993485407114,-5.1499910796337645e-05,4.151021710185887e-05,4.588719185960599e-05,0.0,0.0,0.0,1.0
1623492993554609796,108,1623492993554014921,-7.87363571816968e-05,-2.470934134635172e-05,-5.67421146797642e-05,0.0,0.0,0.0,1.0
1623492993597232472,109,1623492993596549034,-9.125199289883312e-05,-3.1090509423847834e-05,-3.768189674246969e-05,0.0,0.0,0.0,1.0
1623492993645566807,110,1623492993645363092,-0.00010467463448549097,2.7282255018690194e-05,0.00012068149355570768,0.0,0.0,0.0,1.0
1623492993693954016,111,1623492993693717956,1.994265630855807e-06,-6.276665317273e-06,4.653087017914004e-07,0.0,0.0,0.0,1.0
1623492993734376122,112,1623492993734137058,5.74581531509466e-06,-2.3767371430949424e-06,-6.2022290450158835e-06,0.0,0.0,0.0,1.0
1623492993788733154,113,1623492993788208007,9.420363244316832e-05,2.7890906494576484e-05,3.544603308114347e-05,0.0,0.0,0.0,1.0
1623492993842551696,114,1623492993841962099,3.250821760047984e-05,1.4040499308975996e-05,-4.829011436413566e-05,0.0,0.0,0.0,1.0
1623492993889706822,115,1623492993889322042,4.488133163249586e-05,1.4095245887801866e-05,-6.413003429628361e-05,0.0,0.0,0.0,1.0
1623492993940927879,116,1623492993940679073,7.212091713881819e-05,3.499312708754587e-05,6.0258742394125875e-05,0.0,0.0,0.0,1.0
1623492993988952053,117,1623492993988713026,-7.885913964855717e-05,-2.5606771259845118e-05,-5.6154234243877e-05,0.0,0.0,0.0,1.0
1623492994062120892,118,1623492994061846017,7.226922548397852e-05,2.8401546387613053e-05,6.323454113044136e-05,0.0,0.0,0.0,1.0
1623492994149350586,119,1623492994148735046,1.0857165989364148e-05,9.47246451232786e-06,-1.8425001478306058e-05,0.0,0.0,0.0,1.0
1623492994189693448,120,1623492994188956022,0.000110591004613525,4.0282699387717e-05,8.551228710018677e-06,0.0,0.0,0.0,1.0
1623492994244977500,121,1623492994242510080,-5.535507148124452e-05,-1.73474800249096e-05,-9.016027634345392e-05,0.0,0.0,0.0,1.0
1623492994282348418,122,1623492994281810045,-7.723327462372254e-05,-2.8137577828601934e-05,-5.7016887325289645e-05,0.0,0.0,0.0,1.0
1623492994333929744,123,1623492994333136081,2.531397467464558e-05,1.304352872466552e-05,0.00013062212337189294,0.0,0.0,0.0,1.0
1623492994381327021,124,1623492994380702972,7.769614194330643e-05,2.466157309299888e-05,5.809452535743276e-05,0.0,0.0,0.0,1.0
1623492994435191873,125,1623492994434803962,7.104518113010272e-05,2.585168601854093e-05,6.60234304987739e-05,0.0,0.0,0.0,1.0
1623492994485658564,126,1623492994484117031,-1.905302269733511e-06,4.72791725769639e-08,2.4124101258848896e-06,0.0,0.0,0.0,1.0
1623492994544487446,127,1623492994543592929,4.6779059630353e-06,4.971763473804458e-05,-2.9853521333222943e-05,0.0,0.0,0.0,1.0
1623492994580999120,128,1623492994580513000,7.35126131985453e-05,3.5836782558362756e-05,5.807492193810049e-05,0.0,0.0,0.0,1.0
1623492994633915095,129,1623492994633429050,7.390952396235662e-05,2.985550531775516e-05,6.043991358950507e-05,0.0,0.0,0.0,1.0
1623492994682322637,130,1623492994681397914,7.248577185237082e-05,3.169824901760876e-05,6.137466687761162e-05,0.0,0.0,0.0,1.0
1623492994743723574,131,1623492994743057966,3.276976849519997e-05,0.00012023570968722197,6.961832779950328e-05,0.0,0.0,0.0,1.0
1623492994789720716,132,1623492994789122104,1.1562477766347001e-05,4.720409401670622e-05,-3.744545734463145e-05,0.0,0.0,0.0,1.0
1623492994841035153,133,1623492994840797901,-0.00010196955122410145,3.831620881555864e-05,-5.731377481055233e-05,0.0,0.0,0.0,1.0
1623492994891161841,134,1623492994890944957,-0.000133849190433466,5.99310599227465e-05,-2.694871359665285e-05,0.0,0.0,0.0,1.0
1623492994936048227,135,1623492994935668945,-9.836664116846805e-05,7.606729241160792e-05,-8.004678051065639e-05,0.0,0.0,0.0,1.0
1623492994984179968,136,1623492994983882904,7.187687833720702e-05,2.9040158551651984e-05,6.342932070424467e-05,0.0,0.0,0.0,1.0
1623492995032990818,137,1623492995032341003,-3.6475462366070133e-06,2.76736636806163e-06,3.3329092445910646e-06,0.0,0.0,0.0,1.0
1623492995081309036,138,1623492995081048011,4.806476658814063e-05,2.398921617441374e-05,-7.294981486438701e-05,0.0,0.0,0.0,1.0
1623492995143364854,139,1623492995142952919,-6.047773399586731e-05,6.378590671829443e-05,4.666459937396894e-05,0.0,0.0,0.0,1.0
1623492995181606518,140,1623492995181335926,0.00010314433188796102,3.848066353384638e-05,1.8933916855701227e-05,0.0,0.0,0.0,1.0
1623492995238593184,141,1623492995238224029,-2.028626113315113e-06,-2.5863804467007867e-06,3.8347393740423286e-06,0.0,0.0,0.0,1.0
1623492995286328467,142,1623492995285479068,8.399122157243255e-05,8.913921021758142e-05,1.9086300184767424e-05,0.0,0.0,0.0,1.0
1623492995334211816,143,1623492995332808017,6.424300886465062e-05,0.00013803463912154257,2.0846137218200056e-05,0.0,0.0,0.0,1.0
1623492995381680347,144,1623492995381115913,0.00010589790917947539,4.0591040487925056e-05,1.4401242566464134e-05,0.0,0.0,0.0,1.0
1623492995431960703,145,1623492995431380033,7.075358166730439e-05,3.0038347972549673e-05,6.438563427479949e-05,0.0,0.0,0.0,1.0
1623492995483583700,146,1623492995482177019,7.21431342753931e-05,3.511708587211615e-05,6.0170821058136426e-05,0.0,0.0,0.0,1.0
1623492995536766353,147,1623492995535865068,-9.773806482371583e-05,7.987586468516383e-05,-8.267903051262238e-05,0.0,0.0,0.0,1.0
1623492995584448106,148,1623492995583954095,-3.4515292099968065e-06,2.386142796240165e-06,3.2654528112630032e-06,0.0,0.0,0.0,1.0
1623492995640378484,149,1623492995639964103,7.139873059713864e-05,3.088768755787896e-05,6.315322477945529e-05,0.0,0.0,0.0,1.0
1623492995712858039,150,1623492995712326049,-5.639245728161768e-06,4.7256779680537875e-06,4.9380442916913125e-06,0.0,0.0,0.0,1.0
1623492995753283827,151,1623492995752501964,-1.6094061720650643e-05,0.00010839606386525702,-3.1483102638674154e-05,0.0,0.0,0.0,1.0
1623492995796666472,152,1623492995796216011,6.778907390980748e-05,0.0001357912781259074,1.7391285908274767e-05,0.0,0.0,0.0,1.0
1623492995838585179,153,1623492995838354110,7.158469429668912e-05,0.00014592255161005596,7.675179759303319e-06,0.0,0.0,0.0,1.0
1623492995881240947,154,1623492995880995988,-6.023814421496354e-06,8.799658075986372e-06,3.4731831988210615e-06,0.0,0.0,0.0,1.0
1623492995933815003,155,1623492995933201074,7.266233455993643e-05,3.0334133953147102e-05,6.18040694249089e-05,0.0,0.0,0.0,1.0
1623492995982650269,156,1623492995982395887,7.110081378414179e-05,9.942894018877269e-05,3.061995133180062e-05,0.0,0.0,0.0,1.0
1623492996034535028,157,1623492996034053087,-2.2598386067329557e-05,5.865647540304053e-05,7.150426526436604e-07,0.0,0.0,0.0,1.0
1623492996082088230,158,1623492996081420898,1.644048734306125e-05,0.0001228149043299709,-7.998835989297959e-05,0.0,0.0,0.0,1.0
1623492996136773614,159,1623492996136094093,7.565217674709857e-05,4.182605096048064e-05,5.246429995509061e-05,0.0,0.0,0.0,1.0
1623492996184674647,160,1623492996184416055,3.627886621870857e-05,0.00012716543085389276,6.18057552159712e-05,0.0,0.0,0.0,1.0
1623492996233820820,161,1623492996233504056,6.658983852503297e-05,5.3309243753574265e-05,5.853228690710921e-05,0.0,0.0,0.0,1.0
1623492996282316797,162,1623492996281943082,-4.21939373609348e-05,0.00010147789214443037,5.196570242560483e-06,0.0,0.0,0.0,1.0
1623492996343939371,163,1623492996343358039,-1.569711366755655e-05,0.00011009104582626605,-3.280436317965041e-05,0.0,0.0,0.0,1.0
1623492996389649347,164,1623492996389225006,-3.181802412655088e-06,9.035617233621451e-05,0.0001299156846314986,0.0,0.0,0.0,1.0
1623492996439023014,165,1623492996438740015,0.00010923968693532515,0.00016022964382500504,0.00012191736742295234,0.0,0.0,0.0,1.0
1623492996486977969,166,1623492996486732006,-2.996038347191643e-06,1.4089583828535979e-06,3.1525570136636816e-06,0.0,0.0,0.0,1.0
1623492996534216295,167,1623492996533768892,-1.8399141481495462e-06,-1.343690428257105e-06,2.996798244225829e-06,0.0,0.0,0.0,1.0
1623492996582687084,168,1623492996581007957,5.416995327323093e-05,2.2113886984698183e-05,-7.985207107452652e-05,0.0,0.0,0.0,1.0
1623492996643116424,169,1623492996642599105,3.36230780249025e-05,9.298404393121018e-06,-4.743778563209844e-05,0.0,0.0,0.0,1.0
1623492996691651095,170,1623492996690931081,0.00013058936133347743,5.391751835759351e-05,-2.355545521481872e-05,0.0,0.0,0.0,1.0
1623492996742311591,171,1623492996741513013,1.9753576680159313e-05,1.0314262453903211e-05,-3.0199464795543918e-05,0.0,0.0,0.0,1.0
1623492996789399157,172,1623492996788811922,2.9855807952117175e-05,2.852005081876996e-06,-3.9527349407819656e-05,0.0,0.0,0.0,1.0
1623492996841339078,173,1623492996840776920,1.8697973700909643e-05,-6.766177875761059e-07,-2.3572407286565067e-05,0.0,0.0,0.0,1.0
1623492996891019678,174,1623492996890382051,0.00011425069624237949,4.4335170628073683e-05,1.9278792748878004e-06,0.0,0.0,0.0,1.0
1623492996942444350,175,1623492996941859006,-1.2574948868859792e-06,1.5806868987056077e-06,8.481063247245402e-07,0.0,0.0,0.0,1.0
1623492996984080975,176,1623492996983375072,4.4645052639680216e-05,1.8715749206421606e-05,-6.604685408007072e-05,0.0,0.0,0.0,1.0
1623492997035021643,177,1623492997034564018,-3.682623855638667e-06,2.790305529742909e-06,3.3667252949953763e-06,0.0,0.0,0.0,1.0
1623492997081015319,178,1623492997080374002,-2.1864514110347955e-06,-5.064781703367771e-06,5.226607889596835e-06,0.0,0.0,0.0,1.0
1623492997134913724,179,1623492997134458065,6.057088603483862e-05,1.373801433146582e-05,-8.401069848673615e-05,0.0,0.0,0.0,1.0
1623492997182917590,180,1623492997182511091,3.8232458109632717e-05,3.7687933627239545e-06,-5.0673505178622236e-05,0.0,0.0,0.0,1.0
1623492997237266710,181,1623492997236645936,-1.6686978824509424e-05,4.2402611484249064e-05,9.650484571466222e-07,0.0,0.0,0.0,1.0
1623492997282686886,182,1623492997282238960,-2.9243235530884704e-05,6.974082918986824e-05,3.884879987481327e-06,0.0,0.0,0.0,1.0
1623492997334276732,183,1623492997333846092,5.893503976039938e-05,7.140985030673619e-05,5.962361857569931e-05,0.0,0.0,0.0,1.0
1623492997382372360,184,1623492997382006883,3.738075179171574e-05,4.161769584243302e-05,-6.776027782962046e-05,0.0,0.0,0.0,1.0
1623492997442021891,185,1623492997441704988,-4.042429645778611e-05,9.98643641878516e-05,3.7096565392857883e-06,0.0,0.0,0.0,1.0
1623492997490482239,186,1623492997489973068,-1.0924892876573722e-05,1.927487221564661e-05,4.7068186148635505e-06,0.0,0.0,0.0,1.0
1623492997543281048,187,1623492997542682886,0.00011530815459082078,4.2757324990816414e-05,1.3340736160216693e-06,0.0,0.0,0.0,1.0
1623492997587749955,188,1623492997587198972,7.395192051262711e-05,2.603564962555538e-05,6.222006425105064e-05,0.0,0.0,0.0,1.0
1623492997632617600,189,1623492997632195949,2.6249885422657826e-05,1.3080054259262397e-05,-3.983034065413449e-05,0.0,0.0,0.0,1.0
1623492997683759324,190,1623492997683293104,0.00013548755327974504,4.7666673481217003e-05,-2.6813943385661787e-05,0.0,0.0,0.0,1.0
1623492997743959226,191,1623492997742901086,-3.613105445765541e-05,8.81507348822197e-05,3.847500053666408e-06,0.0,0.0,0.0,1.0
1623492997790638151,192,1623492997790177106,-2.7426451651990646e-06,-6.293510068644537e-07,3.8075204145116004e-06,0.0,0.0,0.0,1.0
1623492997838552301,193,1623492997838078022,7.30394210677332e-05,3.2451806532662886e-05,6.030519654132149e-05,0.0,0.0,0.0,1.0
1623492997887879921,194,1623492997887197017,0.00011014358369720867,6.660926112544985e-05,-3.5191353902064293e-06,0.0,0.0,0.0,1.0
1623492997932554022,195,1623492997932101964,5.8341809790363186e-05,2.3025861310088658e-05,-8.562188982352836e-05,0.0,0.0,0.0,1.0
1623492997984547369,196,1623492997983736991,0.00012457159778023197,7.37710416842674e-05,-2.539815487523356e-05,0.0,0.0,0.0,1.0
1623492998035944104,197,1623492998035502910,-1.9970153061876772e-05,-3.6702685974887572e-06,-0.0001419523611687623,0.0,0.0,0.0,1.0
1623492998091926882,198,1623492998091290950,2.998586091962352e-05,9.067794030670484e-05,-8.186802973142449e-05,0.0,0.0,0.0,1.0
1623492998142789435,199,1623492998142339944,9.620840728530311e-05,4.0118033894032123e-05,2.7012212981958328e-05,0.0,0.0,0.0,1.0
1623492998189173637,200,1623492998188359975,7.079770239215577e-05,0.0001066241543412616,2.7552177400025357e-05,0.0,0.0,0.0,1.0
1623492998234516597,201,1623492998234102010,-5.116230568091851e-06,6.180495347507531e-06,3.5709742078893214e-06,0.0,0.0,0.0,1.0
1623492998279842819,202,1623492998279475927,0.00013287547585605353,5.0314640816395695e-05,-2.474712320577055e-05,0.0,0.0,0.0,1.0
1623492998341913142,203,1623492998341661930,9.391651224177622e-05,3.053620309856342e-05,3.454269482716654e-05,0.0,0.0,0.0,1.0
1623492998383729658,204,1623492998383460044,8.38258683870663e-05,3.363777943832247e-05,4.5949830365543676e-05,0.0,0.0,0.0,1.0
1623492998441769075,205,1623492998441215991,5.131423154125514e-05,3.532097025527037e-05,-8.254440347599257e-05,0.0,0.0,0.0,1.0
1623492998480434627,206,1623492998479579925,7.412139530060813e-05,3.160769313126366e-05,5.932770742589355e-05,0.0,0.0,0.0,1.0
1623492998535815778,207,1623492998535315036,9.083589475267217e-05,0.00015201341398096702,-1.9853944046133165e-05,0.0,0.0,0.0,1.0
1623492998591996220,208,1623492998591404914,-2.7318359570926987e-05,0.00010244989618968248,-1.428228400612852e-05,0.0,0.0,0.0,1.0
1623492998646594847,209,1623492998646151065,3.6286814292907366e-05,0.0001277104531709483,6.153387543150757e-05,0.0,0.0,0.0,1.0
1623492998687029867,210,1623492998686301946,7.419006692543917e-05,3.230287427413714e-05,5.890610672310004e-05,0.0,0.0,0.0,1.0
1623492998741425342,211,1623492998740358114,3.554418685780547e-05,0.00012733615903925966,6.266274660049476e-05,0.0,0.0,0.0,1.0
1623492998789466901,212,1623492998788850069,-3.8458129893115256e-05,0.00010138001869108848,4.6892532168385515e-07,0.0,0.0,0.0,1.0
1623492998843260012,213,1623492998842417955,8.984820760815637e-05,8.563689743823488e-05,1.3282505662459698e-05,0.0,0.0,0.0,1.0
1623492998890222825,214,1623492998889755010,4.271057082405605e-05,2.0430853169273178e-05,-6.439807020797161e-05,0.0,0.0,0.0,1.0
1623492998936933971,215,1623492998936065912,-2.4539415335311787e-06,1.1423009027566877e-06,2.587769721174027e-06,0.0,0.0,0.0,1.0
1623492998981221739,216,1623492998980798006,7.476678365492262e-05,5.4397252483795455e-05,4.755909114351198e-05,0.0,0.0,0.0,1.0
1623492999035433651,217,1623492999035054922,-2.9735579801126732e-05,6.987942379055312e-05,4.447579023292292e-06,0.0,0.0,0.0,1.0
1623492999080583956,218,1623492999080219984,-7.758108040434308e-07,2.4069157689154963e-06,-1.642845148808192e-07,0.0,0.0,0.0,1.0
1623492999133042876,219,1623492999132725000,6.545909468513855e-05,0.00014167099959649931,1.7545711543220932e-05,0.0,0.0,0.0,1.0
1623492999182593765,220,1623492999182187080,1.9951182594013517e-05,-5.924966899328865e-06,-2.2653782927761767e-05,0.0,0.0,0.0,1.0
1623492999236848790,221,1623492999235841035,0.00010073673729493748,2.988278163229552e-05,2.6139764131016818e-05,0.0,0.0,0.0,1.0
1623492999282699544,222,1623492999281167030,7.316618030017707e-05,2.838039017660776e-05,6.209832701387086e-05,0.0,0.0,0.0,1.0
1623492999334472753,223,1623492999333803892,3.416436470615736e-05,1.2900155525130685e-05,-4.9859175568656156e-05,0.0,0.0,0.0,1.0
1623492999381917796,224,1623492999381143093,-8.039296062634094e-05,-2.8773702979378868e-05,-5.2673103859035564e-05,0.0,0.0,0.0,1.0
1623492999435912466,225,1623492999435208082,-7.799181480550033e-05,-2.6235122163598135e-05,-5.696099769636476e-05,0.0,0.0,0.0,1.0
1623492999489646051,226,1623492999489280939,-6.129977350610716e-05,-2.3131868829295854e-05,8.94541728087006e-05,0.0,0.0,0.0,1.0
1623492999541900707,227,1623492999541631937,0.00012701354671662557,4.81425780662903e-05,-1.6212184725361567e-05,0.0,0.0,0.0,1.0
1623492999590123107,228,1623492999589709997,1.2220844610055792e-05,5.512550728781207e-06,0.00015097273794850707,0.0,0.0,0.0,1.0
1623492999634424030,229,1623492999633949995,-2.8202759494888596e-05,0.00010657407710823463,-1.5132398274886327e-05,0.0,0.0,0.0,1.0
1623492999681646326,230,1623492999681247949,-6.408001809177222e-06,6.413042228814447e-06,5.110280667963707e-06,0.0,0.0,0.0,1.0
1623492999736894777,231,1623492999736444950,-2.1201087520239525e-05,8.658088199808844e-05,-1.4480250499104841e-05,0.0,0.0,0.0,1.0
1623492999784924228,232,1623492999784427881,-7.876363247305562e-05,-2.6882233669311972e-05,-5.566380842481067e-05,0.0,0.0,0.0,1.0
1623492999832830420,233,1623492999832259893,-4.0355802866542945e-05,0.00010006094726122683,3.527716955886717e-06,0.0,0.0,0.0,1.0
1623492999882594281,234,1623492999881860017,2.70667701443017e-05,8.768648137902346e-05,9.253753619020699e-05,0.0,0.0,0.0,1.0
1623492999934955739,235,1623492999934297084,-3.3028104553523008e-06,7.012030209807563e-07,3.8845060572612056e-06,0.0,0.0,0.0,1.0
1623492999982384317,236,1623492999982095956,1.8857873328670394e-05,0.00012208503699184803,-8.272745024839878e-05,0.0,0.0,0.0,1.0
1623493000035937984,237,1623493000035579919,0.00011439273339419742,6.911809828125115e-05,-1.0154574347609469e-05,0.0,0.0,0.0,1.0
1623493000081711767,238,1623493000081455945,-5.609419940810767e-05,-1.897691322483297e-05,-8.843315229967175e-05,0.0,0.0,0.0,1.0
1623493000133026370,239,1623493000132805109,-4.732558636533213e-06,6.975993755986565e-07,5.713558984155043e-06,0.0,0.0,0.0,1.0
1623493000181271755,240,1623493000180922985,-2.6031548259197734e-06,3.6354502981339465e-06,1.5812381235491557e-06,0.0,0.0,0.0,1.0
1623493000234579393,241,1623493000234136104,-6.065941079214099e-06,5.999688596602937e-06,4.871598719091708e-06,0.0,0.0,0.0,1.0
1623493000285253686,242,1623493000284811973,-3.3665103273960995e-06,2.2461985054178513e-06,3.223995221901532e-06,0.0,0.0,0.0,1.0
1623493000336873259,243,1623493000336375951,1.6783145611043437e-05,5.4944931548561726e-05,-4.783501312743965e-05,0.0,0.0,0.0,1.0
1623493000388531277,244,1623493000388081073,7.187705364231078e-05,2.776890960376477e-05,6.403956443534753e-05,0.0,0.0,0.0,1.0
1623493000434904905,245,1623493000434192895,7.329594541261031e-05,2.98753018341813e-05,6.121460496899545e-05,0.0,0.0,0.0,1.0
1623493000481696796,246,1623493000481240034,5.6913656862889184e-05,1.7372040133523114e-05,-8.108162424491638e-05,0.0,0.0,0.0,1.0
1623493000535695987,247,1623493000535238981,0.00010706366288104618,4.374520665351156e-05,1.1396676590891275e-05,0.0,0.0,0.0,1.0
1623493000581708832,248,1623493000581268072,0.00011379928105270665,4.7178680233628256e-05,1.1393420038530166e-06,0.0,0.0,0.0,1.0
1623493000635849784,249,1623493000635433912,0.00012546080870379228,6.207582418937818e-05,-2.091851963825775e-05,0.0,0.0,0.0,1.0
1623493000681888581,250,1623493000681567907,4.633979460777482e-05,2.3970918846316636e-05,-7.073640767885081e-05,0.0,0.0,0.0,1.0
1623493000735754111,251,1623493000734833955,9.670023359831248e-05,0.00014514467159187916,-2.4050576520551203e-05,0.0,0.0,0.0,1.0
1623493000781537274,252,1623493000780801057,9.225850249094947e-05,0.0001519504392035742,-2.1641886448264813e-05,0.0,0.0,0.0,1.0
1623493000832857356,253,1623493000832441091,0.00010128886742677423,0.00012582573799591046,-2.063818899245007e-05,0.0,0.0,0.0,1.0
1623493000882397347,254,1623493000881891965,7.392588486254681e-05,0.00010421934712212533,2.4708941054996103e-05,0.0,0.0,0.0,1.0
1623493000937094996,255,1623493000936228990,-2.4300575205415953e-06,6.521140699078387e-05,-2.8209245250820913e-05,0.0,0.0,0.0,1.0
1623493000981475451,256,1623493000980869054,0.0001734059439968405,6.421066063921899e-05,8.601720514889166e-05,0.0,0.0,0.0,1.0
1623493001033105337,257,1623493001032655954,5.6158830602726084e-05,2.336239083433611e-05,-8.299351539875488e-05,0.0,0.0,0.0,1.0
1623493001083304425,258,1623493001082496881,5.742150074183883e-05,2.277353291901818e-05,-8.432451028284049e-05,0.0,0.0,0.0,1.0
1623493001134998613,259,1623493001134717941,9.506185597274452e-05,3.4071423215209506e-05,3.138122083612416e-05,0.0,0.0,0.0,1.0
1623493001184077404,260,1623493001183789968,8.654774546812405e-06,8.723252676645643e-06,-1.5250412978673467e-05,0.0,0.0,0.0,1.0
1623493001235672376,261,1623493001235375881,-3.005464577654493e-06,2.4668603373356746e-06,2.656588335980814e-06,0.0,0.0,0.0,1.0
1623493001281382693,262,1623493001280718088,9.087420448850025e-05,3.279410680079309e-05,3.734670590915812e-05,0.0,0.0,0.0,1.0
1623493001332987323,263,1623493001332006931,2.4432854843325913e-05,1.670950155130413e-06,-3.202929973156188e-05,0.0,0.0,0.0,1.0
1623493001382246256,264,1623493001381659030,3.117342612313223e-05,1.0352569006499834e-06,-4.033893309696168e-05,0.0,0.0,0.0,1.0
1623493001438504035,265,1623493001438014984,6.429061158996774e-07,-5.944679401181929e-06,2.033020457758994e-06,0.0,0.0,0.0,1.0
1623493001485751789,266,1623493001485120058,-7.871146431170928e-05,-2.7390076979827427e-05,-5.5486611557853394e-05,0.0,0.0,0.0,1.0
1623493001534391136,267,1623493001533816099,8.855131682139472e-06,1.249485421794816e-06,-1.1917505787550908e-05,0.0,0.0,0.0,1.0
1623493001612769941,268,1623493001612513065,7.323067643483228e-05,2.690176143005374e-05,6.272595005185622e-05,0.0,0.0,0.0,1.0
1623493001648823293,269,1623493001648577928,4.576086121232947e-05,9.967125322418724e-05,6.288988293334796e-05,0.0,0.0,0.0,1.0
1623493001695616735,270,1623493001695297002,-5.221578248892911e-06,6.041178039595252e-06,3.7725178430036976e-06,0.0,0.0,0.0,1.0
1623493001740610053,271,1623493001740329980,-2.0451496993700857e-05,5.240817631602113e-05,9.71634662505494e-07,0.0,0.0,0.0,1.0
1623493001782417879,272,1623493001782021999,8.319485687025008e-06,2.4469389927617158e-06,-1.1807941866948113e-05,0.0,0.0,0.0,1.0
1623493001834716503,273,1623493001834300994,8.763212008489063e-06,2.874954134313157e-06,-1.2580592638755661e-05,0.0,0.0,0.0,1.0
1623493001882823109,274,1623493001882453918,-5.1496440391929355e-06,4.425429210641596e-06,4.456480333203672e-06,0.0,0.0,0.0,1.0
1623493001934648084,275,1623493001934184074,5.460556644720782e-05,2.5518524239487306e-05,-8.204373865794423e-05,0.0,0.0,0.0,1.0
1623493001983809127,276,1623493001983138084,-3.987377795056091e-06,1.3577906656792038e-06,4.444132230219111e-06,0.0,0.0,0.0,1.0
1623493002031878154,277,1623493002031618118,2.042397568402521e-05,1.3931565149505332e-05,-3.279334062256112e-05,0.0,0.0,0.0,1.0
1623493002081162883,278,1623493002080748081,5.365236006582563e-05,2.9283544449754118e-05,-8.263346796866244e-05,0.0,0.0,0.0,1.0
1623493002133907054,279,1623493002133447885,5.5208648063853616e-05,2.165085197702865e-05,-8.095723337220306e-05,0.0,0.0,0.0,1.0
1623493002182836917,280,1623493002182465076,0.00013137315977473918,4.891891057923203e-05,-2.215683456086026e-05,0.0,0.0,0.0,1.0
1623493002236485695,281,1623493002236033916,3.65278729077545e-05,2.690003134375729e-05,-5.9602734395980406e-05,0.0,0.0,0.0,1.0
1623493002286045352,282,1623493002285614013,8.699473437445704e-05,3.1152891438068764e-05,4.3093065542620934e-05,0.0,0.0,0.0,1.0
1623493002333744378,283,1623493002333053112,-7.06535684003029e-06,1.1439338209129346e-05,3.536749247246007e-06,0.0,0.0,0.0,1.0
1623493002380936792,284,1623493002380320072,7.234930012600671e-05,2.572041739767883e-05,6.441970781878581e-05,0.0,0.0,0.0,1.0
1623493002433872802,285,1623493002433058977,-4.254500026945607e-06,5.31575631157466e-06,2.8848763093947127e-06,0.0,0.0,0.0,1.0
1623493002484256068,286,1623493002483792066,1.891098099804367e-05,1.2792828215424379e-05,-3.031279962328881e-05,0.0,0.0,0.0,1.0
1623493002537169543,287,1623493002536912918,7.172245204856154e-05,3.229796118375816e-05,6.206225672400478e-05,0.0,0.0,0.0,1.0
1623493002583141258,288,1623493002582878112,0.00013114160083205206,4.9301237595500425e-05,-2.204448419718119e-05,0.0,0.0,0.0,1.0
1623493002634550300,289,1623493002634299039,-7.506846327487438e-05,-3.2929422332017566e-05,-5.74825760963904e-05,0.0,0.0,0.0,1.0
1623493002681730288,290,1623493002681399106,7.724184843027615e-05,9.206443257880892e-05,2.6307754211529755e-05,0.0,0.0,0.0,1.0
1623493002735725752,291,1623493002735338926,7.066493913043814e-05,2.8266947992960922e-05,6.534957184101131e-05,0.0,0.0,0.0,1.0
1623493002782233702,292,1623493002781609058,5.8426121540833265e-05,2.2722265043739753e-05,-8.558385632539967e-05,0.0,0.0,0.0,1.0
1623493002838275836,293,1623493002837380886,7.15094504357694e-05,3.456413935509772e-05,6.124624557912739e-05,0.0,0.0,0.0,1.0
1623493002881534860,294,1623493002881016016,5.433334285953606e-05,2.4023955347729498e-05,-8.097811939222765e-05,0.0,0.0,0.0,1.0
1623493002935143634,295,1623493002934288024,7.43108034839679e-05,2.971532876472338e-05,5.999436358905541e-05,0.0,0.0,0.0,1.0
1623493003011409710,296,1623493003010863065,-7.156343144743005e-07,-5.29941917193355e-06,3.4594722251313215e-06,0.0,0.0,0.0,1.0
1623493003050355784,297,1623493003049810886,4.083090402673406e-05,1.0630067436068202e-05,-5.7289326520049144e-05,0.0,0.0,0.0,1.0
1623493003093194561,298,1623493003092561006,4.4861021251563216e-05,9.997931022098783e-05,6.389201503509412e-05,0.0,0.0,0.0,1.0
1623493003177087822,299,1623493003175843000,6.43416628918203e-05,3.12208677542003e-05,7.201267993650617e-05,0.0,0.0,0.0,1.0
1623493003220159484,300,1623493003219647884,-8.942160548031097e-05,6.35780349966808e-06,-5.800432384717169e-05,0.0,0.0,0.0,1.0
1623493003262540774,301,1623493003262022972,-3.984734121331712e-05,0.00010074013471239596,2.551716235643653e-06,0.0,0.0,0.0,1.0
1623493003305424220,302,1623493003304800033,-9.593329150447971e-05,1.4904898193890403e-05,-5.378629202823504e-05,0.0,0.0,0.0,1.0
1623493003344656921,303,1623493003343949079,6.554953870363533e-05,5.2404688517526665e-05,6.0296241414903307e-05,0.0,0.0,0.0,1.0
1623493003388185734,304,1623493003387528896,-3.941961267628358e-06,1.671395239100093e-06,4.2354902731744914e-06,0.0,0.0,0.0,1.0
1623493003435328521,305,1623493003434773921,-1.2931042419950245e-05,1.0685578331504075e-05,1.1395490702170719e-05,0.0,0.0,0.0,1.0
1623493003482692508,306,1623493003481920957,-6.816603399784071e-05,6.814679534272727e-05,5.4396744104678874e-05,0.0,0.0,0.0,1.0
1623493003535419749,307,1623493003534750938,3.2693066032152274e-05,1.540478467632056e-05,-4.918150344934702e-05,0.0,0.0,0.0,1.0
1623493003580609427,308,1623493003580054044,-1.1583459581743227e-05,0.00011272392100636353,-3.932620955993116e-05,0.0,0.0,0.0,1.0
1623493003634473306,309,1623493003633913993,-4.174276000412647e-05,0.00010474335488197539,3.051845439472345e-06,0.0,0.0,0.0,1.0
1623493003684777090,310,1623493003684149026,0.00011786531968027703,4.583346014896961e-05,-3.4113285352077583e-06,0.0,0.0,0.0,1.0
1623493003736833956,311,1623493003735866069,7.041260755613621e-05,3.2472270277139614e-05,6.365262857599419e-05,0.0,0.0,0.0,1.0
1623493003781013623,312,1623493003780503034,0.00010783191805785464,2.694836769023823e-05,1.84807846608237e-05,0.0,0.0,0.0,1.0
1623493003834275010,313,1623493003833652019,0.00010488642851669283,3.3023121886799345e-05,1.9328161712905967e-05,0.0,0.0,0.0,1.0
1623493003882478958,314,1623493003881957054,8.642819648230216e-05,2.534842474233301e-05,4.6604505662628526e-05,0.0,0.0,0.0,1.0
1623493003937512324,315,1623493003936975002,5.74760176732525e-05,0.0001081481686924235,4.3846395904267865e-05,0.0,0.0,0.0,1.0
1623493003982793759,316,1623493003982167005,7.753966997370298e-05,2.1134568100933393e-05,5.998821525565745e-05,0.0,0.0,0.0,1.0
1623493004034273274,317,1623493004033734083,9.45804299590236e-05,0.00014203974910742545,-1.9850352636296975e-05,0.0,0.0,0.0,1.0
1623493004082963261,318,1623493004082541942,-2.883170986933692e-05,8.91856226417076e-05,-5.978563898167977e-06,0.0,0.0,0.0,1.0
1623493004133957015,319,1623493004133539915,4.777750064022257e-05,4.272361195489793e-05,-8.157903207006711e-05,0.0,0.0,0.0,1.0
1623493004180935126,320,1623493004180531978,7.44673147892172e-05,2.5126690047727607e-05,6.199784552052279e-05,0.0,0.0,0.0,1.0
1623493004236995587,321,1623493004236465930,0.00013123222083777364,4.7396287527590175e-05,-2.1245532870750594e-05,0.0,0.0,0.0,1.0
1623493004282149919,322,1623493004281596899,-4.0565074641563115e-05,9.925267238486413e-05,4.183318488060195e-06,0.0,0.0,0.0,1.0
1623493004332484303,323,1623493004331896066,3.478358235042833e-05,3.8775168491156364e-05,-6.307593405097123e-05,0.0,0.0,0.0,1.0
1623493004383244069,324,1623493004382545948,5.3407311725095497e-05,2.977005851789727e-05,-8.25539083209037e-05,0.0,0.0,0.0,1.0
1623493004434760391,325,1623493004434254884,0.00014639625737800088,6.422978265163692e-05,0.00012052829551834066,0.0,0.0,0.0,1.0
1623493004484129309,326,1623493004483675956,1.4595344737244886e-05,0.00012837837493862025,-8.03017208497181e-05,0.0,0.0,0.0,1.0
1623493004539455152,327,1623493004539031028,1.846712871156342e-05,0.00012202511106806924,-8.219927765651391e-05,0.0,0.0,0.0,1.0
1623493004580889289,328,1623493004580502986,7.076858878463099e-05,9.633585784740717e-05,3.252987072954738e-05,0.0,0.0,0.0,1.0
1623493004633719436,329,1623493004633399963,1.3523935194825754e-05,8.5273262584451e-06,-2.1379453229997125e-05,0.0,0.0,0.0,1.0
1623493004681590413,330,1623493004681344032,8.260706908913562e-05,8.914535817439173e-05,2.08523886584544e-05,0.0,0.0,0.0,1.0
1623493004737838152,331,1623493004737185955,1.282526886825508e-05,1.072656732503674e-05,-2.1542605544766502e-05,0.0,0.0,0.0,1.0
1623493004785166430,332,1623493004784439086,2.3682614482822828e-05,1.9425503182901593e-05,-3.959633401962037e-05,0.0,0.0,0.0,1.0
1623493004834193747,333,1623493004833697080,-0.00010639991614880273,6.576270743607893e-05,-6.48313778626175e-05,0.0,0.0,0.0,1.0
1623493004881364742,334,1623493004880706071,0.00010630197448335821,3.9903558672449435e-05,1.4214955037061827e-05,0.0,0.0,0.0,1.0
1623493004933175033,335,1623493004932502985,0.00010284002314620011,3.960323567753221e-05,1.8783774557107336e-05,0.0,0.0,0.0,1.0
1623493004981474363,336,1623493004980760097,1.9668925460791797e-05,4.97206715408538e-05,-4.901451435301851e-05,0.0,0.0,0.0,1.0
1623493005037257907,337,1623493005036768913,5.09952483298548e-05,1.4993895092629828e-05,-7.237553710837119e-05,0.0,0.0,0.0,1.0
1623493005081098089,338,1623493005080401897,-1.7861511878436431e-06,-3.9894320025268826e-06,4.198600045413059e-06,0.0,0.0,0.0,1.0
1623493005133687667,339,1623493005133188962,-3.0003857318661176e-06,-3.3278456612606533e-07,3.99451724319988e-06,0.0,0.0,0.0,1.0
1623493005181977318,340,1623493005181345939,9.554332632433216e-05,0.000145672499002103,-2.282543875509191e-05,0.0,0.0,0.0,1.0
1623493005235579551,341,1623493005235034942,5.4787251883681165e-05,2.4125619347614702e-05,-8.160706229887182e-05,0.0,0.0,0.0,1.0
1623493005282135320,342,1623493005281497955,9.149390007223701e-05,0.00013683840757039434,-1.340788839598872e-05,0.0,0.0,0.0,1.0
1623493005337004844,343,1623493005336342096,3.552676434992463e-05,7.162033125496237e-05,-7.979814926528661e-05,0.0,0.0,0.0,1.0
1623493005382045427,344,1623493005381453037,9.629736928218335e-05,4.026997612527339e-05,2.6825549483078248e-05,0.0,0.0,0.0,1.0
1623493005434957736,345,1623493005434340000,1.6176692724911845e-05,0.00012365502630018455,-8.005463912041932e-05,0.0,0.0,0.0,1.0
1623493005484344792,346,1623493005483928918,7.709800001975964e-05,6.744368295130698e-05,3.831463429548876e-05,0.0,0.0,0.0,1.0
1623493005536139486,347,1623493005535893917,9.98727932710608e-06,-6.369956508933683e-07,-1.2458562174799681e-05,0.0,0.0,0.0,1.0
1623493005588472519,348,1623493005588221073,7.31999748495582e-05,2.7456687803351087e-05,6.249870721575235e-05,0.0,0.0,0.0,1.0
1623493005638569972,349,1623493005638220071,-2.3165346419773414e-05,-7.258030336743104e-06,-0.00013614584529619833,0.0,0.0,0.0,1.0
1623493005681436184,350,1623493005680931091,0.00011472732467154856,4.6181976472325914e-05,4.3186774689729646e-07,0.0,0.0,0.0,1.0
1623493005734410655,351,1623493005734066963,-4.699605824498576e-06,7.5278768463249435e-06,2.3914705380434498e-06,0.0,0.0,0.0,1.0
1623493005782129929,352,1623493005781481981,6.899865206833056e-05,3.3252802381866786e-05,6.508494708157286e-05,0.0,0.0,0.0,1.0
1623493005836197183,353,1623493005835760116,4.472949922273983e-05,5.624525022085436e-05,-8.417664740534292e-05,0.0,0.0,0.0,1.0
1623493005885768946,354,1623493005885138988,1.0588191344140796e-05,0.0001233004553569117,-7.274191285233655e-05,0.0,0.0,0.0,1.0
1623493005935223391,355,1623493005934645891,9.486762860433373e-05,0.00014859761301977414,-2.3366491213039353e-05,0.0,0.0,0.0,1.0
1623493006012639382,356,1623493006011996030,7.681194574615802e-05,0.00014550824471371016,1.1933519843410068e-06,0.0,0.0,0.0,1.0
1623493006093337934,357,1623493006092592954,1.8167256257584086e-05,0.00012245838399849163,-8.202407893520558e-05,0.0,0.0,0.0,1.0
1623493006140870691,358,1623493006140424013,-4.549005598164513e-05,0.00010526229834795231,7.591976270759915e-06,0.0,0.0,0.0,1.0
1623493006182234978,359,1623493006181790113,-4.820158437723876e-06,0.00011309600358799798,-4.814884682957654e-05,0.0,0.0,0.0,1.0
1623493006236209962,360,1623493006235584020,-3.7250022160151275e-06,1.8350706341152545e-06,3.8796019978804e-06,0.0,0.0,0.0,1.0
1623493006283322145,361,1623493006282807111,7.011043726379285e-05,0.00014339865401780116,1.0771356500072216e-05,0.0,0.0,0.0,1.0
1623493006336057374,362,1623493006335403919,4.374811169327586e-06,6.44660219677462e-05,-3.654839957079048e-05,0.0,0.0,0.0,1.0
1623493006382992885,363,1623493006382317066,7.217652637336869e-06,0.0001215355542854013,-6.758664208916798e-05,0.0,0.0,0.0,1.0
1623493006436414897,364,1623493006435807943,8.560103469790192e-05,0.0001486296523580677,-1.153857895985766e-05,0.0,0.0,0.0,1.0
1623493006479235181,365,1623493006478990077,-2.114519406859472e-05,-2.2677369315715623e-06,-0.00014112409194666498,0.0,0.0,0.0,1.0
1623493006534722887,366,1623493006534437894,7.296451258298475e-06,3.815128252426803e-06,-1.1157450344967401e-05,0.0,0.0,0.0,1.0
1623493006581612429,367,1623493006581330060,4.221893550493405e-05,1.7917472973749682e-05,-6.256278612681854e-05,0.0,0.0,0.0,1.0
1623493006634430212,368,1623493006633955001,1.5388764722956694e-05,5.654456458614732e-06,-2.2383254844271505e-05,0.0,0.0,0.0,1.0
1623493006690372674,369,1623493006689198970,1.732858072500676e-05,9.584720942257263e-06,-2.674982265205017e-05,0.0,0.0,0.0,1.0
1623493006736627285,370,1623493006736021995,9.325197129328444e-05,0.00014944926692805893,-2.1710542718267334e-05,0.0,0.0,0.0,1.0
1623493006782640647,371,1623493006781883001,0.0001308514831634966,5.2702367611345835e-05,-2.3306939958445128e-05,0.0,0.0,0.0,1.0
1623493006832842102,372,1623493006832348108,8.216417359108164e-05,7.206180532648432e-05,2.9622058555389685e-05,0.0,0.0,0.0,1.0
1623493006882297064,373,1623493006881772994,-5.27810925632366e-06,-2.4699227196833817e-06,7.931891914836342e-06,0.0,0.0,0.0,1.0
1623493006934966439,374,1623493006934539079,7.45704296605254e-05,2.515628239052603e-05,6.185184670925992e-05,0.0,0.0,0.0,1.0
1623493006983158326,375,1623493006982703924,5.505199192157306e-05,7.052293801734777e-05,6.501234270217537e-05,0.0,0.0,0.0,1.0
1623493007034344493,376,1623493007033890008,-7.928859531602939e-05,-2.820307508955011e-05,-5.4358585217073596e-05,0.0,0.0,0.0,1.0
1623493007082224852,377,1623493007081892013,7.282878368641832e-05,2.946728670849552e-05,6.200760478236589e-05,0.0,0.0,0.0,1.0
1623493007132362403,378,1623493007132050991,-6.566770025528967e-06,1.195409140564152e-06,7.818761858402468e-06,0.0,0.0,0.0,1.0
1623493007182635943,379,1623493007182255983,-3.134573489660397e-05,7.197864681529609e-05,5.49741901068046e-06,0.0,0.0,0.0,1.0
1623493007237516761,380,1623493007236959934,7.220790394057985e-05,2.4621299189675483e-05,6.512823142656998e-05,0.0,0.0,0.0,1.0
1623493007283963438,381,1623493007282505989,-3.485325350993662e-06,1.4796139566897182e-06,3.743971817016245e-06,0.0,0.0,0.0,1.0
1623493007335007316,382,1623493007334359884,-2.8912930702063022e-05,6.668840387646924e-05,4.928518364977208e-06,0.0,0.0,0.0,1.0
1623493007384414976,383,1623493007383799076,6.997744867476285e-05,2.436075931200321e-05,6.810403074553051e-05,0.0,0.0,0.0,1.0
1623493007436633433,384,1623493007435898065,7.165974534473207e-05,2.9889253482906497e-05,6.32990879481099e-05,0.0,0.0,0.0,1.0
1623493007484962268,385,1623493007484122991,7.071162872307468e-05,2.7054393285652623e-05,6.587218122433569e-05,0.0,0.0,0.0,1.0
1623493007536747654,386,1623493007535773038,7.071240270306589e-05,3.206796691301861e-05,6.346361912079601e-05,0.0,0.0,0.0,1.0
1623493007581089494,387,1623493007580631017,-8.138891394082748e-05,-2.6127163891942473e-05,-5.2671099929568754e-05,0.0,0.0,0.0,1.0
1623493007635021927,388,1623493007634452104,-3.3110627555288374e-06,1.188969008580898e-06,3.6608224291967417e-06,0.0,0.0,0.0,1.0
1623493007685016013,389,1623493007682356119,-3.251477664889535e-06,-8.949348284659209e-08,4.198600045413059e-06,0.0,0.0,0.0,1.0
1623493007736813160,390,1623493007736097097,0.00010549425405770307,4.2474538417991425e-05,1.4012669019791701e-05,0.0,0.0,0.0,1.0
1623493007781524059,391,1623493007781061887,-3.1526483326160815e-06,6.051743639545748e-07,3.738701792599386e-06,0.0,0.0,0.0,1.0
1623493007834512897,392,1623493007833949089,-6.963898158574011e-06,2.2387016542779747e-06,7.825320111010114e-06,0.0,0.0,0.0,1.0
1623493007880757342,393,1623493007880280971,-7.665958037250675e-07,-1.929823156388011e-06,1.9064869860585532e-06,0.0,0.0,0.0,1.0
1623493007943556318,394,1623493007943136930,5.7279155726064346e-05,2.0222926423230092e-05,-8.291776772040294e-05,0.0,0.0,0.0,1.0
1623493007988597736,395,1623493007987905979,1.719107171993528e-05,7.1708008135829004e-06,-2.5414889691433018e-05,0.0,0.0,0.0,1.0
1623493008035810690,396,1623493008035037994,-5.332208229447133e-05,-2.2319238269119523e-05,-9.037109061438287e-05,0.0,0.0,0.0,1.0
1623493008081647343,397,1623493008081094980,-3.3635894851613557e-06,7.440753506671172e-07,3.941598073708974e-06,0.0,0.0,0.0,1.0
1623493008133310876,398,1623493008132711887,0.00014722152832291613,5.39236252734554e-05,0.00012442266721279793,0.0,0.0,0.0,1.0
1623493008180268842,399,1623493008179826021,0.00011755969762816676,4.8277776386385085e-05,-4.194502572829606e-06,0.0,0.0,0.0,1.0
1623493008236172301,400,1623493008235735893,-3.583434136089636e-06,-3.4887984838860575e-06,6.255248607089925e-06,0.0,0.0,0.0,1.0
1623493008281743555,401,1623493008281229972,-2.570642209320795e-06,-7.560402082162909e-07,3.6485256629248397e-06,0.0,0.0,0.0,1.0
1623493008334424142,402,1623493008333945035,-4.038795168526121e-06,2.9368125069595408e-06,3.751584117139828e-06,0.0,0.0,0.0,1.0
1623493008382975140,403,1623493008382390022,6.94951747846062e-05,3.172850904320512e-05,6.518233686847452e-05,0.0,0.0,0.0,1.0
1623493008435976581,404,1623493008435201883,6.956953575354419e-05,3.617261154431617e-05,6.295319288085466e-05,0.0,0.0,0.0,1.0
1623493008484975667,405,1623493008484522104,-7.956174795253901e-05,-2.361726694743993e-05,-5.6211630827363024e-05,0.0,0.0,0.0,1.0
1623493008536072185,406,1623493008535489082,-2.2961846752878046e-06,-2.5799354261835106e-06,4.1736038483009e-06,0.0,0.0,0.0,1.0
1623493008581789172,407,1623493008581311941,1.2846808203903493e-05,9.533219781587832e-06,-2.0997077832873856e-05,0.0,0.0,0.0,1.0
1623493008634014556,408,1623493008633626937,-8.158516334333399e-05,-2.5938689873328258e-05,-5.251078609092019e-05,0.0,0.0,0.0,1.0
1623493008680989757,409,1623493008680737972,-3.3089020689658355e-05,-1.0042424264611327e-05,4.7112766807799744e-05,0.0,0.0,0.0,1.0
1623493008736131052,410,1623493008735642910,-3.390982328710379e-06,-4.253195925230102e-06,6.376353560710868e-06,0.0,0.0,0.0,1.0
1623493008784087683,411,1623493008783544063,-1.4387117744263378e-05,2.867546811557986e-05,4.617544242080385e-06,0.0,0.0,0.0,1.0
1623493008833632020,412,1623493008832705020,-4.38063427736779e-05,0.00010416121563139313,5.968805837142099e-06,0.0,0.0,0.0,1.0
1623493008881151053,413,1623493008880697011,3.424468832236016e-05,0.0001304527731917915,6.282699526138913e-05,0.0,0.0,0.0,1.0
1623493008933818738,414,1623493008933327913,-4.4219654228072613e-05,0.00010375895794823009,6.690214902960179e-06,0.0,0.0,0.0,1.0
1623493008982144636,415,1623493008981654882,3.663911411422305e-05,0.00012224902354773803,6.370620857865106e-05,0.0,0.0,0.0,1.0
1623493009035150935,416,1623493009034840106,3.322405882499879e-05,0.00012214426772061415,6.812121252153247e-05,0.0,0.0,0.0,1.0
1623493009082520167,417,1623493009082165002,-2.163849921998917e-05,4.7578978637830005e-05,4.8077268672841456e-06,0.0,0.0,0.0,1.0
1623493009134188251,418,1623493009133877038,3.4537553574409685e-05,0.00012747620189657027,6.38820512364191e-05,0.0,0.0,0.0,1.0
1623493009181202404,419,1623493009180876016,-4.176167817604437e-05,0.00010394727928542125,3.4583024586254396e-06,0.0,0.0,0.0,1.0
1623493009235305233,420,1623493009234785079,-1.3174945024729823e-05,0.00011047937550756615,-3.621434747458352e-05,0.0,0.0,0.0,1.0
1623493009282733394,421,1623493009282022953,-7.051057673379546e-05,8.7740286630833e-05,4.7984334706541176e-05,0.0,0.0,0.0,1.0
1623493009335556292,422,1623493009334968090,-4.209365124552278e-05,9.960283512100432e-05,5.968805837142099e-06,0.0,0.0,0.0,1.0
1623493009383856647,423,1623493009383229970,-9.02312981452269e-05,7.548033579496405e-05,7.907639402304767e-05,0.0,0.0,0.0,1.0
1623493009434767430,424,1623493009434230089,3.33916966610559e-05,0.0001292245733566233,6.450696904636288e-05,0.0,0.0,0.0,1.0
1623493009483270371,425,1623493009482800006,-4.129810668018763e-05,9.786292218905146e-05,5.787551828007054e-06,0.0,0.0,0.0,1.0
1623493009537228654,426,1623493009536787033,-0.0001179737412257964,7.001764822689438e-05,-5.208239913656598e-05,0.0,0.0,0.0,1.0
1623493009582645543,427,1623493009581870079,-4.182137081443216e-05,9.869890118352487e-05,6.0548830447260116e-06,0.0,0.0,0.0,1.0
1623493009635332826,428,1623493009634856939,-6.296822175499983e-05,4.977861055976973e-05,5.657406805426035e-05,0.0,0.0,0.0,1.0
1623493009681654531,429,1623493009680952072,5.1215709163443535e-05,8.427672798916319e-05,6.331072668785964e-05,0.0,0.0,0.0,1.0
1623493009736310014,430,1623493009735852003,6.909293665557925e-05,3.6652381595558836e-05,6.333193091734302e-05,0.0,0.0,0.0,1.0
1623493009783553011,431,1623493009782931089,5.648953651871125e-05,6.617544045184331e-05,6.526275734586306e-05,0.0,0.0,0.0,1.0
1623493009835484967,432,1623493009834577083,7.209610771496955e-05,3.129597166662279e-05,6.206586377999201e-05,0.0,0.0,0.0,1.0
1623493009884942942,433,1623493009884330034,0.00011077027056671795,6.59541836967037e-05,-4.005509133264695e-06,0.0,0.0,0.0,1.0
1623493009935521469,434,1623493009934870958,-3.628959893831052e-05,0.00010314969836144883,-3.1524253572001726e-06,0.0,0.0,0.0,1.0
1623493009981478378,435,1623493009980658054,-5.216164709054283e-06,7.891470772847242e-06,2.8770689652901638e-06,0.0,0.0,0.0,1.0
1623493010032880334,436,1623493010032560110,-1.1152432989547378e-05,1.650390765917109e-05,6.328275702571773e-06,0.0,0.0,0.0,1.0
1623493010081885135,437,1623493010081469058,-4.3639701516440255e-05,0.00010214873123004509,6.722227425370875e-06,0.0,0.0,0.0,1.0
1623493010135720989,438,1623493010135257005,-3.5077313441433944e-05,8.181144573882193e-05,5.544895429920871e-06,0.0,0.0,0.0,1.0
1623493010184819184,439,1623493010184428930,-1.559056045152829e-06,-2.2277591824604315e-06,3.062380876883708e-06,0.0,0.0,0.0,1.0
1623493010235900091,440,1623493010235207080,5.4208757774176775e-05,2.257812525385816e-05,-8.012459561257401e-05,0.0,0.0,0.0,1.0
1623493010280915851,441,1623493010280468940,2.675781365724106e-05,0.00010149226136491052,-8.29354287148476e-05,0.0,0.0,0.0,1.0
1623493010334157342,442,1623493010333230018,0.00012830714263145637,4.9342872443958186e-05,-1.8441868277818685e-05,0.0,0.0,0.0,1.0
1623493010381699926,443,1623493010381156921,-4.069770511705428e-06,4.363741140878119e-06,3.1059464902227774e-06,0.0,0.0,0.0,1.0
1623493010436689322,444,1623493010436048030,0.00012948953394698037,5.101444912725128e-05,-2.075573798521191e-05,0.0,0.0,0.0,1.0
1623493010484472655,445,1623493010483967065,5.742541407016688e-05,6.816890015670651e-05,6.310936095133002e-05,0.0,0.0,0.0,1.0
1623493010537287738,446,1623493010536643981,2.359081145186792e-05,1.0904537134592829e-05,-3.5387164771805146e-05,0.0,0.0,0.0,1.0
1623493010583411733,447,1623493010582849979,5.9178249784963555e-05,1.6236086366916425e-05,-8.343041718461564e-05,0.0,0.0,0.0,1.0
1623493010635696164,448,1623493010634763956,2.3213842723635025e-05,1.240529820734082e-05,-3.562605201068436e-05,0.0,0.0,0.0,1.0
1623493010681860315,449,1623493010680977106,0.0001283029266687663,5.580975721386494e-05,-2.1541918044931663e-05,0.0,0.0,0.0,1.0
1623493010742546750,450,1623493010741686105,2.916508651651384e-05,2.6848038032767363e-06,-3.85642700919675e-05,0.0,0.0,0.0,1.0
1623493010782537555,451,1623493010781846046,-1.7055506077667815e-05,-1.4330865269585047e-05,-0.0001405581678852741,0.0,0.0,0.0,1.0
1623493010834945757,452,1623493010834335088,5.524061816686299e-05,2.1479616634678678e-05,-8.091586466463241e-05,0.0,0.0,0.0,1.0
1623493010884063526,453,1623493010881424903,5.4710268159396946e-05,1.871666063379962e-05,-7.891125620318462e-05,0.0,0.0,0.0,1.0
1623493010943697730,454,1623493010942882061,2.5935225949069718e-05,0.00010157461406379298,-8.192365611847663e-05,0.0,0.0,0.0,1.0
1623493010982964978,455,1623493010982428073,-1.1407925967432675e-05,7.289419966127753e-05,-2.042421102288472e-05,0.0,0.0,0.0,1.0
1623493011040803173,456,1623493011040337085,3.7551457126028254e-05,3.58836035729837e-05,-6.522490718907648e-05,0.0,0.0,0.0,1.0
1623493011082480358,457,1623493011081744909,0.00010871726772165857,2.1211925741226878e-05,2.0103944827098985e-05,0.0,0.0,0.0,1.0
1623493011133787974,458,1623493011133184909,3.8165675732670934e-05,6.48426884026776e-05,-7.991619763458857e-05,0.0,0.0,0.0,1.0
1623493011184065762,459,1623493011183578014,3.476335723462398e-05,7.803787298144016e-05,-8.190418606091043e-05,0.0,0.0,0.0,1.0
1623493011241513117,460,1623493011240978956,3.379802819836186e-05,0.00013136434097305028,6.296012309547905e-05,0.0,0.0,0.0,1.0
1623493011284913552,461,1623493011284521102,6.864393367322918e-05,2.807376847613341e-05,6.802533192740157e-05,0.0,0.0,0.0,1.0
1623493011333891519,462,1623493011333493947,7.80927475716453e-05,3.228520017728442e-05,5.392668762027597e-05,0.0,0.0,0.0,1.0
1623493011380929942,463,1623493011380628108,1.7503597064205678e-05,1.0282501534675248e-05,-2.730858599164776e-05,0.0,0.0,0.0,1.0
1623493011433611825,464,1623493011433222055,7.966673820192227e-06,5.790896386770328e-05,-3.7990313423108546e-05,0.0,0.0,0.0,1.0
1623493011483976207,465,1623493011483483076,2.6126936290893354e-05,7.75588000578864e-06,-3.711648896853603e-05,0.0,0.0,0.0,1.0
1623493011543782502,466,1623493011542824983,1.0959832252410706e-05,8.31662571272318e-05,-5.3944420663754045e-05,0.0,0.0,0.0,1.0
1623493011582332364,467,1623493011581804990,-3.8351345210685395e-06,1.8547685840530903e-06,4.010900113371463e-06,0.0,0.0,0.0,1.0
1623493011636558471,468,1623493011635828018,7.24316951163928e-05,2.748260612861486e-05,6.346817824010031e-05,0.0,0.0,0.0,1.0
1623493011681076788,469,1623493011680517911,7.30594670130813e-05,2.707294004267169e-05,6.286256626708564e-05,0.0,0.0,0.0,1.0
1623493011737672789,470,1623493011736946105,6.978950545999396e-05,2.857907963971229e-05,6.631855109873186e-05,0.0,0.0,0.0,1.0
