%time,field.header.seq,field.header.stamp,field.pose.position.x,field.pose.position.y,field.pose.position.z,field.pose.orientation.x,field.pose.orientation.y,field.pose.orientation.z,field.pose.orientation.w
1623492389854913600,609,1623492389854409027,2.0139139905950287e-05,0.0003243979685976228,-0.00025231711195772277,0.0,0.0,0.0,1.0
1623492389900786633,610,1623492389900181102,-6.557814549523755e-05,0.0003323991461456899,-0.00030888218302038695,0.0,0.0,0.0,1.0
1623492389958841216,611,1623492389958425092,-1.877931299532065e-05,0.00027418924287303525,-0.00035248560828904374,0.0,0.0,0.0,1.0
1623492390006034672,612,1623492390005612897,-6.301767825789284e-05,0.0002747706096215552,-0.0002994672102971663,0.0,0.0,0.0,1.0
1623492390056322961,613,1623492390055882024,-4.940183566759515e-05,0.00013665288361153216,-0.0002858863377568355,0.0,0.0,0.0,1.0
1623492390102131866,614,1623492390101578998,6.904823658260284e-05,0.0002573885590209102,-0.0002965481638952383,0.0,0.0,0.0,1.0
1623492390155863385,615,1623492390155156898,0.00014424635969589872,0.0002778089208277379,-0.00023350652462994503,0.0,0.0,0.0,1.0
1623492390205755062,616,1623492390204589891,9.647141814639326e-05,0.00019917845168038184,-0.00015906998635983882,0.0,0.0,0.0,1.0
1623492390256285913,617,1623492390254583883,7.374690403594286e-05,0.0002478226404036832,-0.0003001192968952182,0.0,0.0,0.0,1.0
1623492390305598168,618,1623492390304983901,-2.2874179421705776e-05,0.0001779271707391672,-0.0003267011737904113,0.0,0.0,0.0,1.0
1623492390356127389,619,1623492390355499076,-3.7670710298698395e-05,0.00021375297183112707,-0.00031669130196121387,0.0,0.0,0.0,1.0
1623492390404676212,620,1623492390403874921,6.879794659653271e-05,0.0003521947805893433,-0.00015899194844593012,0.0,0.0,0.0,1.0
1623492390454861069,621,1623492390454408931,4.106207052245736e-05,0.00024335711759704282,-0.00025988655723097054,0.0,0.0,0.0,1.0
1623492390502190677,622,1623492390501747894,2.7990290163870668e-05,0.00013714935391817562,-0.00022116171609809498,0.0,0.0,0.0,1.0
1623492390557330311,623,1623492390556783008,1.6371097899536835e-06,0.00028251920195998537,-0.0002210129627826518,0.0,0.0,0.0,1.0
1623492390604537355,624,1623492390604097890,-3.7750626916022156e-05,0.00017742677800924866,-0.00030872134426829234,0.0,0.0,0.0,1.0
1623492390656079440,625,1623492390655604887,2.207733132308931e-05,0.00018551783853126835,-0.00022454273447891637,0.0,0.0,0.0,1.0
1623492390702430686,626,1623492390701783943,0.00012672345110331662,0.00020678455041434063,-0.00019706108666639466,0.0,0.0,0.0,1.0
1623492390782410545,627,1623492390781673955,7.276999940586393e-05,0.00024511335163879266,-0.0002983584812739082,0.0,0.0,0.0,1.0
1623492390823458816,628,1623492390822830009,-2.4926289370341692e-05,0.00022255524299907847,-0.00033390935054455895,0.0,0.0,0.0,1.0
1623492390865426828,629,1623492390864847946,-5.649666218232596e-05,0.00017483576368704234,-0.00028563968497508085,0.0,0.0,0.0,1.0
1623492390907785128,630,1623492390907193946,2.5325357455585618e-05,0.00025390792211510416,-0.0002432686472388923,0.0,0.0,0.0,1.0
1623492390954793011,631,1623492390954160022,1.2684398370765848e-05,0.00021497192165043089,-0.00021964318243306025,0.0,0.0,0.0,1.0
1623492391033173282,632,1623492391032713937,-9.380697269989469e-05,0.0004687006800168092,-0.00014670685117579296,0.0,0.0,0.0,1.0
1623492391115386175,633,1623492391114855098,-8.659718628223345e-05,0.0003786927644569005,-0.00029366540926645257,0.0,0.0,0.0,1.0
1623492391163512275,634,1623492391162945079,-0.00010634999739522755,0.0004559622448141454,-0.00028668325708025577,0.0,0.0,0.0,1.0
1623492391251934158,635,1623492391251010942,-0.00012825213821088255,0.0004592089310335723,-0.00041888020219715827,0.0,0.0,0.0,1.0
1623492391333575076,636,1623492391332969951,-3.933816446988203e-05,0.00048294158671069454,-0.00021522865490908316,0.0,0.0,0.0,1.0
1623492391372953321,637,1623492391372508096,-5.098827864458144e-05,0.0004677081309409914,-0.00035573631411978113,0.0,0.0,0.0,1.0
1623492391416698818,638,1623492391416136074,6.26309554263571e-05,0.0003710935975504981,-0.00031348434674782766,0.0,0.0,0.0,1.0
1623492391460625912,639,1623492391460027980,-1.7392427480444894e-05,0.0003999956783218295,-0.00022361499812006969,0.0,0.0,0.0,1.0
1623492391506421998,640,1623492391505904006,5.084981921754661e-05,0.0005648079592219801,-0.00018351205361710754,0.0,0.0,0.0,1.0
1623492391586449573,641,1623492391585928964,0.00010853678372768627,0.0004060570860247026,-0.00037620944866745276,0.0,0.0,0.0,1.0
1623492391631226791,642,1623492391630816030,-4.503726086113602e-05,0.0003879147882344114,-0.0005033950243316099,0.0,0.0,0.0,1.0
1623492391676045624,643,1623492391675315904,-8.431271567133081e-05,0.00037228512610454345,-0.0002950209876289023,0.0,0.0,0.0,1.0
1623492391718066631,644,1623492391717619943,2.0315553001637454e-05,0.0003863768240535137,-0.0002659626928362968,0.0,0.0,0.0,1.0
1623492391767117376,645,1623492391766629981,4.219987113174284e-05,0.0004854511356597868,-0.00015592128161046048,0.0,0.0,0.0,1.0
1623492391808967483,646,1623492391808418083,-3.0116490279397112e-05,0.0003852329697338064,-0.0003629343727880041,0.0,0.0,0.0,1.0
1623492391859948127,647,1623492391859526920,-0.00012509905491242534,0.00046510445088188135,-0.0004239458216517278,0.0,0.0,0.0,1.0
1623492391905989850,648,1623492391905426073,8.44990154291736e-06,0.00038753134890612273,-0.0004097627865533582,0.0,0.0,0.0,1.0
1623492391963287512,649,1623492391962766933,-1.5347299950008164e-05,0.00046024935295463365,-0.00023913127895980324,0.0,0.0,0.0,1.0
1623492392011302779,650,1623492392010627079,-0.0001672691614658106,0.00035430938589797734,-0.0003492722737021836,0.0,0.0,0.0,1.0
1623492392063147226,651,1623492392062593984,-6.668985724900267e-05,0.0003843808661940784,-0.00016100801879304072,0.0,0.0,0.0,1.0
1623492392142763266,652,1623492392142278957,-3.1148155130722444e-05,0.00047312967353718705,-0.00022294094201669168,0.0,0.0,0.0,1.0
1623492392186595456,653,1623492392186018037,4.759951843880117e-05,0.00047143637016233697,-0.00015937049629854982,0.0,0.0,0.0,1.0
1623492392227258657,654,1623492392226808118,-4.35486165315524e-05,0.0004767471939430834,-0.0002088279583247754,0.0,0.0,0.0,1.0
1623492392307300487,655,1623492392306508111,4.4621664073929423e-05,0.00040974836588247854,-0.0003002276553516481,0.0,0.0,0.0,1.0
1623492392356677878,656,1623492392355866003,1.3734222648054129e-05,0.0004284949928887727,-0.00026718516937762615,0.0,0.0,0.0,1.0
1623492392404399078,657,1623492392403939056,4.33878728927084e-05,0.0004730937711201477,-0.0003124748714427028,0.0,0.0,0.0,1.0
1623492392455365065,658,1623492392454675006,-9.1500523240029e-05,0.0003735136784825954,-0.0002866523674072141,0.0,0.0,0.0,1.0
1623492392503087844,659,1623492392502759027,0.0001110977757434739,0.00038776078224600496,-0.0002175164480391345,0.0,0.0,0.0,1.0
1623492392556667719,660,1623492392556333112,9.917223451338941e-05,0.0004299402060041757,-0.00021233214527427435,0.0,0.0,0.0,1.0
1623492392605055459,661,1623492392604605007,-0.00010849967179638043,0.00045826314840269333,-0.00028459948526204926,0.0,0.0,0.0,1.0
1623492392657108443,662,1623492392656213092,-3.219811469534761e-05,0.00037768459037579305,-0.00020099270960827198,0.0,0.0,0.0,1.0
1623492392703680002,663,1623492392703145074,4.775649745170085e-05,0.00039153813258963055,-0.0003000466625309173,0.0,0.0,0.0,1.0
1623492392755313744,664,1623492392754565048,-3.0196140187399578e-05,0.0004746019030790194,-0.0002244037113356967,0.0,0.0,0.0,1.0
1623492392803194484,665,1623492392802640008,-0.00010868856065826549,0.000469649528440641,-0.00028684041927817816,0.0,0.0,0.0,1.0
1623492392856007114,666,1623492392855454969,0.00012390228471304,0.0004133410052418185,-0.00023844304512721237,0.0,0.0,0.0,1.0
1623492392905501146,667,1623492392904851961,-9.208639403368579e-05,0.0004628958650982895,-0.00014751571912086092,0.0,0.0,0.0,1.0
1623492392952617960,668,1623492392952368068,-9.01892997262621e-05,0.00036559270938596455,-0.00028651075096775003,0.0,0.0,0.0,1.0
1623492393000612140,669,1623492393000361013,1.739785011523054e-05,0.00040662618891929014,-0.0004246506376262005,0.0,0.0,0.0,1.0
1623492393054992411,670,1623492393054744052,-7.990736321517034e-06,0.0003338199896916194,-0.00022056622038491014,0.0,0.0,0.0,1.0
1623492393102246882,671,1623492393101924943,0.0001237633211985667,0.0004064501375751206,-0.00023678256579273693,0.0,0.0,0.0,1.0
1623492393155869810,672,1623492393155407953,0.0001893956477942993,0.00033627931327373517,-0.00030041819232451417,0.0,0.0,0.0,1.0
1623492393206475045,673,1623492393205697107,5.9874768112422316e-05,0.0002939407340818434,-0.0002934506702985118,0.0,0.0,0.0,1.0
1623492393255891465,674,1623492393255220937,1.2850265875385958e-05,0.0001046505919930496,-0.00035373403520111424,0.0,0.0,0.0,1.0
1623492393303890324,675,1623492393303083944,-5.110031906951917e-05,0.00017596828149635257,-0.00029236792343567686,0.0,0.0,0.0,1.0
1623492393355167801,676,1623492393354534912,5.142131681168394e-05,0.00029016916050750297,-0.00028247791811253364,0.0,0.0,0.0,1.0
1623492393403382834,677,1623492393402940082,-5.775211184300133e-05,0.00018079170683904522,-0.0002854224849713205,0.0,0.0,0.0,1.0
1623492393460755095,678,1623492393460177946,-0.00013401122168943402,0.00026121810776658094,-0.00021124298679353615,0.0,0.0,0.0,1.0
1623492393507904142,679,1623492393507305908,-2.1828117951372406e-05,0.00038308084424443223,-0.00021462009792116987,0.0,0.0,0.0,1.0
1623492393554843187,680,1623492393554224061,-0.00010850589751498774,0.00039842813112045405,-0.0002716233684552094,0.0,0.0,0.0,1.0
1623492393686702478,681,1623492393686125087,-0.00012747799564749585,0.0005635073631538035,-0.00028461023461545665,0.0,0.0,0.0,1.0
1623492393763015215,682,1623492393762456941,-5.6386908454442164e-05,0.0005937878822805942,-0.00021877150273041934,0.0,0.0,0.0,1.0
1623492393804226193,683,1623492393803581047,1.6573307220824063e-05,0.0004857379577742904,-0.0002830025336209019,0.0,0.0,0.0,1.0
1623492393855832077,684,1623492393855177927,-0.000164004780117466,0.0004841045615648909,-0.00038132556044701005,0.0,0.0,0.0,1.0
1623492393904684016,685,1623492393904203939,-0.00026352904637860775,0.0005465341673698276,-0.0002752943783406181,0.0,0.0,0.0,1.0
1623492393952577805,686,1623492393952103900,-0.0001713153892524133,0.000457846915310256,-0.00020904661047183026,0.0,0.0,0.0,1.0
1623492394001697999,687,1623492394001209068,-9.522150639895699e-05,0.0004690163659688551,-0.00014507593706269972,0.0,0.0,0.0,1.0
1623492394057281464,688,1623492394056145954,8.287793070849148e-05,0.00040198914132361097,-0.0005023068447940204,0.0,0.0,0.0,1.0
1623492394152793028,690,1623492394152185964,7.868966099522368e-05,0.00031715632371742686,-0.00047888869097789666,0.0,0.0,0.0,1.0
1623492394200892783,691,1623492394200357961,0.0001394577409428166,0.0003767331209019176,-0.00040699912850072906,0.0,0.0,0.0,1.0
1623492394254649760,692,1623492394254112052,1.571971142766415e-05,0.0003832492462834125,-0.00041756795728531415,0.0,0.0,0.0,1.0
1623492394300368980,693,1623492394299922037,-4.015025183434773e-05,0.0004285434455368886,-0.00036026777703312973,0.0,0.0,0.0,1.0
1623492394356400514,694,1623492394355847883,6.464338343903364e-05,0.0004156133752530877,-0.00016774663588847716,0.0,0.0,0.0,1.0
1623492394404255969,695,1623492394403801965,7.823742157597735e-05,0.00039650631026688643,-0.00033774058381652594,0.0,0.0,0.0,1.0
1623492394456007087,696,1623492394455103921,-0.00018699740985539393,0.0005437435161184112,-0.00020882401771871173,0.0,0.0,0.0,1.0
1623492394502721570,697,1623492394502224016,-5.6865306078179856e-05,0.00017217620506926323,-0.0002846203409134773,0.0,0.0,0.0,1.0
1623492394555403110,698,1623492394554868030,8.088081563073501e-05,0.00020201599761549005,-0.0002987605441830965,0.0,0.0,0.0,1.0
1623492394601123593,699,1623492394600681114,-0.00012868233079643687,0.00015461747022982308,-0.00035234402174921797,0.0,0.0,0.0,1.0
1623492394655664272,700,1623492394655215072,5.149272419657791e-05,0.00030358163076016353,-0.0002854708502937342,0.0,0.0,0.0,1.0
1623492394704842011,701,1623492394704395103,-2.5495338604741846e-05,0.00010390224451839458,-0.00030750661522915834,0.0,0.0,0.0,1.0
1623492394755705118,702,1623492394754914093,0.00012381334136080113,0.0002036789979911191,-0.00035069623147165885,0.0,0.0,0.0,1.0
1623492394804602634,703,1623492394804158020,-4.515887371780991e-05,0.00013302735465003934,-0.0002901976307185805,0.0,0.0,0.0,1.0
1623492394855033252,704,1623492394854495096,5.1445903636704315e-05,0.0002929780795284387,-0.0002831162883438765,0.0,0.0,0.0,1.0
1623492394902102887,705,1623492394901409912,-3.430994911468588e-05,0.0002268113678383088,-0.00032355912166082135,0.0,0.0,0.0,1.0
1623492394956149065,706,1623492394955595064,-5.2477337476375396e-05,0.00027148201570526,-0.00031141675324874996,0.0,0.0,0.0,1.0
1623492395003707350,707,1623492395003412055,5.341534870240139e-05,0.0002321808275382864,-0.0002723042651666674,0.0,0.0,0.0,1.0
1623492395054812382,708,1623492395054575967,-1.2183640365037718e-05,0.0002857217623386532,-0.0003629087582268653,0.0,0.0,0.0,1.0
1623492395101885904,709,1623492395101486968,9.086206705433142e-05,0.00023099888574051874,-0.00015922866654705103,0.0,0.0,0.0,1.0
1623492395154149197,710,1623492395153884935,-4.301277954255056e-05,0.00021464499036483176,-0.00031046711432480834,0.0,0.0,0.0,1.0
1623492395206104182,711,1623492395205581951,5.8213163356413133e-05,0.00033411820788842306,-0.0003001629562504604,0.0,0.0,0.0,1.0
1623492395255146560,712,1623492395254305887,-5.00152934819198e-05,0.000322877514463471,-0.00032551438845018765,0.0,0.0,0.0,1.0
1623492395304255881,713,1623492395303528118,4.157914986535616e-05,0.00024358777943689347,-0.0002605577314795937,0.0,0.0,0.0,1.0
1623492395380151286,714,1623492395379704999,-3.002186736011936e-05,0.0002328394825781288,-0.0003300170928284274,0.0,0.0,0.0,1.0
1623492395421696899,715,1623492395420887994,-7.384272180388507e-05,0.0002682876341850715,-0.00028505762448105543,0.0,0.0,0.0,1.0
1623492395465603403,716,1623492395465123939,-1.901140967675019e-05,0.00023237928257913154,-0.00018533928694353108,0.0,0.0,0.0,1.0
1623492395509770467,717,1623492395509003925,-6.184804988151882e-05,0.0002142888386060804,-0.00028776267712515846,0.0,0.0,0.0,1.0
1623492395554843845,718,1623492395554549026,-2.607026635814691e-05,0.0002203640017341968,-0.00033206010922270934,0.0,0.0,0.0,1.0
1623492395602614707,719,1623492395602391052,-2.269134938615025e-06,0.00013472816260673426,-0.00018428543974380318,0.0,0.0,0.0,1.0
1623492395654929093,720,1623492395654669094,8.40964507915487e-05,0.00018490883894628496,-0.00029891542649096436,0.0,0.0,0.0,1.0
1623492395701945003,721,1623492395701706933,5.858422809978947e-06,0.00029395243973340257,-0.00022856230247469966,0.0,0.0,0.0,1.0
1623492395755512166,722,1623492395755097913,6.250086471482064e-06,0.0001835638801139794,-0.0003629103997297989,0.0,0.0,0.0,1.0
1623492395803613563,723,1623492395803197908,3.5536661471269326e-05,0.00028668820687016705,-0.0002626408978727568,0.0,0.0,0.0,1.0
1623492395854081847,724,1623492395853411006,7.959671484059072e-05,0.00029402828886304633,-0.00015935721344106923,0.0,0.0,0.0,1.0
1623492395902094449,725,1623492395901567029,-3.901664263139537e-05,0.000172833159581387,-0.00014839919999332096,0.0,0.0,0.0,1.0
1623492395954649044,726,1623492395954217004,-8.507757434017549e-05,0.0001636107895137684,-0.00024887154198438566,0.0,0.0,0.0,1.0
1623492396002265761,727,1623492396001533079,-7.305464077944634e-05,0.0003633000179661394,-0.00014879257756206243,0.0,0.0,0.0,1.0
1623492396056608696,728,1623492396055490064,-5.8985807072531315e-05,0.00041241415829063044,-0.00017633921334692104,0.0,0.0,0.0,1.0
1623492396104240174,729,1623492396103755044,-8.188306992451544e-06,0.0004539267271184144,-0.000246361199117473,0.0,0.0,0.0,1.0
1623492396155918662,730,1623492396155479955,-8.702637524038437e-05,0.0004258877379470505,-0.0003033789259845321,0.0,0.0,0.0,1.0
1623492396203158842,731,1623492396202606964,-0.0001247004822744202,0.00041819217904048855,-0.0002564520084149535,0.0,0.0,0.0,1.0
1623492396258041633,732,1623492396257515954,-0.0001257759290638205,0.00042023078697184246,-0.00025560188945661366,0.0,0.0,0.0,1.0
1623492396304137634,733,1623492396303787040,2.2078013216741965e-05,0.00044198453451826936,-0.0001223273414581172,0.0,0.0,0.0,1.0
1623492396356063305,734,1623492396355787086,5.3309004215407185e-06,0.0004389163889300107,-0.0002593488099407182,0.0,0.0,0.0,1.0
1623492396403948987,735,1623492396403734016,0.000133170930439519,0.0002639418139551708,-0.00037499969202059447,0.0,0.0,0.0,1.0
1623492396454080702,736,1623492396453770923,0.00018445362843522162,0.0004178686842806201,-0.00031216527613509015,0.0,0.0,0.0,1.0
1623492396500835819,737,1623492396500591087,0.00012102790469725733,0.0002969780682633427,-0.00036757283472610425,0.0,0.0,0.0,1.0
1623492396555603664,738,1623492396555270004,-0.00010893641820075572,0.0004687362279582885,-0.00028634471519239924,0.0,0.0,0.0,1.0
1623492396602290340,739,1623492396601630020,-9.527443012302683e-05,0.00046695420837750135,-0.00030237100033048137,0.0,0.0,0.0,1.0
1623492396657070842,740,1623492396656441020,-2.7068700774179888e-05,0.00038062023577367654,-0.0003655959553796606,0.0,0.0,0.0,1.0
1623492396705492803,741,1623492396705040025,0.0002012901875332318,0.0003188699149632157,-0.00031093370929369257,0.0,0.0,0.0,1.0
1623492396761775557,742,1623492396761054086,9.458195950173831e-05,0.00041119899242403335,-0.0003605599059000042,0.0,0.0,0.0,1.0
1623492396809636568,743,1623492396809046077,-2.960991378131439e-05,0.0003825846949894185,-0.00036296893877363345,0.0,0.0,0.0,1.0
1623492396862030986,744,1623492396861496973,3.3270752282987814e-05,0.0005395576052933393,-0.0003147259654241452,0.0,0.0,0.0,1.0
1623492396921122110,745,1623492396920368957,8.228315641645167e-05,0.0004843713415993989,-0.0003616444371346006,0.0,0.0,0.0,1.0
1623492396969300376,746,1623492396968431997,0.00014134563275547407,0.0004108886345193241,-0.00025886644242234524,0.0,0.0,0.0,1.0
1623492397009601018,747,1623492397008555936,7.170766912167892e-05,0.000325661289252821,-0.000472344650155776,0.0,0.0,0.0,1.0
1623492397094060606,748,1623492397093420076,3.557167360668245e-05,0.0003897309906051305,-0.0002850171505315302,0.0,0.0,0.0,1.0
1623492397133588589,749,1623492397132853078,4.843658416575636e-05,0.0003948389236256844,-0.00030157908157946167,0.0,0.0,0.0,1.0
1623492397175880002,750,1623492397175308990,6.48751326934871e-05,0.0003769572874716687,-0.00015964655923284,0.0,0.0,0.0,1.0
1623492397215359531,751,1623492397214500951,-0.000149003583828744,0.0002554133174044182,-0.00034977965918869813,0.0,0.0,0.0,1.0
1623492397260504254,752,1623492397260225105,1.296631808145321e-06,0.00028475576868913777,-0.00022108871758064197,0.0,0.0,0.0,1.0
1623492397303026208,753,1623492397302662897,-5.5729100949974963e-05,8.081982707608404e-05,-0.0004239875419145278,0.0,0.0,0.0,1.0
1623492397357391601,754,1623492397356999921,0.00015842702964619093,0.00020885843105133972,-0.00023559661898531203,0.0,0.0,0.0,1.0
1623492397403217955,755,1623492397402830886,-5.4040780014474876e-05,0.00017789709602311632,-0.0002892535657110784,0.0,0.0,0.0,1.0
1623492397458009409,756,1623492397457603979,3.4781172189468634e-05,0.0001719352727604928,-0.0002368599993189946,0.0,0.0,0.0,1.0
1623492397504045459,757,1623492397503563928,-4.11032722240634e-05,9.558162605571852e-05,-0.00028695285561752826,0.0,0.0,0.0,1.0
1623492397563752673,758,1623492397563269901,-5.485868064170063e-05,0.0001747669286942255,-0.0002875925110430444,0.0,0.0,0.0,1.0
1623492397607547718,759,1623492397607008028,9.38082976063015e-05,0.00014944224506052706,-0.0003028946738368177,0.0,0.0,0.0,1.0
1623492397662343840,760,1623492397661721038,7.052760361148103e-05,9.277905701310374e-05,-0.00026264476717585694,0.0,0.0,0.0,1.0
1623492397704748353,761,1623492397704300928,6.455118864323595e-05,9.245234821264603e-05,-0.00025539437665145215,0.0,0.0,0.0,1.0
1623492397755133129,762,1623492397754428911,2.6734955554275075e-05,2.4137042942129483e-05,-0.00019515628714827926,0.0,0.0,0.0,1.0
1623492397801968223,763,1623492397801144886,-0.00017757831346898456,5.049441745086369e-05,-0.00027103373279402376,0.0,0.0,0.0,1.0
1623492397856048311,764,1623492397855823087,-2.6793232564159553e-05,8.092069344911579e-05,-0.00014316022854643506,0.0,0.0,0.0,1.0
1623492397910774716,765,1623492397910539913,-0.00014695708500767068,0.00011735634029719222,-0.00016450722330318968,0.0,0.0,0.0,1.0
1623492397954483257,766,1623492397954182910,1.1911964747923776e-05,0.00014267644837673288,-4.5238467379249414e-05,0.0,0.0,0.0,1.0
1623492398002646238,767,1623492398002347993,-8.679707934788894e-05,7.577848930395703e-05,-6.996050746721494e-05,0.0,0.0,0.0,1.0
1623492398053449392,768,1623492398052916097,-8.54425616125809e-05,7.236452916004055e-05,-7.084770774667959e-05,0.0,0.0,0.0,1.0
1623492398101592454,769,1623492398100961971,-0.0001632544408494141,5.4594504376836994e-05,-0.00013132374533597613,0.0,0.0,0.0,1.0
1623492398156635042,770,1623492398156019973,6.237008733478433e-05,3.840836802737613e-05,-8.325362084349308e-05,0.0,0.0,0.0,1.0
1623492398208248390,771,1623492398206316995,-0.0001210821151289565,-4.2232997543578676e-05,-0.00016099751945830576,0.0,0.0,0.0,1.0
1623492398255086731,772,1623492398254657077,-0.00012317854725552024,1.116597024974908e-05,-0.00017005456043506229,0.0,0.0,0.0,1.0
1623492398303302015,773,1623492398302706050,-0.00012173621075817209,1.012052052828949e-05,-0.00017156067109880269,0.0,0.0,0.0,1.0
1623492398354940316,774,1623492398354519891,-0.00015238955757013173,-5.273051328913425e-06,-0.0001313985773379045,0.0,0.0,0.0,1.0
1623492398402576217,775,1623492398402351903,-0.0002210385032412887,-5.7820825759336e-05,-0.00019534344262694958,0.0,0.0,0.0,1.0
1623492398457701716,776,1623492398456857967,-6.770526897525997e-05,-2.8649322985074832e-05,-7.025915526526205e-05,0.0,0.0,0.0,1.0
1623492398504263913,777,1623492398503979969,-0.00010901684095188102,-0.00010058699945147964,-0.0001628420689030463,0.0,0.0,0.0,1.0
1623492398555435085,778,1623492398554971981,3.4686633398450795e-05,-6.27789598866002e-05,-0.00018586762915617783,0.0,0.0,0.0,1.0
1623492398602384127,779,1623492398601955938,-0.0001587679853400914,-4.3454878209558956e-05,-0.00027326564375584894,0.0,0.0,0.0,1.0
1623492398657068763,780,1623492398656637001,-0.00012476518259063596,0.00021228809168860607,-0.0002117447442770981,0.0,0.0,0.0,1.0
1623492398701641659,781,1623492398701190996,-0.00015788382961545722,0.00035559462412493303,-0.00020302003355965326,0.0,0.0,0.0,1.0
1623492398756936171,782,1623492398756085920,-0.00035855334863299504,0.0004796849170816131,-0.00030445543873725,0.0,0.0,0.0,1.0
1623492398806901017,783,1623492398806457090,-0.0002167484176425205,-8.726186706553563e-06,-0.00021113984347920223,0.0,0.0,0.0,1.0
1623492398855100792,784,1623492398854661989,-0.0003960262754389987,5.0897490496026876e-05,-0.0001664963141720932,0.0,0.0,0.0,1.0
1623492398903923881,785,1623492398903377103,-0.00036736010747517867,-4.005630717074382e-05,-0.00018121830152750817,0.0,0.0,0.0,1.0
1623492398955066890,786,1623492398953703927,-0.0004802000526069605,-6.462156875386427e-06,-0.00021074745890814484,0.0,0.0,0.0,1.0
1623492399002515572,787,1623492399001906919,-0.0005560610854900006,-0.00021528168008444482,-0.0002321511209473215,0.0,0.0,0.0,1.0
1623492399055951085,788,1623492399055552053,-0.0006989764356148953,-0.0003577378253112329,-0.00018738208868285255,0.0,0.0,0.0,1.0
1623492399102767629,789,1623492399102340984,-0.0004209302976505569,5.2517564768095326e-05,-0.00013692873118031912,0.0,0.0,0.0,1.0
1623492399155244943,790,1623492399154815006,-0.00033397224410691706,0.00035629040417006763,-0.00030724124818704013,0.0,0.0,0.0,1.0
1623492399203642212,791,1623492399202713060,-0.00016319923020091665,0.0005499689410726205,-0.00023876294243052598,0.0,0.0,0.0,1.0
1623492399255148027,792,1623492399254394102,-0.00041513272458360007,0.0003092999911586958,-4.1745642434420915e-05,0.0,0.0,0.0,1.0
1623492399299021705,793,1623492399298344898,-0.0006072920596125186,-9.633670674702444e-05,-3.857937001328082e-05,0.0,0.0,0.0,1.0
1623492399359587948,794,1623492399359156894,-0.001034908879091745,-0.0006029241155829368,-0.00020406990297772154,0.0,0.0,0.0,1.0
1623492399404390811,795,1623492399403820085,-0.0010100900947236369,-0.0009528682683139778,-0.0003158203867599241,0.0,0.0,0.0,1.0
1623492399455891591,796,1623492399455227899,-0.001116745577974143,-0.001223580459054574,-0.00028679192342195847,0.0,0.0,0.0,1.0
1623492399503330547,797,1623492399502548980,-0.0012016151547413756,-0.001318502906769936,-0.00016424284945060208,0.0,0.0,0.0,1.0
1623492399554290102,798,1623492399553695964,-0.0013353186441236176,-0.0010670515448509832,-0.00021595308056987506,0.0,0.0,0.0,1.0
1623492399602846592,799,1623492399602021026,-0.0008146605118781736,-0.0009511215496331715,-0.00039317400931793145,0.0,0.0,0.0,1.0
1623492399658666688,800,1623492399658227968,-0.0007037095317627973,-0.0007431765816363622,-0.00025593728526729365,0.0,0.0,0.0,1.0
1623492399710599546,801,1623492399709862041,-0.0006638708860009501,-0.00043252292846318596,-5.5533106781524566e-05,0.0,0.0,0.0,1.0
1623492399755370890,802,1623492399754746007,-0.000691217214352946,-0.0005958001169119598,-0.00014508964688531023,0.0,0.0,0.0,1.0
1623492399803788489,803,1623492399803175973,-0.000617766723735258,-0.0005814038844391689,-7.86426626575576e-05,0.0,0.0,0.0,1.0
1623492399855148790,804,1623492399854625034,-0.0006507152379526815,-0.00040918879415130505,-7.639717058793849e-05,0.0,0.0,0.0,1.0
1623492399905548624,805,1623492399905048894,-0.0008340740014318726,-0.0002597366767531639,-0.00020413455050061202,0.0,0.0,0.0,1.0
1623492399954897328,806,1623492399954426097,-0.0005660918909597967,-0.0005227829365139769,-0.0001534337423549914,0.0,0.0,0.0,1.0
1623492400003564052,807,1623492400003001976,-0.0004705182113866613,-0.00046262494777238317,-0.0001234866461885531,0.0,0.0,0.0,1.0
1623492400054882742,808,1623492400053746986,-0.0006447874634432083,-0.0003320514840652322,-0.0002580522047139766,0.0,0.0,0.0,1.0
1623492400101426266,809,1623492400100411939,-0.0006994831542215252,3.568650743090984e-05,4.3558708107127586e-05,0.0,0.0,0.0,1.0
1623492400155810803,810,1623492400155376005,-0.000616048974052319,-8.512145006989158e-05,-0.00018830014143134122,0.0,0.0,0.0,1.0
1623492400205971685,811,1623492400205404090,-0.0004892969550382986,-0.00036757554403266113,-0.00012153368053446911,0.0,0.0,0.0,1.0
1623492400262146577,812,1623492400261361885,-0.0006471209633218677,-0.0003554373556653445,-9.23688145562096e-05,0.0,0.0,0.0,1.0
1623492400303010512,813,1623492400302399921,-0.00042827393986044626,-0.00016400406968841708,-8.116895333643015e-05,0.0,0.0,0.0,1.0
1623492400355454824,814,1623492400354610013,-0.0001543650942039676,0.0003753221316173949,-0.00021152308188021607,0.0,0.0,0.0,1.0
1623492400411008341,815,1623492400410424041,0.0003079478933614155,0.0010098670094293993,-0.0002732100951305938,0.0,0.0,0.0,1.0
1623492400463115339,816,1623492400462693023,0.001849077603992555,0.0021476321337559057,-0.00031961033314331644,0.0,0.0,0.0,1.0
1623492400509844409,817,1623492400508769083,0.0025661682727786683,0.003023140010895986,-0.00010824547096888182,0.0,0.0,0.0,1.0
1623492400563420391,818,1623492400562965917,0.0031746178954108473,0.004118400598599692,0.00018608987927137832,0.0,0.0,0.0,1.0
1623492400607341205,819,1623492400607080030,0.0035669306146246527,0.004761778118790971,0.00020676109642892015,0.0,0.0,0.0,1.0
1623492400663834996,820,1623492400663619089,0.0036944998723811295,0.005277446697959931,0.00025751178704069844,0.0,0.0,0.0,1.0
1623492400709990468,821,1623492400709648895,0.003587881529256265,0.005656292128605855,0.00030359992830142346,0.0,0.0,0.0,1.0
1623492400764563867,822,1623492400763740110,0.003035548774732888,0.006392934448513188,0.0004920973810556006,0.0,0.0,0.0,1.0
1623492400809248258,823,1623492400808625030,0.0027944337241478934,0.005644701695132426,0.000470221360103551,0.0,0.0,0.0,1.0
1623492400861115704,824,1623492400860348033,0.002445680273240214,0.004929037660303948,0.00041284083888371015,0.0,0.0,0.0,1.0
1623492400910461682,825,1623492400909991073,0.0019381031715965946,0.0044177377000096385,0.000502043892353754,0.0,0.0,0.0,1.0
1623492400964207244,826,1623492400963791894,0.00043648947939800564,0.0028972614461508783,0.0013727776470204844,0.0,0.0,0.0,1.0
1623492401009936974,827,1623492401009522008,-0.0006079061654418183,0.00228334378607542,0.0018136969727038377,0.0,0.0,0.0,1.0
1623492401056068741,828,1623492401055429983,-0.0014480541512966738,0.0012047371707240018,0.002583470578002789,0.0,0.0,0.0,1.0
1623492401102043857,829,1623492401100903081,-0.0026459246785179857,0.0008189876605229074,0.004895953871276504,0.0,0.0,0.0,1.0
1623492401153466785,830,1623492401152320909,-0.004380784548175143,-0.0006552113552515948,0.00809068230057619,0.0,0.0,0.0,1.0
1623492401201996471,831,1623492401201551008,-0.0067593226317512745,-0.002459632468685413,0.01371193020218442,0.0,0.0,0.0,1.0
1623492401264608705,832,1623492401264176893,-0.012771283803203914,-0.005572126621814277,0.03126749436328424,0.0,0.0,0.0,1.0
1623492401309345086,833,1623492401308589029,-0.015387276463343369,-0.006532852326472494,0.04285527960846025,0.0,0.0,0.0,1.0
1623492401361589620,834,1623492401361156988,-0.019223965802439125,-0.00795832911751404,0.057452473437031415,0.0,0.0,0.0,1.0
1623492401408579268,835,1623492401408091115,-0.02388646434110342,-0.010151471130484424,0.07465747184785698,0.0,0.0,0.0,1.0
1623492401464825321,836,1623492401463981914,-0.027534679857808442,-0.012436696915642642,0.0903570336131807,0.0,0.0,0.0,1.0
1623492401509014109,837,1623492401508034038,-0.036464224662495326,-0.017416770970044126,0.12594689309260332,0.0,0.0,0.0,1.0
1623492401563534217,838,1623492401562938976,-0.04142868219128104,-0.02028752098044606,0.1464559708940243,0.0,0.0,0.0,1.0
1623492401609191287,839,1623492401608495044,-0.046691385613030434,-0.02286463124698912,0.16745205784440031,0.0,0.0,0.0,1.0
1623492401662083377,840,1623492401661397981,-0.05213596152248101,-0.02522077696778524,0.19024688351257169,0.0,0.0,0.0,1.0
1623492401710531646,841,1623492401709857034,-0.05786121253413512,-0.027708308303431295,0.21249160022907887,0.0,0.0,0.0,1.0
1623492401761827906,842,1623492401761143016,-0.0692755928846509,-0.03345284872762022,0.2594537293517192,0.0,0.0,0.0,1.0
1623492401808741086,843,1623492401808114099,-0.07510464359211255,-0.03677536076997967,0.28356371276194636,0.0,0.0,0.0,1.0
1623492401861368501,844,1623492401860858011,-0.08177947637364014,-0.039797152152686976,0.30869185973028124,0.0,0.0,0.0,1.0
1623492401934671088,845,1623492401934150028,-0.09571751020325792,-0.04579739286543827,0.36173718911989994,0.0,0.0,0.0,1.0
1623492401977817136,846,1623492401977129030,-0.10255063146337307,-0.04839547351753026,0.3879130968525999,0.0,0.0,0.0,1.0
1623492402018991744,847,1623492402018245983,-0.11025936277701476,-0.05156468313930418,0.41439139242497447,0.0,0.0,0.0,1.0
1623492402065937167,848,1623492402065487909,-0.11706740434101448,-0.05445836978390162,0.4402170375700152,0.0,0.0,0.0,1.0
1623492402110767537,849,1623492402110107946,-0.12291056262210986,-0.0573803928051575,0.4648866652076791,0.0,0.0,0.0,1.0
1623492402164333436,850,1623492402162649917,-0.1303084455289536,-0.06058041567325745,0.48934549216475887,0.0,0.0,0.0,1.0
1623492402208639814,851,1623492402208266067,-0.13664532572579446,-0.0637060030411476,0.5159088449667735,0.0,0.0,0.0,1.0
1623492402269545128,852,1623492402269237089,-0.1476920206439445,-0.07076769505772518,0.5607920894441776,0.0,0.0,0.0,1.0
1623492402314355291,853,1623492402314072895,-0.15404782428572616,-0.07268312138160127,0.5836426482286114,0.0,0.0,0.0,1.0
1623492402362513333,854,1623492402362259912,-0.15991101451459144,-0.07594543605227955,0.6049120042300586,0.0,0.0,0.0,1.0
1623492402407704210,855,1623492402407419013,-0.16490959717953046,-0.07952748780826369,0.625189045355242,0.0,0.0,0.0,1.0
1623492402462756469,856,1623492402462198066,-0.1703435754830025,-0.08280185494163561,0.6436867119290213,0.0,0.0,0.0,1.0
1623492402509312639,857,1623492402508831071,-0.1759119304942942,-0.08690099373313842,0.6637247095202099,0.0,0.0,0.0,1.0
1623492402565266113,858,1623492402564276981,-0.1799634579749636,-0.09039851410511801,0.6795755977514162,0.0,0.0,0.0,1.0
1623492402608988988,859,1623492402608536052,-0.18386311114818454,-0.09337485989283323,0.6957852763162222,0.0,0.0,0.0,1.0
1623492402659519159,860,1623492402659200954,-0.19238524831825998,-0.09955161481548203,0.726447305471261,0.0,0.0,0.0,1.0
1623492402708658668,861,1623492402708318996,-0.1956901693281452,-0.1029546989299206,0.7399080019671231,0.0,0.0,0.0,1.0
1623492402785932613,862,1623492402785560894,-0.20348323157872983,-0.10860022404074243,0.7686176240952562,0.0,0.0,0.0,1.0
1623492402827647798,863,1623492402827175903,-0.20620732072234205,-0.11102035119506581,0.7816321875259788,0.0,0.0,0.0,1.0
1623492402869536455,864,1623492402869000959,-0.20849263598711332,-0.11456726610390433,0.7946917729456473,0.0,0.0,0.0,1.0
1623492402953429895,865,1623492402952807950,-0.21227335214780396,-0.119163831914193,0.8197195634637495,0.0,0.0,0.0,1.0
1623492403039315445,866,1623492403038389015,-0.21576996875273835,-0.12370847216516268,0.8452369307531526,0.0,0.0,0.0,1.0
1623492403077327763,867,1623492403076307106,-0.21748446944047828,-0.12545629160388216,0.8578410449117158,0.0,0.0,0.0,1.0
1623492403119857744,868,1623492403119339036,-0.21901749189942166,-0.12688921721587576,0.8706408899889411,0.0,0.0,0.0,1.0
1623492403165762944,869,1623492403165335941,-0.22056799639221936,-0.1280197177629816,0.8840651873792709,0.0,0.0,0.0,1.0
1623492403207079741,870,1623492403206619071,-0.22168689200907465,-0.1286294015231988,0.898473340054494,0.0,0.0,0.0,1.0
1623492403253945652,871,1623492403253371047,-0.2228640803577946,-0.12875296052163776,0.9141830645680784,0.0,0.0,0.0,1.0
1623492403304844852,872,1623492403303922939,-0.22440278029034744,-0.1280515617080482,0.9340114375074222,0.0,0.0,0.0,1.0
1623492403353843250,873,1623492403353354024,-0.22521269772187225,-0.12680859048271031,0.954275058390273,0.0,0.0,0.0,1.0
1623492403408354071,874,1623492403407974052,-0.22529160289741412,-0.12202699845568077,1.002309579943642,0.0,0.0,0.0,1.0
1623492403462932040,875,1623492403462691116,-0.22492572380224374,-0.11926472229708907,1.0285917740419066,0.0,0.0,0.0,1.0
1623492403516593982,876,1623492403516217994,-0.2254213115377297,-0.11547215669600064,1.0566349906021912,0.0,0.0,0.0,1.0
1623492403566475921,877,1623492403565832901,-0.22518752325095193,-0.11235816498481199,1.085598501976321,0.0,0.0,0.0,1.0
1623492403608123213,878,1623492403607389974,-0.2256947343282718,-0.10805387521895682,1.1183261016187487,0.0,0.0,0.0,1.0
1623492403661927462,879,1623492403660960960,-0.22544101073731326,-0.09781237925494679,1.1806760001734204,0.0,0.0,0.0,1.0
1623492403708388691,880,1623492403707888889,-0.22491834715083314,-0.09160317832970577,1.2125667149025219,0.0,0.0,0.0,1.0
1623492403760637003,881,1623492403759449052,-0.2248273856873766,-0.08468854892851141,1.2428858741062783,0.0,0.0,0.0,1.0
1623492403808144426,882,1623492403807700920,-0.22416427268581174,-0.07667961781976373,1.2740806054367724,0.0,0.0,0.0,1.0
1623492403862380695,883,1623492403861698913,-0.2236955051730547,-0.06872289903969886,1.3006782931198515,0.0,0.0,0.0,1.0
1623492403911275286,884,1623492403910833883,-0.22402569147197937,-0.05142144314197594,1.3506034440439052,0.0,0.0,0.0,1.0
1623492403959929686,885,1623492403959090995,-0.22416159371982758,-0.041770221214278536,1.3743144653550559,0.0,0.0,0.0,1.0
1623492404006751822,886,1623492404006155061,-0.22437292578274537,-0.03163070249468092,1.397702866903316,0.0,0.0,0.0,1.0
1623492404060214107,887,1623492404059249925,-0.22478472654893267,-0.020945237319665466,1.4209252064435063,0.0,0.0,0.0,1.0
1623492404119723328,888,1623492404118981885,-0.22595064404640652,0.002082696988054522,1.4675452532323874,0.0,0.0,0.0,1.0
1623492404166626818,889,1623492404165879058,-0.22632300869645405,0.014350895917914386,1.4916417913914728,0.0,0.0,0.0,1.0
1623492404209119971,890,1623492404208463001,-0.22557945567359639,0.026535468441466037,1.5149528447833234,0.0,0.0,0.0,1.0
1623492404260473794,891,1623492404259975957,-0.22562044298524597,0.0396644513841693,1.538981777593726,0.0,0.0,0.0,1.0
1623492404307285952,892,1623492404306831884,-0.2255193940704885,0.05283947652333154,1.562501804793584,0.0,0.0,0.0,1.0
1623492404363365345,893,1623492404362822103,-0.22622631203012133,0.06634785258120246,1.5857215536419176,0.0,0.0,0.0,1.0
1623492404410536754,894,1623492404410224008,-0.22675032206052492,0.09532190431309573,1.6357711338888095,0.0,0.0,0.0,1.0
1623492404460761103,895,1623492404460505056,-0.22779951425309264,0.11061456750530851,1.6617735280181734,0.0,0.0,0.0,1.0
1623492404507203425,896,1623492404506878900,-0.22750419363228502,0.1245411236208156,1.6861063570569215,0.0,0.0,0.0,1.0
1623492404560059457,897,1623492404559618043,-0.22828999548664797,0.13852815359575743,1.7095522984044536,0.0,0.0,0.0,1.0
1623492404612051190,898,1623492404611373949,-0.22850179154170291,0.15358488499043688,1.7342458396695832,0.0,0.0,0.0,1.0
1623492404661496791,899,1623492404660821962,-0.2277964231329861,0.18305032142689015,1.7793853687289314,0.0,0.0,0.0,1.0
1623492404709696423,900,1623492404708910989,-0.22692409302726446,0.19779384809964995,1.8005000400039393,0.0,0.0,0.0,1.0
1623492404760882488,901,1623492404760253953,-0.22623918670410603,0.21443578051946588,1.8232221629270526,0.0,0.0,0.0,1.0
1623492404807865297,902,1623492404807172107,-0.22542226099676554,0.23254634305146737,1.8466885484714908,0.0,0.0,0.0,1.0
1623492404864141187,903,1623492404863134908,-0.2245096671340434,0.2478317957887839,1.8670486451885608,0.0,0.0,0.0,1.0
1623492404912183134,904,1623492404911552000,-0.2225002855554976,0.2766229021108302,1.909433114191387,0.0,0.0,0.0,1.0
1623492405008137496,906,1623492405007678079,-0.21956988115380227,0.3041054566508592,1.9520092902187116,0.0,0.0,0.0,1.0
1623492405062215804,907,1623492405061480093,-0.21864013104550395,0.3195578830300292,1.9754903912182442,0.0,0.0,0.0,1.0
1623492405112258559,908,1623492405111774015,-0.21615908085436786,0.33273201265842545,1.9971333929886015,0.0,0.0,0.0,1.0
1623492405162061556,909,1623492405161464023,-0.2123044515121819,0.359074575760701,2.0410580945917047,0.0,0.0,0.0,1.0
1623492405209238976,910,1623492405208392906,-0.2103875875425274,0.37207985228621965,2.0636580965038718,0.0,0.0,0.0,1.0
1623492405262063323,911,1623492405261483955,-0.20841188891654383,0.38463287781507915,2.0861350477026903,0.0,0.0,0.0,1.0
1623492405310647059,912,1623492405310076999,-0.20721023232795233,0.39807782581408446,2.11169725871882,0.0,0.0,0.0,1.0
1623492405376470175,913,1623492405375889110,-0.20438631319348133,0.4195480274994452,2.1566226296302062,0.0,0.0,0.0,1.0
1623492405415884751,914,1623492405415248918,-0.20330360048183138,0.42904087389274537,2.178912739147968,0.0,0.0,0.0,1.0
1623492405465117189,915,1623492405464693117,-0.2025320156469661,0.43767212344596373,2.200632935973836,0.0,0.0,0.0,1.0
1623492405511142825,916,1623492405510685968,-0.20175721922760204,0.44510962454126,2.2212160783480925,0.0,0.0,0.0,1.0
1623492405562894317,917,1623492405562449979,-0.2015591710296576,0.45185319426627757,2.24210912942268,0.0,0.0,0.0,1.0
1623492405609978716,918,1623492405609032917,-0.20117094819011072,0.45824501428614894,2.263187352930373,0.0,0.0,0.0,1.0
1623492405665370358,919,1623492405664833116,-0.20172637495738854,0.4626216042196347,2.2812892879599502,0.0,0.0,0.0,1.0
1623492405712679994,920,1623492405711979913,-0.20304840964968207,0.4685758478403841,2.3140006486096922,0.0,0.0,0.0,1.0
1623492405765732841,921,1623492405764785099,-0.20417087564624126,0.4691834998870945,2.3298791835750166,0.0,0.0,0.0,1.0
1623492405809130167,922,1623492405808356094,-0.20565849494118993,0.47042092690298887,2.3449175060215595,0.0,0.0,0.0,1.0
1623492405863252646,923,1623492405860697078,-0.20803789483238688,0.46948984349091916,2.3587107248682884,0.0,0.0,0.0,1.0
1623492405910618709,924,1623492405909956026,-0.21065452859215839,0.466907009331635,2.3716147546773385,0.0,0.0,0.0,1.0
1623492405964174311,925,1623492405963408041,-0.21372244387976025,0.4635032142734872,2.385024081296109,0.0,0.0,0.0,1.0
1623492406010664884,926,1623492406010146903,-0.21693620419637227,0.4598948291286433,2.398170746095161,0.0,0.0,0.0,1.0
1623492406062449402,927,1623492406061878013,-0.22402274801811473,0.4477503019256801,2.4264167879802088,0.0,0.0,0.0,1.0
1623492406110325494,928,1623492406109871912,-0.22847706926268074,0.44042871358624325,2.441397657837605,0.0,0.0,0.0,1.0
1623492406162325857,929,1623492406161779928,-0.2326004639464827,0.4329982168156903,2.4548470934811633,0.0,0.0,0.0,1.0
1623492406211644403,930,1623492406210878896,-0.23742857753427415,0.4238611535052996,2.469216953586198,0.0,0.0,0.0,1.0
1623492406265340280,931,1623492406264869022,-0.24205343159565018,0.4146697751697275,2.483686011282643,0.0,0.0,0.0,1.0
1623492406312443342,932,1623492406311786937,-0.25310147256050186,0.39344091858299635,2.5120646641656705,0.0,0.0,0.0,1.0
1623492406360030943,933,1623492406359325933,-0.25918278713697873,0.3819554528527078,2.5258846901059897,0.0,0.0,0.0,1.0
1623492406409012742,934,1623492406408488082,-0.2651026913772512,0.3703885083673413,2.5393308579258758,0.0,0.0,0.0,1.0
1623492406465047293,935,1623492406464503097,-0.2709747842302477,0.3582198312815308,2.5526957414483107,0.0,0.0,0.0,1.0
1623492406511461505,936,1623492406510989952,-0.276688233097957,0.3459157693432644,2.566251969113125,0.0,0.0,0.0,1.0
1623492406565368212,937,1623492406564873027,-0.28906141844549893,0.3205882275890417,2.595627512136346,0.0,0.0,0.0,1.0
1623492406611416583,938,1623492406610699939,-0.294839584237252,0.3083865879834775,2.6110180823316966,0.0,0.0,0.0,1.0
1623492406661173207,939,1623492406660867023,-0.3008948717381372,0.2960437871057593,2.6281923446850115,0.0,0.0,0.0,1.0
1623492406712398431,940,1623492406712146091,-0.3077097844134187,0.2833329275796359,2.647768045121296,0.0,0.0,0.0,1.0
1623492406762772803,941,1623492406762344884,-0.3139789735398608,0.2723160864811689,2.666146123169554,0.0,0.0,0.0,1.0
1623492406810252837,942,1623492406809397029,-0.3275461311707204,0.24991809741800353,2.70508421688443,0.0,0.0,0.0,1.0
1623492406861015734,943,1623492406860159921,-0.33447918423235024,0.23852441215842646,2.72435237348391,0.0,0.0,0.0,1.0
1623492406910074411,944,1623492406909282970,-0.3413052896503359,0.22733928769616796,2.7428963780339544,0.0,0.0,0.0,1.0
1623492406963708028,945,1623492406963114070,-0.3480115196466613,0.2161416631965949,2.761492133474732,0.0,0.0,0.0,1.0
1623492407012647067,946,1623492407012171077,-0.35439961681890964,0.2053889973801688,2.7787833896353504,0.0,0.0,0.0,1.0
1623492407063113477,947,1623492407062521982,-0.36817479967021427,0.18481956986954629,2.8118191525114113,0.0,0.0,0.0,1.0
1623492407111322777,948,1623492407110666084,-0.37529145645862627,0.1748271380455435,2.82680750197369,0.0,0.0,0.0,1.0
1623492407161962341,949,1623492407161450910,-0.3820626857047955,0.16549402926057155,2.8403701659930363,0.0,0.0,0.0,1.0
1623492407212499450,950,1623492407211642074,-0.3894338761274412,0.15595233609133174,2.853268337309416,0.0,0.0,0.0,1.0
1623492407265017207,951,1623492407264268922,-0.39620108064809756,0.1476762198093411,2.8637893267001857,0.0,0.0,0.0,1.0
1623492407312901899,952,1623492407312367010,-0.41049858999940625,0.13080267887630725,2.8794034738316583,0.0,0.0,0.0,1.0
1623492407360904595,953,1623492407360017108,-0.4175374756173369,0.12280573542568618,2.883932040839248,0.0,0.0,0.0,1.0
1623492407409626321,954,1623492407408959913,-0.42451666493138873,0.11572223589075747,2.8866268431344366,0.0,0.0,0.0,1.0
1623492407461157986,955,1623492407460687923,-0.4317790204879657,0.10868383545312099,2.888443447605056,0.0,0.0,0.0,1.0
1623492407511689067,956,1623492407511082935,-0.44563597305523217,0.0957107714277754,2.889237517702803,0.0,0.0,0.0,1.0
1623492407561469140,957,1623492407561218070,-0.4526114697787307,0.08979468969721438,2.8888075943013263,0.0,0.0,0.0,1.0
1623492407608376259,958,1623492407608135986,-0.45965794490348344,0.08338079594329884,2.8878718395475858,0.0,0.0,0.0,1.0
1623492407660166202,959,1623492407659572887,-0.46667073476805854,0.07772724822541477,2.886870558695179,0.0,0.0,0.0,1.0
1623492407709253483,960,1623492407708818006,-0.4740065718885944,0.07208621047823272,2.8852457207717706,0.0,0.0,0.0,1.0
1623492407762564920,961,1623492407761965084,-0.48116398286424555,0.06680179318630053,2.884378823702953,0.0,0.0,0.0,1.0
1623492407812969463,962,1623492407812319087,-0.49560788758412855,0.058029048944263195,2.884449715607296,0.0,0.0,0.0,1.0
1623492407861212531,963,1623492407860650110,-0.5024402853700849,0.05433419783548743,2.8860491958861942,0.0,0.0,0.0,1.0
1623492407910244523,964,1623492407909494924,-0.5102235469448715,0.05110495380120028,2.889030972975455,0.0,0.0,0.0,1.0
1623492407961297004,965,1623492407960624027,-0.5177898189901953,0.04779383323602815,2.8932110370442317,0.0,0.0,0.0,1.0
1623492408008438150,966,1623492408007602977,-0.5251533863904569,0.04489520367997102,2.8979107151658567,0.0,0.0,0.0,1.0
1623492408062545344,967,1623492408062227058,-0.5327396121110723,0.04242532531168308,2.904370535351255,0.0,0.0,0.0,1.0
1623492408110426277,968,1623492408110215950,-0.5471763966722847,0.03871851251631142,2.9196080202223413,0.0,0.0,0.0,1.0
1623492408155465337,969,1623492408155165004,-0.5550932391372498,0.03737474064803337,2.9297372056247184,0.0,0.0,0.0,1.0
1623492408203852094,970,1623492408203348922,-0.5625397236478875,0.036281584249536536,2.94115673216173,0.0,0.0,0.0,1.0
1623492408254452519,971,1623492408253891992,-0.5701362864399471,0.03548937606410618,2.952560885417107,0.0,0.0,0.0,1.0
1623492408303897798,972,1623492408303443956,-0.5772087172290412,0.03509665830392805,2.9634153418963933,0.0,0.0,0.0,1.0
1623492408355887502,973,1623492408355638074,-0.5850103405341542,0.03491243524922538,2.9755892337432783,0.0,0.0,0.0,1.0
1623492408402759542,974,1623492408402462053,-0.5988902749481895,0.03543543101636715,2.9977441005951277,0.0,0.0,0.0,1.0
1623492408453980043,975,1623492408453671026,-0.6065637172680454,0.036043850470491634,3.010124146790133,0.0,0.0,0.0,1.0
1623492408503248575,976,1623492408502974081,-0.6140285180129013,0.03669613459317134,3.02255971843816,0.0,0.0,0.0,1.0
1623492408573402358,977,1623492408572773981,-0.6293630429790937,0.038970602799508924,3.0471097981833637,0.0,0.0,0.0,1.0
1623492408617383375,978,1623492408616437959,-0.6368217706292398,0.04141031872802614,3.0587158980046922,0.0,0.0,0.0,1.0
1623492408665374260,979,1623492408664885091,-0.6449512730559945,0.04218390712424025,3.0724722883907134,0.0,0.0,0.0,1.0
1623492408714845724,980,1623492408714376020,-0.6525973015566251,0.043902985218892354,3.0853967880674276,0.0,0.0,0.0,1.0
1623492408765672658,981,1623492408764956998,-0.6604231125149909,0.04523143735298163,3.0993255073180705,0.0,0.0,0.0,1.0
1623492408815922617,982,1623492408815207052,-0.6683373951966587,0.0465381979470294,3.1136235934158236,0.0,0.0,0.0,1.0
1623492408861957421,983,1623492408861217069,-0.6759676307249265,0.04795228183809286,3.127259236115549,0.0,0.0,0.0,1.0
1623492408910309723,984,1623492408909555959,-0.6917898460217202,0.05170720025137143,3.1560448836043733,0.0,0.0,0.0,1.0
1623492408958481357,985,1623492408957774925,-0.699905426528403,0.05353057525485383,3.170440473115214,0.0,0.0,0.0,1.0
1623492409014619198,986,1623492409014020013,-0.708342209164357,0.05531660688302509,3.185403614848923,0.0,0.0,0.0,1.0
1623492409062199338,987,1623492409061578083,-0.7164138083608123,0.056780678276027174,3.199492316908575,0.0,0.0,0.0,1.0
1623492409111351141,988,1623492409110731887,-0.7238808832578343,0.058511036656341275,3.2129227059867063,0.0,0.0,0.0,1.0
1623492409163076908,989,1623492409162310886,-0.741035427650786,0.06111167571805254,3.2396702786561207,0.0,0.0,0.0,1.0
1623492409210291833,990,1623492409209696102,-0.7495834255614682,0.06250540867688414,3.2519277964532307,0.0,0.0,0.0,1.0
1623492409260836870,991,1623492409260371971,-0.758510403031778,0.06355343411064496,3.2635615387759813,0.0,0.0,0.0,1.0
1623492409310748991,992,1623492409309563922,-0.7684279679733663,0.06462868973721925,3.276076830275265,0.0,0.0,0.0,1.0
1623492409364826835,993,1623492409364145088,-0.777847941831169,0.06568323261069509,3.2871995239041425,0.0,0.0,0.0,1.0
1623492409412125602,994,1623492409411452102,-0.7965866459496738,0.06813483437338164,3.3110181741310285,0.0,0.0,0.0,1.0
1623492409511908122,996,1623492409511267948,-0.817655443305739,0.06963726030596717,3.337935655866289,0.0,0.0,0.0,1.0
1623492409564123205,997,1623492409562979984,-0.8282336430916075,0.07097180152072724,3.3504545204013,0.0,0.0,0.0,1.0
1623492409608512723,998,1623492409607917118,-0.8377809716482716,0.07140715811647169,3.3621057072171254,0.0,0.0,0.0,1.0
1623492409664455480,999,1623492409663846063,-0.8475694587968974,0.07221646046218666,3.374479815201248,0.0,0.0,0.0,1.0
1623492409709972529,1000,1623492409709625053,-0.8669737197417362,0.07330354733392141,3.398361946694024,0.0,0.0,0.0,1.0
1623492409808532808,1002,1623492409808196115,-0.8894139949932196,0.07636354913006471,3.425562225014879,0.0,0.0,0.0,1.0
1623492409860903184,1003,1623492409860609102,-0.8995410647828521,0.07771895632185988,3.437287895091657,0.0,0.0,0.0,1.0
1623492409909500114,1004,1623492409909231948,-0.9103181086823042,0.08000620139091552,3.4498864995439433,0.0,0.0,0.0,1.0
1623492409961241341,1005,1623492409960849094,-0.920678685933126,0.08237600435745662,3.4615732607026715,0.0,0.0,0.0,1.0
1623492410009171825,1006,1623492410008817958,-0.9311397102615047,0.08444960068231921,3.473943960589402,0.0,0.0,0.0,1.0
1623492410062684884,1007,1623492410062300968,-0.9525015640663241,0.08850168387698432,3.500156803150915,0.0,0.0,0.0,1.0
1623492410110012206,1008,1623492410109492111,-0.9631373324468768,0.09025702679696224,3.512801064993795,0.0,0.0,0.0,1.0
1623492410162546578,1009,1623492410161499071,-0.9745275893026246,0.09212651243944947,3.5259398821300536,0.0,0.0,0.0,1.0
1623492410211434453,1010,1623492410211034107,-0.9860474218899071,0.09421324493018801,3.539879841663222,0.0,0.0,0.0,1.0
1623492410265207607,1011,1623492410264776039,-0.9969853569568841,0.09623408270226719,3.5530613247781417,0.0,0.0,0.0,1.0
1623492410311107889,1012,1623492410310514974,-1.0210113179709879,0.1006982191414636,3.5803042836088537,0.0,0.0,0.0,1.0
1623492410362324765,1013,1623492410361501026,-1.033768694488117,0.10342013962826968,3.5931020913893903,0.0,0.0,0.0,1.0
1623492410412855863,1014,1623492410412184047,-1.0472860650249913,0.1061485834177347,3.6054282045497885,0.0,0.0,0.0,1.0
1623492410465248830,1015,1623492410464750099,-1.061097608964701,0.10895633896097934,3.6162376514922556,0.0,0.0,0.0,1.0
1623492410510977338,1016,1623492410510522890,-1.074505056347789,0.11151491486748455,3.6258207733315118,0.0,0.0,0.0,1.0
1623492410566372701,1017,1623492410565552997,-1.1020584948366832,0.11754656148957565,3.6405647109700396,0.0,0.0,0.0,1.0
1623492410610005557,1018,1623492410609406042,-1.116406057868062,0.12086798826760514,3.6461173483382723,0.0,0.0,0.0,1.0
1623492410661918747,1019,1623492410660902070,-1.1320756542836534,0.12467025702301271,3.651221150338884,0.0,0.0,0.0,1.0
1623492410724298638,1020,1623492410723783063,-1.1642524523872453,0.1320368169547237,3.6580969913757357,0.0,0.0,0.0,1.0
1623492410768279689,1021,1623492410767750072,-1.1818972071555436,0.1361622811706411,3.6598729864570743,0.0,0.0,0.0,1.0
1623492410816874421,1022,1623492410816149044,-1.1996510452088387,0.1402644876939121,3.6612456592477685,0.0,0.0,0.0,1.0
1623492410863578638,1023,1623492410862969923,-1.2181009739942965,0.14452954263913398,3.661143601465774,0.0,0.0,0.0,1.0
1623492410911454847,1024,1623492410910296964,-1.2358782613086987,0.14937471750386067,3.660721563614956,0.0,0.0,0.0,1.0
1623492410961803379,1025,1623492410961194086,-1.2539888358426197,0.15412585642673093,3.660727337592263,0.0,0.0,0.0,1.0
1623492411008457203,1026,1623492411008034992,-1.2725483946030636,0.1591304947351091,3.661271028226892,0.0,0.0,0.0,1.0
1623492411064044335,1027,1623492411063756990,-1.3105841018891624,0.17070511859640192,3.666508732602324,0.0,0.0,0.0,1.0
1623492411110145850,1028,1623492411109787988,-1.330476918000386,0.17577683136335054,3.6707239363155466,0.0,0.0,0.0,1.0
1623492411160640118,1029,1623492411160239982,-1.3509416888034593,0.1816155178066765,3.676193062401545,0.0,0.0,0.0,1.0
1623492411209827029,1030,1623492411209190893,-1.3710175081575926,0.1870293125613216,3.6823574762742837,0.0,0.0,0.0,1.0
1623492411263847624,1031,1623492411263207960,-1.391568301516827,0.19304140365545663,3.6888252908612174,0.0,0.0,0.0,1.0
1623492411311755550,1032,1623492411311321067,-1.4304971123108317,0.2037602339547675,3.7026691165062573,0.0,0.0,0.0,1.0
1623492411362569751,1033,1623492411361850070,-1.4514316398838218,0.20961893758908445,3.7108084826146523,0.0,0.0,0.0,1.0
1623492411412569323,1034,1623492411411902952,-1.471680585215836,0.21574356876021739,3.7191298413875202,0.0,0.0,0.0,1.0
1623492411463134974,1035,1623492411462444114,-1.4923263441698964,0.2222107834639928,3.728536930536066,0.0,0.0,0.0,1.0
1623492411513425363,1036,1623492411512853908,-1.511597258026768,0.22814898394949523,3.7370899978413092,0.0,0.0,0.0,1.0
1623492411566302428,1037,1623492411565651941,-1.5323030036759064,0.23487427589520848,3.7474580146297143,0.0,0.0,0.0,1.0
1623492411609856362,1038,1623492411609401988,-1.5733847752799193,0.2465991637956222,3.7684115974574723,0.0,0.0,0.0,1.0
1623492411662797107,1039,1623492411662243890,-1.5938042101308838,0.2528243912878452,3.7800061141340606,0.0,0.0,0.0,1.0
1623492411711218090,1040,1623492411710550117,-1.6137582079431922,0.25842022976155476,3.7905372516245706,0.0,0.0,0.0,1.0
1623492411762652584,1041,1623492411762038993,-1.6335835101601788,0.2642949466506934,3.8024950170457714,0.0,0.0,0.0,1.0
1623492411810953732,1042,1623492411810325908,-1.6540474328730852,0.2699569475238377,3.815746076571351,0.0,0.0,0.0,1.0
1623492411862602385,1043,1623492411862004089,-1.6928562639550364,0.2816486879821696,3.8400587571462808,0.0,0.0,0.0,1.0
1623492411910811686,1044,1623492411910383987,-1.7125447774931217,0.2880498613637883,3.852237558857283,0.0,0.0,0.0,1.0
1623492411961554693,1045,1623492411961125898,-1.732122653462966,0.29434712120553286,3.864500651197517,0.0,0.0,0.0,1.0
1623492412008073819,1046,1623492412007602024,-1.7522308010154575,0.30126247156533736,3.8772113070060854,0.0,0.0,0.0,1.0
1623492412063187412,1047,1623492412062890100,-1.772016043600388,0.3087087428837094,3.891157642127375,0.0,0.0,0.0,1.0
1623492412111390260,1048,1623492412110878992,-1.8084408354052357,0.32259508858828667,3.9165599389290335,0.0,0.0,0.0,1.0
1623492412161561295,1049,1623492412161263036,-1.8269096039882697,0.3298242268165268,3.929526904021003,0.0,0.0,0.0,1.0
1623492412208707461,1050,1623492412208196926,-1.845221915138609,0.3368524722231996,3.9425181301839487,0.0,0.0,0.0,1.0
1623492412261279159,1051,1623492412260908889,-1.863055628807615,0.34329401822606087,3.953502050535093,0.0,0.0,0.0,1.0
1623492412321128239,1052,1623492412320631074,-1.8989906221800084,0.35710812498405176,3.9758541575914137,0.0,0.0,0.0,1.0
1623492412369719446,1053,1623492412368780899,-1.9157477198316428,0.3633701482401648,3.9858166918576927,0.0,0.0,0.0,1.0
1623492412408947667,1054,1623492412408350992,-1.9322589856419654,0.3696165901673112,3.9964387717067353,0.0,0.0,0.0,1.0
1623492412462288770,1055,1623492412461490917,-1.9485999066168915,0.375810449705682,4.007221493319058,0.0,0.0,0.0,1.0
1623492412509292818,1056,1623492412508632946,-1.963789715061921,0.38182298222045574,4.017838984391503,0.0,0.0,0.0,1.0
1623492412565234288,1057,1623492412564741897,-1.9788674962651385,0.3882397706527172,4.028823963801273,0.0,0.0,0.0,1.0
1623492412611539784,1058,1623492412610913085,-2.0066169506060305,0.3995072172458549,4.050609096096011,0.0,0.0,0.0,1.0
1623492412709942937,1060,1623492412709538984,-2.0358756371333584,0.41064436452597874,4.076831556457307,0.0,0.0,0.0,1.0
1623492412759873193,1061,1623492412759665060,-2.047668126649569,0.414781467289572,4.089928055920396,0.0,0.0,0.0,1.0
1623492412809060204,1062,1623492412808744955,-2.0589081858579448,0.4172091158791318,4.104650972566439,0.0,0.0,0.0,1.0
1623492412865265364,1063,1623492412864692020,-2.070206557385518,0.42198051983552887,4.119785667494263,0.0,0.0,0.0,1.0
1623492412911482893,1064,1623492412910954046,-2.089287449347921,0.42834543555500204,4.149437872644334,0.0,0.0,0.0,1.0
1623492413009129703,1066,1623492413008487987,-2.1083366719058176,0.4344635075892711,4.180799391712533,0.0,0.0,0.0,1.0
1623492413062725834,1067,1623492413062167930,-2.116464915280858,0.43679117162196235,4.1931742557511384,0.0,0.0,0.0,1.0
1623492413110782788,1068,1623492413110174942,-2.123037526595681,0.4384695140781787,4.204671244746585,0.0,0.0,0.0,1.0
1623492413164308001,1069,1623492413163621950,-2.1293187378907987,0.4398991844441298,4.216572360678477,0.0,0.0,0.0,1.0
1623492413211103088,1070,1623492413210754919,-2.1401687012430557,0.4422635686396461,4.236243979113361,0.0,0.0,0.0,1.0
1623492413328078154,1072,1623492413327815103,-2.153148582408903,0.44515215087210436,4.251301276878614,0.0,0.0,0.0,1.0
1623492413374633636,1073,1623492413374368000,-2.158662681965552,0.4441432543085284,4.2567598677220815,0.0,0.0,0.0,1.0
1623492413435468002,1074,1623492413434931087,-2.1675911329386963,0.44646142691590285,4.2645670518293315,0.0,0.0,0.0,1.0
1623492413562156294,1075,1623492413561702060,-2.1792125364818276,0.4502578249595217,4.272202738085404,0.0,0.0,0.0,1.0
1623492413642592593,1076,1623492413642097997,-2.1873468876240167,0.4536599151480232,4.274753593745764,0.0,0.0,0.0,1.0
1623492413677414429,1077,1623492413677161026,-2.1911392106133007,0.45402498130181357,4.275497729918413,0.0,0.0,0.0,1.0
1623492413723509286,1078,1623492413723234939,-2.1947145701765294,0.455123146578444,4.276287688220123,0.0,0.0,0.0,1.0
1623492413767690544,1079,1623492413767252016,-2.1987195841536504,0.4563239630991802,4.276783836876213,0.0,0.0,0.0,1.0
1623492413809777158,1080,1623492413809479045,-2.2029567321267223,0.4580453776974309,4.276702446846855,0.0,0.0,0.0,1.0
1623492413861419929,1081,1623492413861104059,-2.207452631400656,0.4598203389363107,4.276449289627692,0.0,0.0,0.0,1.0
1623492413909520309,1082,1623492413909093904,-2.21227354299117,0.4619932238805404,4.275385774806914,0.0,0.0,0.0,1.0
1623492413964829120,1083,1623492413963918972,-2.2171251002068857,0.4646297905294432,4.274487373534413,0.0,0.0,0.0,1.0
1623492414011863785,1084,1623492414011399078,-2.2270050246706887,0.47019895258154065,4.271158690434525,0.0,0.0,0.0,1.0
1623492414060364212,1085,1623492414059639024,-2.2320546512912642,0.47303475082719615,4.268570556770648,0.0,0.0,0.0,1.0
1623492414109925175,1086,1623492414109463024,-2.2372390890925544,0.47545014425304544,4.265914340595415,0.0,0.0,0.0,1.0
1623492414162562644,1087,1623492414162108945,-2.2427401196173378,0.4796010529770456,4.263662346570101,0.0,0.0,0.0,1.0
1623492414221251274,1088,1623492414220625925,-2.252738519673585,0.4850518870639462,4.262431206004699,0.0,0.0,0.0,1.0
1623492414266433472,1089,1623492414265785980,-2.258350433902251,0.48720660016454076,4.262978637509121,0.0,0.0,0.0,1.0
1623492414311758567,1090,1623492414310569095,-2.2629092792351457,0.49020099782080706,4.262087256318885,0.0,0.0,0.0,1.0
1623492414362522577,1091,1623492414362062025,-2.2685681429891247,0.49273743434935113,4.261270742038974,0.0,0.0,0.0,1.0
1623492414412158313,1092,1623492414411522912,-2.2742158731985,0.49527024936946873,4.260661013076806,0.0,0.0,0.0,1.0
1623492414465608507,1093,1623492414465096044,-2.2795912457083887,0.4968333945037102,4.260212469233366,0.0,0.0,0.0,1.0
1623492414510565023,1094,1623492414510119009,-2.2849704549428225,0.49813303745850135,4.260296026553988,0.0,0.0,0.0,1.0
1623492414562499826,1095,1623492414562048006,-2.296162648088739,0.5004034300965259,4.259840378066549,0.0,0.0,0.0,1.0
1623492414609861263,1096,1623492414609571027,-2.3021567301427694,0.502321827760511,4.25896325069629,0.0,0.0,0.0,1.0
1623492414661051881,1097,1623492414660761880,-2.307402354129408,0.5034732488568352,4.259273975717598,0.0,0.0,0.0,1.0
1623492414711819327,1098,1623492414711384105,-2.3127152455310807,0.5046072366393446,4.259272028128606,0.0,0.0,0.0,1.0
1623492414764683538,1099,1623492414764107990,-2.3230482201524865,0.5048603089259132,4.25920801896369,0.0,0.0,0.0,1.0
