%time,field.header.seq,field.header.stamp,field.pose.position.x,field.pose.position.y,field.pose.position.z,field.pose.orientation.x,field.pose.orientation.y,field.pose.orientation.z,field.pose.orientation.w
1609054445750106185,1093,1609054445749662886,-0.12329079851271274,0.09033102277288663,0.5450680977703488,0.0,0.0,0.0,1.0
1609054445802090075,1094,1609054445801212082,-0.13041829858913445,0.09416859808085576,0.548815346902626,0.0,0.0,0.0,1.0
1609054445852820207,1095,1609054445851631890,-0.1383864386586673,0.09736149245543402,0.5497362863491437,0.0,0.0,0.0,1.0
1609054445904381829,1096,1609054445904046069,-0.14466165752634552,0.10168680050287549,0.5512295637373992,0.0,0.0,0.0,1.0
1609054445952100423,1097,1609054445951586018,-0.1598435674863552,0.10861729113061358,0.555170143686146,0.0,0.0,0.0,1.0
1609054446002515683,1098,1609054446002191077,-0.16771972641410215,0.11072627434073468,0.5543698946070696,0.0,0.0,0.0,1.0
1609054446049766002,1099,1609054446049490939,-0.17472760434299417,0.11330419451111595,0.5566925101102731,0.0,0.0,0.0,1.0
1609054446104268189,1100,1609054446103566895,-0.18090456609078487,0.11526398289858264,0.560807166475338,0.0,0.0,0.0,1.0
1609054446151781087,1101,1609054446151346932,-0.1883677711849252,0.11547862483550375,0.5688342143343013,0.0,0.0,0.0,1.0
1609054446203156410,1102,1609054446202811966,-0.1944570975533999,0.11517541202518089,0.5767092536497218,0.0,0.0,0.0,1.0
1609054446251557581,1103,1609054446250984917,-0.2070032621553466,0.11250922671887054,0.6023280456987194,0.0,0.0,0.0,1.0
1609054446303193641,1104,1609054446302902947,-0.21379745847031728,0.10964210934743335,0.6204238971628291,0.0,0.0,0.0,1.0
1609054446350480040,1105,1609054446350205908,-0.21820223556339258,0.10641379775476878,0.6410834504805099,0.0,0.0,0.0,1.0
1609054446403572773,1106,1609054446403277884,-0.22428976392192723,0.1023977964311058,0.664981678129239,0.0,0.0,0.0,1.0
1609054446452543221,1107,1609054446451832066,-0.22937644064226248,0.0969767019177965,0.6885155540119587,0.0,0.0,0.0,1.0
1609054446508324383,1108,1609054446508017073,-0.2382444288076897,0.08353967470060297,0.7491391725023835,0.0,0.0,0.0,1.0
1609054446557419165,1109,1609054446557130108,-0.24147368748815268,0.07610993818094869,0.780310130816952,0.0,0.0,0.0,1.0
1609054446601570703,1110,1609054446601309071,-0.24392897032229754,0.06734707399013473,0.8116186993727412,0.0,0.0,0.0,1.0
1609054446650902577,1111,1609054446650310050,-0.24866419508555637,0.05726372365971599,0.8449518478822862,0.0,0.0,0.0,1.0
1609054446703664114,1112,1609054446703242074,-0.25060228614304236,0.04887306620122445,0.8836626464644102,0.0,0.0,0.0,1.0
1609054446751714845,1113,1609054446751405011,-0.2552155619824674,0.03801893179348781,0.9190000862764478,0.0,0.0,0.0,1.0
1609054446804463728,1114,1609054446804074059,-0.2567567415102303,0.02719066401654402,0.9529946073002113,0.0,0.0,0.0,1.0
1609054446851792480,1115,1609054446851569901,-0.26229874579253476,0.004062103940739803,1.0236597226349664,0.0,0.0,0.0,1.0
1609054446902738972,1116,1609054446902118931,-0.2643112719130585,-0.008163461178696707,1.062247692649155,0.0,0.0,0.0,1.0
1609054446951095876,1117,1609054446950675021,-0.2679010902741439,-0.021260124505417366,1.1006691229337662,0.0,0.0,0.0,1.0
1609054447001680120,1118,1609054447001306067,-0.27138466284346663,-0.03454022135588275,1.1342869550018504,0.0,0.0,0.0,1.0
1609054447052291255,1119,1609054447051965962,-0.2733755039870225,-0.04715568813227833,1.170176302819283,0.0,0.0,0.0,1.0
1609054447174051349,1120,1609054447173711072,-0.27928639485157447,-0.07504014145709448,1.2361500038314919,0.0,0.0,0.0,1.0
1609054447251147542,1121,1609054447250675927,-0.2880583864196211,-0.11897983958689906,1.3310691839332849,0.0,0.0,0.0,1.0
1609054447302489668,1122,1609054447301676999,-0.2904111249634376,-0.13364058705137438,1.3627603412482259,0.0,0.0,0.0,1.0
1609054447352134538,1123,1609054447351809989,-0.29309284039947414,-0.14907579732373222,1.3903235698235283,0.0,0.0,0.0,1.0
1609054447403919029,1124,1609054447403629075,-0.2962645981827663,-0.16415094370690042,1.4192615766708752,0.0,0.0,0.0,1.0
1609054447452225516,1125,1609054447451961051,-0.30300009645349135,-0.19559405828390197,1.4736246887995117,0.0,0.0,0.0,1.0
1609054447502938856,1126,1609054447502443085,-0.30710595133920293,-0.21209080053742468,1.5009774539277725,0.0,0.0,0.0,1.0
1609054447551419303,1127,1609054447551069985,-0.3106091675422462,-0.22823241681146555,1.5264471064103518,0.0,0.0,0.0,1.0
1609054447602961695,1128,1609054447602700005,-0.3144466149452789,-0.24468366872390845,1.5521988874605688,0.0,0.0,0.0,1.0
1609054447652601720,1129,1609054447652213107,-0.31822896524488087,-0.2615327586278511,1.5795177760425245,0.0,0.0,0.0,1.0
1609054447711341423,1130,1609054447710479985,-0.3260516835159457,-0.2959974361398565,1.6299068364022231,0.0,0.0,0.0,1.0
1609054447756985511,1131,1609054447756175051,-0.32922837507578606,-0.31294338477337647,1.6551780368529796,0.0,0.0,0.0,1.0
1609054447802669814,1132,1609054447802277098,-0.3352670311899395,-0.330271472544311,1.6796844097363248,0.0,0.0,0.0,1.0
1609054447849879372,1133,1609054447849590073,-0.33801133733166466,-0.34683792267725266,1.7055498286393336,0.0,0.0,0.0,1.0
1609054447902491846,1134,1609054447902256022,-0.34260886579510696,-0.3643187104177059,1.7303770293446137,0.0,0.0,0.0,1.0
1609054447953184965,1135,1609054447952739010,-0.34769284026507563,-0.381398345648563,1.7557920508613272,0.0,0.0,0.0,1.0
1609054448004607411,1136,1609054448004067908,-0.3515187013902299,-0.39848213860592807,1.7799625137960922,0.0,0.0,0.0,1.0
1609054448052591542,1137,1609054448052248965,-0.3593524031798445,-0.4319645006081174,1.8287689982277975,0.0,0.0,0.0,1.0
1609054448106459981,1138,1609054448106120120,-0.3632201293938877,-0.4488059206293258,1.853932912764205,0.0,0.0,0.0,1.0
1609054448150490831,1139,1609054448150232087,-0.36604317403515196,-0.4651027298043289,1.8776199404926723,0.0,0.0,0.0,1.0
1609054448202743353,1140,1609054448202461968,-0.3707882164294176,-0.4817532592814473,1.902429925113795,0.0,0.0,0.0,1.0
1609054448251848068,1141,1609054448251456986,-0.3747110263002469,-0.49760510227235955,1.9273414982674977,0.0,0.0,0.0,1.0
1609054448305968570,1142,1609054448305720101,-0.37797063904724837,-0.5123883486824781,1.9524320241594495,0.0,0.0,0.0,1.0
1609054448351821014,1143,1609054448351552973,-0.3862511455856392,-0.5412492361792545,2.000428724386162,0.0,0.0,0.0,1.0
1609054448404390744,1144,1609054448403937111,-0.39135099544320795,-0.5545810352681713,2.025249605529453,0.0,0.0,0.0,1.0
1609054448450759004,1145,1609054448450354109,-0.39518162309915894,-0.566748999755589,2.0502359208589898,0.0,0.0,0.0,1.0
1609054448504856425,1146,1609054448504457961,-0.39988443476593716,-0.5787338659031889,2.0745943744841835,0.0,0.0,0.0,1.0
1609054448552565604,1147,1609054448552188883,-0.40424791928239046,-0.5898554939936673,2.0992413188877252,0.0,0.0,0.0,1.0
1609054448604247752,1148,1609054448603898058,-0.4063137529012053,-0.6001598508152455,2.1232512897195033,0.0,0.0,0.0,1.0
1609054448652698582,1149,1609054448652442942,-0.4146560812268376,-0.6194462293461385,2.172894366753371,0.0,0.0,0.0,1.0
1609054448704824845,1150,1609054448704056035,-0.41932057474382844,-0.6276311379199058,2.1946588717589286,0.0,0.0,0.0,1.0
1609054448752896247,1151,1609054448752074967,-0.4230814546328112,-0.6345499285215084,2.2182718471529537,0.0,0.0,0.0,1.0
1609054448803486075,1152,1609054448802949915,-0.4275392164016658,-0.6409014313348109,2.244446286887257,0.0,0.0,0.0,1.0
1609054448853220720,1153,1609054448852358113,-0.4297691896160316,-0.6451651360494282,2.2687868674405136,0.0,0.0,0.0,1.0
1609054448904725454,1154,1609054448904462109,-0.43378469465007896,-0.6497493337084421,2.294222481363823,0.0,0.0,0.0,1.0
1609054448952579036,1155,1609054448951982985,-0.44115914961620817,-0.6554399036195235,2.345304465429347,0.0,0.0,0.0,1.0
1609054449003121021,1156,1609054449002563010,-0.444914481541403,-0.6569143613292425,2.3721789209509048,0.0,0.0,0.0,1.0
1609054449052463832,1157,1609054449051723967,-0.44974637395683104,-0.6581577433414338,2.398577365573713,0.0,0.0,0.0,1.0
1609054449102072907,1158,1609054449101496945,-0.4536510417989703,-0.6583491221267792,2.423569781085723,0.0,0.0,0.0,1.0
1609054449152152316,1159,1609054449151798974,-0.4590094789162329,-0.6583246880101399,2.451385611051152,0.0,0.0,0.0,1.0
1609054449202591858,1160,1609054449202168952,-0.46347083051010074,-0.6571629402951658,2.477636309018445,0.0,0.0,0.0,1.0
1609054449252255160,1161,1609054449251776944,-0.4725400513540876,-0.6524437095599751,2.5292352543337664,0.0,0.0,0.0,1.0
1609054449304093277,1162,1609054449303689013,-0.47846479023714394,-0.6500902864394078,2.552536952616407,0.0,0.0,0.0,1.0
1609054449350565350,1163,1609054449350327979,-0.4827751158981819,-0.6462214392186638,2.5780334540782652,0.0,0.0,0.0,1.0
1609054449403285433,1164,1609054449402832041,-0.4893192194253224,-0.6429990222977722,2.601949919460118,0.0,0.0,0.0,1.0
1609054449453651587,1165,1609054449453411112,-0.49384658484653343,-0.6382656132932425,2.627555741981201,0.0,0.0,0.0,1.0
1609054449505265873,1166,1609054449504992018,-0.5072452465129729,-0.6302322641906386,2.674496584472715,0.0,0.0,0.0,1.0
1609054449550380956,1167,1609054449550060998,-0.5137314143230611,-0.6250688189111457,2.697637077103783,0.0,0.0,0.0,1.0
1609054449603114097,1168,1609054449602844010,-0.5194816163235103,-0.6194386898832391,2.7210655724030595,0.0,0.0,0.0,1.0
1609054449651171308,1169,1609054449650675068,-0.5271079183519589,-0.6145218266624681,2.7432537144470834,0.0,0.0,0.0,1.0
1609054449705691040,1170,1609054449705127011,-0.5337036154748453,-0.608642094509591,2.7653030480668983,0.0,0.0,0.0,1.0
1609054449754503091,1171,1609054449754227887,-0.5497576605912577,-0.5965418651236973,2.8157143704401015,0.0,0.0,0.0,1.0
1609054449802769293,1172,1609054449802501927,-0.5576231540807299,-0.5915026569299044,2.8383603604002294,0.0,0.0,0.0,1.0
1609054450058049872,1174,1609054450057700882,-0.6093803015866364,-0.5603747684619833,2.9792945756502935,0.0,0.0,0.0,1.0
1609054450104607669,1175,1609054450104228030,-0.6178713565415919,-0.5556351385223195,3.0014889506936004,0.0,0.0,0.0,1.0
1609054450151982366,1176,1609054450151731978,-0.6254655818841783,-0.5513445360358276,3.0217524716519715,0.0,0.0,0.0,1.0
1609054450202352498,1177,1609054450202091942,-0.6335773682201804,-0.5470692257131162,3.0430986316319055,0.0,0.0,0.0,1.0
1609054450252538710,1178,1609054450251636992,-0.6430797524721932,-0.5435524838716788,3.0631656356089603,0.0,0.0,0.0,1.0
1609054450309407091,1179,1609054450307920943,-0.6591825192338661,-0.5368449455459796,3.1011225684688895,0.0,0.0,0.0,1.0
1609054450358692580,1180,1609054450357527028,-0.6666504126330324,-0.5335242289758497,3.1209082778634256,0.0,0.0,0.0,1.0
1609054450404148010,1181,1609054450403632889,-0.6748514147580558,-0.5305440660928582,3.1371538463237614,0.0,0.0,0.0,1.0
1609054450454455815,1182,1609054450454145918,-0.6838710407517752,-0.5272805647585699,3.1540668953113316,0.0,0.0,0.0,1.0
1609054450502645521,1183,1609054450502305041,-0.6920880705490013,-0.523845042661236,3.1672809779306155,0.0,0.0,0.0,1.0
1609054450564440851,1184,1609054450564157019,-0.7087831229712975,-0.5175027855378005,3.1876427532701945,0.0,0.0,0.0,1.0
1609054450608906534,1185,1609054450608406077,-0.7170061533262349,-0.5144520080014843,3.1958394168265176,0.0,0.0,0.0,1.0
1609054450656446429,1186,1609054450655912886,-0.7248019613921706,-0.5113877439416115,3.2016139793547316,0.0,0.0,0.0,1.0
1609054450703558238,1187,1609054450702992926,-0.7329802484301133,-0.5083251870690901,3.2098099243182396,0.0,0.0,0.0,1.0
1609054450751900401,1188,1609054450751516114,-0.741607680292514,-0.5054942592972935,3.2145455167081023,0.0,0.0,0.0,1.0
1609054450802488558,1189,1609054450801892052,-0.750082946524131,-0.5019169047126866,3.2204499477039965,0.0,0.0,0.0,1.0
1609054450852950177,1190,1609054450852546940,-0.7588602402521545,-0.4988253774754554,3.2251225284247504,0.0,0.0,0.0,1.0
1609054450903899309,1191,1609054450903616915,-0.7671077936095401,-0.4946723000650195,3.2305102196648194,0.0,0.0,0.0,1.0
1609054450953413144,1192,1609054450953109990,-0.786366812153446,-0.48599487336812786,3.2380770763436315,0.0,0.0,0.0,1.0
1609054451002904465,1193,1609054451002491961,-0.7863668007608631,-0.4859949104646688,3.2380762993548844,0.0,0.0,0.0,1.0
1609054451051688084,1194,1609054451051367054,-0.8031410181502956,-0.477861393452244,3.2434993234261196,0.0,0.0,0.0,1.0
1609054451106673272,1195,1609054451106286059,-0.8107970643691154,-0.4727783724117103,3.2447623643663146,0.0,0.0,0.0,1.0
1609054451152767825,1196,1609054451152373086,-0.8201184011055815,-0.4677030610035331,3.2485887757379865,0.0,0.0,0.0,1.0
1609054451203584790,1197,1609054451203118096,-0.8295378864823597,-0.4620888709539912,3.2512503511911013,0.0,0.0,0.0,1.0
1609054451252669192,1198,1609054451252124081,-0.8467016074267733,-0.4504322135040155,3.2539466615716712,0.0,0.0,0.0,1.0
1609054451302536193,1199,1609054451302217017,-0.8542785896309582,-0.4448260253983989,3.2566696055091064,0.0,0.0,0.0,1.0
1609054451351869848,1200,1609054451351082097,-0.8628891563453891,-0.4394648687556497,3.2594099370322835,0.0,0.0,0.0,1.0
1609054451403834584,1201,1609054451403527031,-0.8718888441961177,-0.43281817886318663,3.2609667229622454,0.0,0.0,0.0,1.0
1609054451453739292,1202,1609054451453341017,-0.8812184011184065,-0.4262689097289467,3.2648414494567324,0.0,0.0,0.0,1.0
1609054451504801532,1203,1609054451504309903,-0.8913407784726601,-0.41912637636528416,3.2670311368221374,0.0,0.0,0.0,1.0
1609054451552820819,1204,1609054451552505026,-0.9096650622449296,-0.40500970807644876,3.2719295406241375,0.0,0.0,0.0,1.0
1609054451602298279,1205,1609054451601979981,-0.9164760693086436,-0.3974701751684222,3.2743692460863114,0.0,0.0,0.0,1.0
1609054451651008140,1206,1609054451650678883,-0.9272276727685487,-0.3902203771891095,3.2767005526992774,0.0,0.0,0.0,1.0
1609054451704458364,1207,1609054451703552018,-0.9359025027254155,-0.3819649766680584,3.2807234880504574,0.0,0.0,0.0,1.0
1609054451751754950,1208,1609054451751321087,-0.9462342523533849,-0.3740850208797468,3.2802529250833214,0.0,0.0,0.0,1.0
1609054451803244172,1209,1609054451802896987,-0.9561939658322522,-0.3668807754534953,3.2826760392499903,0.0,0.0,0.0,1.0
1609054451853491935,1210,1609054451853147040,-0.9669483394931646,-0.3595912795453131,3.2838257843430685,0.0,0.0,0.0,1.0
1609054451902906932,1211,1609054451902616034,-0.9904916742916221,-0.34457734618106883,3.2855149654400932,0.0,0.0,0.0,1.0
1609054451950005305,1212,1609054451949678908,-1.003911720029496,-0.33670156437011656,3.2870156203748353,0.0,0.0,0.0,1.0
1609054452025671707,1213,1609054452025119076,-1.0316856281872298,-0.3198083323796794,3.2856321829995645,0.0,0.0,0.0,1.0
1609054452065732938,1214,1609054452064908038,-1.0475559936592056,-0.3104714209566737,3.2846259810679945,0.0,0.0,0.0,1.0
1609054452110459577,1215,1609054452109982977,-1.0624184304545494,-0.3016200145298171,3.2839764229472985,0.0,0.0,0.0,1.0
1609054452156648456,1216,1609054452156389008,-1.0806887986272145,-0.2913749063828135,3.2837563575874893,0.0,0.0,0.0,1.0
1609054452202693967,1217,1609054452202384959,-1.0979861423440305,-0.2829786428715124,3.2802917204782553,0.0,0.0,0.0,1.0
1609054452251735900,1218,1609054452251324902,-1.116625400430138,-0.2725247072887811,3.2805283235788583,0.0,0.0,0.0,1.0
1609054452303477710,1219,1609054452303135882,-1.136499866973118,-0.26358097562197713,3.2762062436168526,0.0,0.0,0.0,1.0
1609054452353519144,1220,1609054452353163968,-1.1567381985108547,-0.2525987642679297,3.2748897275282154,0.0,0.0,0.0,1.0
1609054452405322770,1221,1609054452404973994,-1.1760627631361587,-0.2418982381577024,3.2703349616386714,0.0,0.0,0.0,1.0
1609054452453912089,1222,1609054452453449975,-1.2202587712456676,-0.22056723370567966,3.2621657730724682,0.0,0.0,0.0,1.0
1609054452504530932,1223,1609054452503781090,-1.24228358491197,-0.20819686009483007,3.2589555930955605,0.0,0.0,0.0,1.0
1609054452551185105,1224,1609054452550648938,-1.2671309856585715,-0.19739905610960307,3.2544844991839836,0.0,0.0,0.0,1.0
1609054452604388444,1225,1609054452603578101,-1.2919986259803125,-0.18457322562029788,3.2505681356042384,0.0,0.0,0.0,1.0
1609054452652491665,1226,1609054452652201901,-1.3165253660462604,-0.17188025124463024,3.2460246871099723,0.0,0.0,0.0,1.0
1609054452703735122,1227,1609054452703479062,-1.3434180182491424,-0.15896904013787605,3.2431675758528162,0.0,0.0,0.0,1.0
1609054452752066585,1228,1609054452751837979,-1.395538598101119,-0.12926848617918552,3.2381762240341825,0.0,0.0,0.0,1.0
1609054452801952933,1229,1609054452801567088,-1.4239994533555809,-0.11598555312089331,3.2329493071066353,0.0,0.0,0.0,1.0
1609054452850975885,1230,1609054452850338946,-1.4493375418891041,-0.10098581953684516,3.2298429906358543,0.0,0.0,0.0,1.0
1609054452904876565,1231,1609054452904061089,-1.4772914239441448,-0.08457001452788404,3.2267055125255264,0.0,0.0,0.0,1.0
1609054452955764083,1232,1609054452954809914,-1.504090321271999,-0.06876614949950977,3.2225687910839795,0.0,0.0,0.0,1.0
1609054453003796596,1233,1609054453003489981,-1.5313778096179291,-0.0521261402617057,3.2175283846545595,0.0,0.0,0.0,1.0
1609054453053433984,1234,1609054453053078900,-1.5838989076572112,-0.015758272656341887,3.2125816456803316,0.0,0.0,0.0,1.0
1609054453112025478,1235,1609054453111191044,-1.610453984433903,0.0023414246915223202,3.2106153429108915,0.0,0.0,0.0,1.0
1609054453153310775,1236,1609054453152335892,-1.6341831794355386,0.02206252062987346,3.2067142328752802,0.0,0.0,0.0,1.0
1609054453202975532,1237,1609054453202374945,-1.659734134603628,0.042180080573686496,3.2043747915077017,0.0,0.0,0.0,1.0
1609054453253172163,1238,1609054453252974043,-1.6845330628642863,0.0623277951235508,3.2017328867433705,0.0,0.0,0.0,1.0
1609054453304472635,1239,1609054453304073105,-1.7070927630303956,0.0836908244422716,3.2013200204603853,0.0,0.0,0.0,1.0
1609054453351141399,1240,1609054453350811968,-1.7500767126932928,0.12820090126609784,3.1981867436170175,0.0,0.0,0.0,1.0
1609054453404738905,1241,1609054453403702984,-1.7705624228421897,0.1485918490869267,3.1959019597090346,0.0,0.0,0.0,1.0
1609054453453144661,1242,1609054453452847014,-1.790154726119848,0.1707213441378599,3.1945296446617886,0.0,0.0,0.0,1.0
1609054453503963404,1243,1609054453503541956,-1.8094662453141694,0.1929477275366338,3.1931623826894295,0.0,0.0,0.0,1.0
1609054453552188054,1244,1609054453551907073,-1.8257972888047753,0.21591930028245088,3.1941622817033752,0.0,0.0,0.0,1.0
1609054453607394592,1245,1609054453607034932,-1.8427849586879255,0.2391128235420581,3.1937030852130395,0.0,0.0,0.0,1.0
1609054453654890729,1246,1609054453653795968,-1.8717453383173996,0.2867861547591559,3.1958915697478694,0.0,0.0,0.0,1.0
1609054453704558172,1247,1609054453703996907,-1.8829617776117793,0.31107110041611463,3.1978404940277496,0.0,0.0,0.0,1.0
1609054453752510447,1248,1609054453752218972,-1.8951442436571249,0.3352950158242294,3.1990367040954695,0.0,0.0,0.0,1.0
1609054453801890894,1249,1609054453801541100,-1.9048233565646662,0.36050985938682345,3.2003300705617472,0.0,0.0,0.0,1.0
1609054453850542938,1250,1609054453850236903,-1.9138003508155776,0.3849986255288229,3.2012888126871153,0.0,0.0,0.0,1.0
1609054453903341567,1251,1609054453903083096,-1.9217065518176817,0.40967396838993864,3.2026765195461744,0.0,0.0,0.0,1.0
1609054453946329952,1252,1609054453946053038,-1.932918159968338,0.4591072502486213,3.2025120546062915,0.0,0.0,0.0,1.0
1609054453998823035,1253,1609054453998436938,-1.938421784560262,0.481766502321463,3.2019793588449015,0.0,0.0,0.0,1.0
1609054454048223232,1254,1609054454047798882,-1.941370923018443,0.5060095887156564,3.2044197123173963,0.0,0.0,0.0,1.0
1609054454100811882,1255,1609054454100548039,-1.9443339844927898,0.5296124193709062,3.2068976111257554,0.0,0.0,0.0,1.0
1609054454152832322,1256,1609054454152565012,-1.9469415630834739,0.5551558947839652,3.2136735594914105,0.0,0.0,0.0,1.0
1609054454203433133,1257,1609054454203101883,-1.9481015523152365,0.578885407059758,3.2166469188122884,0.0,0.0,0.0,1.0
1609054454253587461,1258,1609054454252947102,-1.9467098693252716,0.6258218513831224,3.2222516826749175,0.0,0.0,0.0,1.0
1609054454304667542,1259,1609054454303736935,-1.945019016867949,0.6493400599900809,3.2244459734418265,0.0,0.0,0.0,1.0
1609054454351848408,1260,1609054454351588021,-1.9415591669352636,0.6729963948655495,3.2276073454996936,0.0,0.0,0.0,1.0
1609054454403494462,1261,1609054454403193961,-1.9394338911956694,0.696789435177692,3.2322305682052406,0.0,0.0,0.0,1.0
1609054454463771504,1262,1609054454463425885,-1.9325272262686575,0.7441429399286363,3.2375830179844987,0.0,0.0,0.0,1.0
1609054454508247929,1263,1609054454507756959,-1.9302136138723185,0.766674246638118,3.2392076633202875,0.0,0.0,0.0,1.0
1609054454553496269,1264,1609054454552886973,-1.9251525576644504,0.7910596771874623,3.2417397817177624,0.0,0.0,0.0,1.0
1609054454603219884,1265,1609054454602664004,-1.9205356048549902,0.8143808625867308,3.2431473523088834,0.0,0.0,0.0,1.0
1609054454652742174,1266,1609054454651793013,-1.9162789921179666,0.8376511983059061,3.2460537490170354,0.0,0.0,0.0,1.0
1609054454703923111,1267,1609054454702997933,-1.9119619285705411,0.8617194579480696,3.2476163211216074,0.0,0.0,0.0,1.0
1609054454751819330,1268,1609054454751334916,-1.9070998784261022,0.8853369214714064,3.2511948695239496,0.0,0.0,0.0,1.0
1609054454804152403,1269,1609054454803811083,-1.9035057193106617,0.9071625898463651,3.2512506172883553,0.0,0.0,0.0,1.0
1609054454854063951,1270,1609054454853364001,-1.8948824916229157,0.9538567128998352,3.2514390467950145,0.0,0.0,0.0,1.0
1609054454903703157,1271,1609054454903296004,-1.8891781342005416,0.9777107555654965,3.2520303429162465,0.0,0.0,0.0,1.0
1609054454951859599,1272,1609054454951633940,-1.885175979099646,1.0006133942544153,3.2498013329533615,0.0,0.0,0.0,1.0
1609054455002593316,1273,1609054455002211104,-1.882131439730589,1.0231700602023608,3.2494198074944083,0.0,0.0,0.0,1.0
1609054455053195467,1274,1609054455052879105,-1.8786424194415332,1.0464237417108535,3.2472509680626174,0.0,0.0,0.0,1.0
1609054455106304903,1275,1609054455105892907,-1.8743371944424432,1.0907079376901834,3.2446233099100295,0.0,0.0,0.0,1.0
1609054455150924673,1276,1609054455150602112,-1.871611645152857,1.1138590054418671,3.2436468357660115,0.0,0.0,0.0,1.0
1609054455202503258,1277,1609054455202243100,-1.8714897622338782,1.1363676426272917,3.2415851491363594,0.0,0.0,0.0,1.0
1609054455250960337,1278,1609054455250623951,-1.8695867410950662,1.158777500989089,3.2420987278278575,0.0,0.0,0.0,1.0
1609054455305333811,1279,1609054455305018912,-1.869250613695833,1.1828219513226088,3.2396469857683705,0.0,0.0,0.0,1.0
1609054455355123536,1280,1609054455354352007,-1.870678020441094,1.2325917296762299,3.2363043947760115,0.0,0.0,0.0,1.0
1609054455404357211,1281,1609054455404004107,-1.871262898127167,1.2571088458648916,3.2348802827213783,0.0,0.0,0.0,1.0
1609054455451492929,1282,1609054455451194058,-1.8731761427294806,1.2805141328230292,3.2331537489107682,0.0,0.0,0.0,1.0
1609054455504108924,1283,1609054455503787051,-1.8758638473040463,1.3062826461556654,3.2310990057521534,0.0,0.0,0.0,1.0
1609054455565219321,1284,1609054455564934025,-1.8815244937633864,1.356882750140926,3.2272002583358033,0.0,0.0,0.0,1.0
1609054455608452332,1285,1609054455607944022,-1.8854217428715927,1.382768615529045,3.2252902875262275,0.0,0.0,0.0,1.0
1609054455656231120,1286,1609054455655638943,-1.891050822276597,1.4100009300104404,3.2241330548969556,0.0,0.0,0.0,1.0
1609054455704064440,1287,1609054455703227053,-1.894626642845882,1.4355945047656462,3.2226303795726237,0.0,0.0,0.0,1.0
1609054455749949201,1288,1609054455749602089,-1.9009421293397928,1.4621084932070687,3.2203660402766197,0.0,0.0,0.0,1.0
1609054455802676761,1289,1609054455802293072,-1.9080764213510513,1.489883161872939,3.2192827145247205,0.0,0.0,0.0,1.0
1609054455851350365,1290,1609054455850727091,-1.9148606659315597,1.5176392376201875,3.2175473350986903,0.0,0.0,0.0,1.0
1609054455900877309,1291,1609054455900039921,-1.9213602819672246,1.5454890375750523,3.2136656621300563,0.0,0.0,0.0,1.0
1609054455947490781,1292,1609054455946904908,-1.9363505645437442,1.603767509798402,3.2138141757857466,0.0,0.0,0.0,1.0
1609054455999058686,1293,1609054455998558054,-1.9452012110317938,1.6327635425598714,3.2130013093126504,0.0,0.0,0.0,1.0
1609054456053119143,1294,1609054456052550087,-1.9546637760071945,1.6622830613323742,3.2161838200455035,0.0,0.0,0.0,1.0
1609054456103879948,1295,1609054456103350888,-1.9650209211204483,1.6916266804302893,3.2157718802999407,0.0,0.0,0.0,1.0
1609054456152602535,1296,1609054456151856909,-1.9735079269035793,1.721761409499365,3.2181925091119616,0.0,0.0,0.0,1.0
1609054456203402211,1297,1609054456202996979,-1.9830028026360367,1.7509980047473164,3.2181506220363945,0.0,0.0,0.0,1.0
1609054456252846811,1298,1609054456252471934,-2.002180837622337,1.808367668202905,3.2205428568473042,0.0,0.0,0.0,1.0
1609054456303270329,1299,1609054456302912961,-2.0124679127654623,1.8396212567443655,3.2217996737705517,0.0,0.0,0.0,1.0
1609054456346922931,1300,1609054456346425066,-2.0235624300873347,1.867863122893624,3.2193247868609967,0.0,0.0,0.0,1.0
1609054456396546079,1301,1609054456396291981,-2.033227394291302,1.8976825690018018,3.2214784210401466,0.0,0.0,0.0,1.0
1609054456447033146,1302,1609054456446616898,-2.045911077092658,1.926274575860944,3.2220875299421903,0.0,0.0,0.0,1.0
1609054456499100687,1303,1609054456498555909,-2.0571320474956174,1.9555132432704596,3.2233964039217726,0.0,0.0,0.0,1.0
1609054456547008981,1304,1609054456546420107,-2.0795947651864743,2.01080173756462,3.2259435546291346,0.0,0.0,0.0,1.0
1609054456599873584,1305,1609054456599205981,-2.0909820562988912,2.0367931883090336,3.2249425345872815,0.0,0.0,0.0,1.0
1609054456646397431,1306,1609054456646152030,-2.1029117735986134,2.063988659591473,3.2263074366543014,0.0,0.0,0.0,1.0
1609054456699499341,1307,1609054456699018965,-2.115097754953819,2.089577549641504,3.2269865885867994,0.0,0.0,0.0,1.0
1609054456746808194,1308,1609054456746439944,-2.1264524851232522,2.1136018301957336,3.2266639768328846,0.0,0.0,0.0,1.0
1609054456798872374,1309,1609054456798238049,-2.1534301398955407,2.165607397699304,3.2287056513419725,0.0,0.0,0.0,1.0
1609054456854316992,1310,1609054456854048977,-2.1690320076251552,2.190834765850937,3.2330342816837163,0.0,0.0,0.0,1.0
1609054456903784002,1311,1609054456903402100,-2.182793335860598,2.2159277537764694,3.2347089150903576,0.0,0.0,0.0,1.0
1609054456951617303,1312,1609054456950958977,-2.1984780343158974,2.2396045137566887,3.2341191471082475,0.0,0.0,0.0,1.0
1609054457004591685,1313,1609054457004339943,-2.2127637793872523,2.2623328169341335,3.2345426968257214,0.0,0.0,0.0,1.0
1609054457054027561,1314,1609054457053693066,-2.2462384714491996,2.307115770473601,3.2368300259790383,0.0,0.0,0.0,1.0
1609054457106610059,1315,1609054457106146107,-2.262406175892089,2.3279400328239035,3.2355875603399142,0.0,0.0,0.0,1.0
1609054457155130580,1316,1609054457154722939,-2.2815231358734707,2.3472376379296804,3.2369702537995764,0.0,0.0,0.0,1.0
1609054457204653444,1317,1609054457204221974,-2.2964646580848367,2.36717025131351,3.2369786251969375,0.0,0.0,0.0,1.0
1609054457252220488,1318,1609054457251827965,-2.3142296976463754,2.385652582190815,3.2381784636052333,0.0,0.0,0.0,1.0
1609054457305873876,1319,1609054457304743062,-2.3325677486108773,2.4031317218413903,3.2381761918156973,0.0,0.0,0.0,1.0
1609054457354386782,1320,1609054457354091893,-2.3718996579876936,2.4363200424715785,3.2362104353983923,0.0,0.0,0.0,1.0
1609054457406125736,1321,1609054457405776034,-2.390687019726254,2.450663391147714,3.2361075750808106,0.0,0.0,0.0,1.0
1609054457454407831,1322,1609054457454020033,-2.411147683349629,2.4636910274946047,3.2362266914588362,0.0,0.0,0.0,1.0
1609054457504706852,1323,1609054457503983031,-2.4305113151776254,2.477603189645535,3.2379686332881703,0.0,0.0,0.0,1.0
1609054457551577095,1324,1609054457551091919,-2.451017524540511,2.4896608624803633,3.2361142946986194,0.0,0.0,0.0,1.0
1609054457604890591,1325,1609054457604027043,-2.470631075683688,2.501542068536253,3.2372741651564945,0.0,0.0,0.0,1.0
1609054457653752462,1326,1609054457653215895,-2.512976797581839,2.5237272536999598,3.2364092359549854,0.0,0.0,0.0,1.0
1609054457704566230,1327,1609054457703679095,-2.5335231407108196,2.53354779139255,3.2370227597629215,0.0,0.0,0.0,1.0
1609054457753491614,1328,1609054457753196011,-2.5545035294196445,2.543191375550421,3.2372143127064192,0.0,0.0,0.0,1.0
1609054457804375841,1329,1609054457803808938,-2.5722484921541415,2.552858313862245,3.2365279328739005,0.0,0.0,0.0,1.0
1609054457851603833,1330,1609054457851281891,-2.5931678334968495,2.561777602247517,3.2368051773295115,0.0,0.0,0.0,1.0
1609054457905433147,1331,1609054457905211936,-2.612771008186108,2.5697671503186967,3.2348221284233505,0.0,0.0,0.0,1.0
1609054457953129021,1332,1609054457952739964,-2.651199997936235,2.5843367968447097,3.2355959590683026,0.0,0.0,0.0,1.0
1609054458001516249,1333,1609054458001143942,-2.671533731636103,2.590989297493138,3.2355562292292386,0.0,0.0,0.0,1.0
1609054458051088786,1334,1609054458050708066,-2.6888226698363553,2.598173936219112,3.2333459969194043,0.0,0.0,0.0,1.0
1609054458104865827,1335,1609054458104496966,-2.7081257084080335,2.604178373898179,3.2323599558942493,0.0,0.0,0.0,1.0
1609054458152824423,1336,1609054458152424107,-2.7268646301528143,2.609328346817094,3.2295109868419574,0.0,0.0,0.0,1.0
1609054458203818471,1337,1609054458203432093,-2.7428177403985003,2.6156234025791463,3.2278843515455904,0.0,0.0,0.0,1.0
1609054458254263997,1338,1609054458253824006,-2.7779303368243653,2.6248853104387564,3.2191027929004576,0.0,0.0,0.0,1.0
1609054458305630380,1339,1609054458304745923,-2.793720813881304,2.6288443402451946,3.2144023072474064,0.0,0.0,0.0,1.0
1609054458352079870,1340,1609054458351552020,-2.8086884559645924,2.632793434467473,3.2101175062921783,0.0,0.0,0.0,1.0
1609054458403901875,1341,1609054458403353940,-2.8245006723296378,2.635594990279671,3.2037982827761446,0.0,0.0,0.0,1.0
1609054458467153837,1342,1609054458466763030,-2.8544435925428644,2.6410940955746014,3.1922363457378125,0.0,0.0,0.0,1.0
1609054458509728845,1343,1609054458508977900,-2.87039335939955,2.643454121033244,3.1846553359289285,0.0,0.0,0.0,1.0
1609054458558567635,1344,1609054458557974110,-2.884148362665627,2.646885700909621,3.1829057495103763,0.0,0.0,0.0,1.0
1609054458695005189,1345,1609054458694653998,-2.9265942867972825,2.650704998142757,3.1654344876832035,0.0,0.0,0.0,1.0
1609054458766245747,1346,1609054458765898953,-2.9534182890741754,2.6526318911294737,3.1566434187204195,0.0,0.0,0.0,1.0
1609054458806327072,1347,1609054458805989991,-2.966104334045472,2.6535870793363046,3.1533410825939225,0.0,0.0,0.0,1.0
1609054458853326269,1348,1609054458852916012,-2.9795965338725523,2.654751689398765,3.1514566391670162,0.0,0.0,0.0,1.0
1609054458902986718,1349,1609054458902420054,-2.9918379812787315,2.655449327376502,3.1484202508232904,0.0,0.0,0.0,1.0
1609054458950862418,1350,1609054458950566063,-3.003678819604687,2.6557786210680945,3.1458189606682443,0.0,0.0,0.0,1.0
1609054459003539058,1351,1609054459002904902,-3.014726080622385,2.656619890279643,3.1435818891602234,0.0,0.0,0.0,1.0
1609054459053977883,1352,1609054459053602944,-3.025991108079733,2.6574266434347322,3.1422081139367326,0.0,0.0,0.0,1.0
1609054459114129391,1353,1609054459113754044,-3.047463878473966,2.659618110006278,3.1413870809195603,0.0,0.0,0.0,1.0
1609054459152627439,1354,1609054459152350913,-3.057428764365252,2.6612682331784754,3.1412793472863716,0.0,0.0,0.0,1.0
1609054459203444185,1355,1609054459203099976,-3.0666684343818,2.6634071504648915,3.1415325111060013,0.0,0.0,0.0,1.0
1609054459250818891,1356,1609054459250468979,-3.078921829354993,2.6653657593028584,3.1406127888619184,0.0,0.0,0.0,1.0
1609054459304263273,1357,1609054459303961049,-3.088215734984537,2.6684559252437907,3.1432341964767114,0.0,0.0,0.0,1.0
1609054459353206112,1358,1609054459352732907,-3.107109288348486,2.67521501231964,3.1453848559040463,0.0,0.0,0.0,1.0
1609054459403889817,1359,1609054459403471957,-3.117975352748015,2.6775236248628858,3.1458649506033436,0.0,0.0,0.0,1.0
1609054459452314631,1360,1609054459451667080,-3.125329636624741,2.681479904570736,3.1498515377118146,0.0,0.0,0.0,1.0
1609054459503648287,1361,1609054459502808104,-3.1355827761362214,2.6844971551146983,3.1516180951803845,0.0,0.0,0.0,1.0
1609054459550685401,1362,1609054459550277958,-3.142910340483329,2.6896683906113594,3.1563303347086435,0.0,0.0,0.0,1.0
1609054459603474654,1363,1609054459603152047,-3.1527911907611745,2.6937018680449967,3.1566962373632186,0.0,0.0,0.0,1.0
1609054459655618891,1364,1609054459654963980,-3.170400129619299,2.7026688770919236,3.1662124285758315,0.0,0.0,0.0,1.0
1609054459705070248,1365,1609054459704540978,-3.175807675491594,2.7078196913753203,3.1716988832457575,0.0,0.0,0.0,1.0
1609054459794351992,1366,1609054459793946991,-3.1902187622768636,2.716251164505721,3.1796439658439133,0.0,0.0,0.0,1.0
1609054459864309286,1367,1609054459864031086,-3.2041277033573046,2.725806326479841,3.1873793124781726,0.0,0.0,0.0,1.0
1609054459910592768,1368,1609054459910187016,-3.214406628074528,2.7286571800939328,3.1904103151133842,0.0,0.0,0.0,1.0
1609054459957973692,1369,1609054459957643996,-3.2189442999110653,2.733532173129049,3.1948716514568485,0.0,0.0,0.0,1.0
1609054460047059147,1370,1609054460046794901,-3.2339589537120297,2.7418625443738733,3.2031579006692636,0.0,0.0,0.0,1.0
1609054460095404038,1371,1609054460095088969,-3.2422218563520886,2.745424786202946,3.2039245011818216,0.0,0.0,0.0,1.0
1609054460167949133,1372,1609054460167511950,-3.2555905150043287,2.7524511997536365,3.2126866293219822,0.0,0.0,0.0,1.0
1609054460212211698,1373,1609054460211879025,-3.261389843727226,2.755349153891487,3.2165165990310336,0.0,0.0,0.0,1.0
1609054460260068863,1374,1609054460259269963,-3.2700829319745672,2.7577526582560097,3.2206169699113323,0.0,0.0,0.0,1.0
1609054460306608225,1375,1609054460305681000,-3.276390931600794,2.7598622293254778,3.2230095845286155,0.0,0.0,0.0,1.0
1609054460351707239,1376,1609054460351424943,-3.284374547885605,2.7617247571972996,3.2261274322160185,0.0,0.0,0.0,1.0
1609054460403408364,1377,1609054460403100977,-3.292248473025662,2.762821870013269,3.2301818240735463,0.0,0.0,0.0,1.0
1609054460452033536,1378,1609054460451817999,-3.3010998075830535,2.7631956693221866,3.2332086581827704,0.0,0.0,0.0,1.0
1609054460504884264,1379,1609054460504613886,-3.3074766543522216,2.7638873648354263,3.2375739718272585,0.0,0.0,0.0,1.0
1609054460553163684,1380,1609054460552916060,-3.328894075172972,2.761854078086955,3.2446549549150663,0.0,0.0,0.0,1.0
1609054460602598159,1381,1609054460602345000,-3.3384650971847236,2.760359480747823,3.2475200168370044,0.0,0.0,0.0,1.0
1609054460652164161,1382,1609054460651737938,-3.348780710653404,2.7589927079253442,3.2540830059419363,0.0,0.0,0.0,1.0
1609054460704127630,1383,1609054460703598986,-3.360480503902913,2.7564936519435292,3.2565290579004693,0.0,0.0,0.0,1.0
1609054460753984247,1384,1609054460753504048,-3.37257950174369,2.7541718801917057,3.2611936807923962,0.0,0.0,0.0,1.0
1609054460805174340,1385,1609054460804677973,-3.386515799009903,2.7509562690699028,3.2634145483882886,0.0,0.0,0.0,1.0
1609054460854133618,1386,1609054460853570948,-3.4149625607771377,2.7431735791374763,3.2728663522696255,0.0,0.0,0.0,1.0
1609054460902407045,1387,1609054460901742945,-3.4288429650685615,2.738918830489979,3.2775298977830913,0.0,0.0,0.0,1.0
1609054460952877773,1388,1609054460952308903,-3.4448804992633093,2.733809848505416,3.2786317930273294,0.0,0.0,0.0,1.0
1609054461004183131,1389,1609054461003927002,-3.4609731175975327,2.7286052703073977,3.2825885927108986,0.0,0.0,0.0,1.0
1609054461053192493,1390,1609054461052742014,-3.4790446973521867,2.7226339888491395,3.2834879071723866,0.0,0.0,0.0,1.0
1609054461107242174,1391,1609054461106276045,-3.498706039632772,2.7165071217101797,3.2865499436162833,0.0,0.0,0.0,1.0
1609054461153044454,1392,1609054461152689944,-3.5399335395489295,2.7047539778242964,3.2913378737701273,0.0,0.0,0.0,1.0
1609054461203437201,1393,1609054461203065882,-3.5611521962424817,2.69871056483359,3.2928615467025555,0.0,0.0,0.0,1.0
1609054461254303384,1394,1609054461254008065,-3.58214482490596,2.6931712435704895,3.2944421951082643,0.0,0.0,0.0,1.0
1609054461304278637,1395,1609054461303901921,-3.604481221044761,2.6878788094908117,3.2959787449574613,0.0,0.0,0.0,1.0
1609054461350615469,1396,1609054461350346098,-3.629807679214437,2.681628095118853,3.2982050119498556,0.0,0.0,0.0,1.0
1609054461404949015,1397,1609054461404556046,-3.6544470786351333,2.67614478663873,3.2981396847167903,0.0,0.0,0.0,1.0
1609054461454482051,1398,1609054461453782092,-3.7052166231122463,2.664890668533573,3.2994867710772344,0.0,0.0,0.0,1.0
1609054461504974879,1399,1609054461504395972,-3.730555037557018,2.6596457358930223,3.3013773835493194,0.0,0.0,0.0,1.0
1609054461551141513,1400,1609054461550894986,-3.756380689721798,2.65450751256418,3.3006060157895782,0.0,0.0,0.0,1.0
1609054461623520915,1401,1609054461623071919,-3.8109602574151573,2.6431206928416913,3.3033224037062876,0.0,0.0,0.0,1.0
1609054461710192374,1402,1609054461709820042,-3.8628127846094884,2.6329628875475493,3.3049978445822714,0.0,0.0,0.0,1.0
1609054461757438751,1403,1609054461756973992,-3.8932316706310033,2.6260125188620975,3.3050652937645175,0.0,0.0,0.0,1.0
1609054461802598885,1404,1609054461802300940,-3.914483570462721,2.6221400334283658,3.3056285688436766,0.0,0.0,0.0,1.0
1609054461852097626,1405,1609054461851242075,-3.9398748136914428,2.616777873304855,3.3071665308511746,0.0,0.0,0.0,1.0
1609054461905121721,1406,1609054461904557953,-3.965917618823376,2.611433904897467,3.3076695274754426,0.0,0.0,0.0,1.0
1609054461952064298,1407,1609054461951795111,-3.9885787730039475,2.6068087498351105,3.3083614286885603,0.0,0.0,0.0,1.0
1609054462002851433,1408,1609054462002415905,-4.012833895706574,2.6013554818218125,3.3087412898182773,0.0,0.0,0.0,1.0
1609054462054377485,1409,1609054462053945075,-4.059552917714399,2.590703221178572,3.3103635540582124,0.0,0.0,0.0,1.0
1609054462104963245,1410,1609054462104649077,-4.0801395784158245,2.585059181178991,3.3122169035548414,0.0,0.0,0.0,1.0
1609054462152232402,1411,1609054462151917944,-4.1008216769482,2.5788471611844415,3.3120711201089965,0.0,0.0,0.0,1.0
1609054462202746315,1412,1609054462202331076,-4.119895467095951,2.5728115180120454,3.3121490226468415,0.0,0.0,0.0,1.0
1609054462251030039,1413,1609054462250576983,-4.13754749420529,2.5664749856687337,3.3128231376199353,0.0,0.0,0.0,1.0
1609054462306047778,1414,1609054462305351029,-4.156287787619728,2.559462486183506,3.3124680244972113,0.0,0.0,0.0,1.0
1609054462353715715,1415,1609054462353192101,-4.1892314809658515,2.545461977958425,3.3107150635622156,0.0,0.0,0.0,1.0
1609054462403617819,1416,1609054462403050910,-4.203727980363578,2.539192561931003,3.3108967113559014,0.0,0.0,0.0,1.0
1609054462452427621,1417,1609054462451934109,-4.21871376332216,2.53262171313726,3.3109238553557763,0.0,0.0,0.0,1.0
1609054462504844498,1418,1609054462504554043,-4.231648407180007,2.525839454436209,3.3106682242583783,0.0,0.0,0.0,1.0
1609054462551519865,1419,1609054462551003943,-4.245644491621164,2.5180313615619525,3.3107528803741326,0.0,0.0,0.0,1.0
1609054462603442250,1420,1609054462603164921,-4.258007076696458,2.5098080164119807,3.3095771549787165,0.0,0.0,0.0,1.0
1609054462654108034,1421,1609054462653791914,-4.28056997697788,2.4921339805511167,3.3072586162932134,0.0,0.0,0.0,1.0
1609054462704732334,1422,1609054462704354058,-4.280569958718065,2.4921339209368085,3.3072572693985323,0.0,0.0,0.0,1.0
1609054462752060116,1423,1609054462751565943,-4.300072364709649,2.474558660245634,3.3076840870096533,0.0,0.0,0.0,1.0
1609054462803310438,1424,1609054462802571068,-4.309194535680323,2.4648872293035993,3.3069345435183806,0.0,0.0,0.0,1.0
1609054462851674439,1425,1609054462851253043,-4.318022379270484,2.454488527612483,3.3065858475027703,0.0,0.0,0.0,1.0
1609054462904378051,1426,1609054462904077063,-4.32606723677295,2.4437453194290555,3.3041652398786496,0.0,0.0,0.0,1.0
1609054462953966094,1427,1609054462953547965,-4.34212073477315,2.420039238048389,3.3018772704030592,0.0,0.0,0.0,1.0
1609054463003515739,1428,1609054463003099928,-4.347507950445724,2.4095236000058264,3.3012204090486983,0.0,0.0,0.0,1.0
1609054463052851282,1429,1609054463052538882,-4.35494645826935,2.3965247704479395,3.3006393713242406,0.0,0.0,0.0,1.0
1609054463106099590,1430,1609054463105612050,-4.360367155925296,2.3839337199308233,3.2994361467651663,0.0,0.0,0.0,1.0
1609054463155471777,1431,1609054463154227028,-4.366278912073589,2.3700989442420877,3.2984983289790635,0.0,0.0,0.0,1.0
1609054463203147758,1432,1609054463202734957,-4.371439853042823,2.3560874313202476,3.2991003261224465,0.0,0.0,0.0,1.0
1609054463252859381,1433,1609054463252432118,-4.379361317796466,2.326667616198705,3.3014045651245545,0.0,0.0,0.0,1.0
1609054463304244879,1434,1609054463303997050,-4.383451738625023,2.3112114438756635,3.3014819005024636,0.0,0.0,0.0,1.0
1609054463351861722,1435,1609054463351564894,-4.386089688935289,2.2949514529105812,3.3023541834124344,0.0,0.0,0.0,1.0
1609054463403915326,1436,1609054463403523932,-4.389518248914449,2.2779208982428685,3.3045347707736794,0.0,0.0,0.0,1.0
1609054463451840266,1437,1609054463451581011,-4.3923372977875275,2.260274394119648,3.3069362203635664,0.0,0.0,0.0,1.0
1609054463506027594,1438,1609054463505526076,-4.394750172406496,2.242483486679916,3.3076630761069543,0.0,0.0,0.0,1.0
1609054463554669554,1439,1609054463554171095,-4.397804684596952,2.2051573379144997,3.3122881266336575,0.0,0.0,0.0,1.0
1609054463603836664,1440,1609054463603499899,-4.398355203021698,2.187999936541928,3.3137761620322674,0.0,0.0,0.0,1.0
1609054463651200759,1441,1609054463650873909,-4.399918675654696,2.1693927613653017,3.3175435470612955,0.0,0.0,0.0,1.0
1609054463704856902,1442,1609054463703698884,-4.399818908494666,2.1511962971914755,3.3190431900109094,0.0,0.0,0.0,1.0
1609054463750634030,1443,1609054463750394116,-4.402171678451918,2.1317700876904695,3.3210022155234356,0.0,0.0,0.0,1.0
1609054463803450707,1444,1609054463803096066,-4.402052273759939,2.113588628466573,3.3226847969832543,0.0,0.0,0.0,1.0
1609054463852972265,1445,1609054463852523098,-4.4010378439162245,2.0770532756722417,3.3296435359205825,0.0,0.0,0.0,1.0
1609054463903129096,1446,1609054463902827034,-4.399904789094208,2.0585724653638096,3.3348589382896714,0.0,0.0,0.0,1.0
1609054463954172014,1447,1609054463953401099,-4.399742536397145,2.038989684419505,3.3360740072618076,0.0,0.0,0.0,1.0
1609054464002022537,1448,1609054464001800070,-4.396928099344169,2.0206930573948796,3.3386030839421617,0.0,0.0,0.0,1.0
1609054464051501568,1449,1609054464051260005,-4.39627414188292,2.0018056444317978,3.3414674180608817,0.0,0.0,0.0,1.0
1609054464105868429,1450,1609054464105400095,-4.3940005210250845,1.9834199001062558,3.3463797840125373,0.0,0.0,0.0,1.0
1609054464154049134,1451,1609054464153644095,-4.389598492471521,1.944118101021914,3.3538148040706703,0.0,0.0,0.0,1.0
1609054464203759694,1452,1609054464203212986,-4.387734770207935,1.9267821238525187,3.3571351641916642,0.0,0.0,0.0,1.0
1609054464254636720,1453,1609054464254055987,-4.383449258522575,1.9089558425461348,3.3622556202734795,0.0,0.0,0.0,1.0
1609054464303329884,1454,1609054464302728901,-4.382442399653559,1.8900317666239062,3.3638775253320112,0.0,0.0,0.0,1.0
1609054464351564221,1455,1609054464351110945,-4.378864995930819,1.871863854762907,3.3675353582326664,0.0,0.0,0.0,1.0
1609054464410504485,1456,1609054464409678946,-4.370876241505783,1.8348079097372505,3.3755543625546434,0.0,0.0,0.0,1.0
1609054464458367412,1457,1609054464457736979,-4.366668777362765,1.8170481097444195,3.3782854456097424,0.0,0.0,0.0,1.0
1609054464504724691,1458,1609054464504398118,-4.36257033583048,1.7995128281182247,3.3798850580037674,0.0,0.0,0.0,1.0
1609054464548012405,1459,1609054464547563086,-4.357614299275102,1.780976937213282,3.3784350009108732,0.0,0.0,0.0,1.0
1609054464597523888,1460,1609054464597230921,-4.351111681789892,1.7628682009451495,3.3824514743426075,0.0,0.0,0.0,1.0
1609054464651218349,1461,1609054464650621901,-4.344947718692147,1.74450405832782,3.3882736273882896,0.0,0.0,0.0,1.0
1609054464704831914,1462,1609054464704104910,-4.3381122195344375,1.7266129284204652,3.3897622497469455,0.0,0.0,0.0,1.0
1609054464753791228,1463,1609054464753273020,-4.323208522841547,1.6896114695579598,3.3932589527930332,0.0,0.0,0.0,1.0
1609054464804712898,1464,1609054464804099093,-4.31455556255327,1.6707949353480842,3.3945275150927645,0.0,0.0,0.0,1.0
1609054464851557091,1465,1609054464850785027,-4.3055527810786565,1.6526332639987942,3.3955107059426095,0.0,0.0,0.0,1.0
1609054464904520354,1466,1609054464903882990,-4.294388428052091,1.6339368960630054,3.3994147668740506,0.0,0.0,0.0,1.0
1609054464948190745,1467,1609054464947485934,-4.282740397301637,1.6150862768668048,3.3963655929232166,0.0,0.0,0.0,1.0
1609054464999749169,1468,1609054464999255906,-4.271490857034145,1.5954292454850645,3.3974775964289736,0.0,0.0,0.0,1.0
1609054465048044186,1469,1609054465047106038,-4.258700319586605,1.57724054705605,3.3969093005586655,0.0,0.0,0.0,1.0
1609054465111030093,1470,1609054465110362063,-4.231609067128407,1.5393823699364333,3.4019879194094123,0.0,0.0,0.0,1.0
1609054465151624392,1471,1609054465150917063,-4.217161147725285,1.5201341977865468,3.4019403515893005,0.0,0.0,0.0,1.0
1609054465203189890,1472,1609054465201927910,-4.2031642860546725,1.4992707411907844,3.4008457370159295,0.0,0.0,0.0,1.0
1609054465252545062,1473,1609054465252311001,-4.185730389234958,1.4800422682268959,3.3999217931925076,0.0,0.0,0.0,1.0
1609054465305233849,1474,1609054465304934035,-4.170470863621226,1.4591183636841691,3.3987614933467016,0.0,0.0,0.0,1.0
1609054465352353781,1475,1609054465352088938,-4.135836134818977,1.4168827975306044,3.3960254898533146,0.0,0.0,0.0,1.0
1609054465404218692,1476,1609054465403968106,-4.1184691150603,1.3951060955805872,3.3939720544432372,0.0,0.0,0.0,1.0
1609054465451556886,1477,1609054465451155911,-4.1018235172283255,1.371711299625531,3.3907239554533946,0.0,0.0,0.0,1.0
1609054465503542527,1478,1609054465503098975,-4.082493142451263,1.3476594891873788,3.3882741845391515,0.0,0.0,0.0,1.0
1609054465552069104,1479,1609054465551418076,-4.064129965178552,1.3232174805199861,3.3831928267952662,0.0,0.0,0.0,1.0
1609054465605124640,1480,1609054465604239951,-4.04518877563363,1.2983541517999697,3.3803648568699973,0.0,0.0,0.0,1.0
1609054465655274114,1481,1609054465654043923,-4.006575220271387,1.242787976649538,3.3744943965457814,0.0,0.0,0.0,1.0
1609054465705044613,1482,1609054465704319964,-3.986780305243311,1.2132983092383682,3.3712311351560906,0.0,0.0,0.0,1.0
1609054465752208148,1483,1609054465751614104,-3.966435470935185,1.1820935000325221,3.3658985540828623,0.0,0.0,0.0,1.0
1609054465804674635,1484,1609054465804313908,-3.946378751026657,1.1503262386460307,3.3622490084185475,0.0,0.0,0.0,1.0
1609054465852335532,1485,1609054465851964961,-3.925617054665288,1.1174836971114672,3.3596237573614123,0.0,0.0,0.0,1.0
1609054465905413557,1486,1609054465904968987,-3.905675543934233,1.0825148885538596,3.3570855197841123,0.0,0.0,0.0,1.0
1609054465952917083,1487,1609054465952604065,-3.8846667973175784,1.0455888422196722,3.3544423012090125,0.0,0.0,0.0,1.0
1609054466004477553,1488,1609054466004226933,-3.842631766981736,0.9696082624558358,3.3493177399068363,0.0,0.0,0.0,1.0
1609054466050899491,1489,1609054466050560961,-3.8240124643746256,0.93020489988848,3.3451909429741105,0.0,0.0,0.0,1.0
1609054466105147838,1490,1609054466104645024,-3.801564187711044,0.8913539606258354,3.3446175198345354,0.0,0.0,0.0,1.0
1609054466153545942,1491,1609054466152828942,-3.781093056260673,0.84896999052404,3.3418290280196805,0.0,0.0,0.0,1.0
1609054466205254830,1492,1609054466204413901,-3.75960783354731,0.8049905727514783,3.3401489825221105,0.0,0.0,0.0,1.0
1609054466254775166,1493,1609054466254230986,-3.7383276977450457,0.7624986972402752,3.3376814224790046,0.0,0.0,0.0,1.0
1609054466303751519,1494,1609054466302845011,-3.694043968765712,0.6712716454980665,3.3318827294175284,0.0,0.0,0.0,1.0
1609054466352537547,1495,1609054466352251063,-3.670959635563868,0.6296839534217185,3.3360282809999133,0.0,0.0,0.0,1.0
1609054466402039167,1496,1609054466401681910,-3.650177526017618,0.584361102467426,3.3342356185806703,0.0,0.0,0.0,1.0
1609054466451330194,1497,1609054466450985919,-3.627238919071363,0.5395619900955353,3.3352074685008053,0.0,0.0,0.0,1.0
1609054466506000956,1498,1609054466505230914,-3.6058054933564136,0.49410448221681236,3.3343799293228065,0.0,0.0,0.0,1.0
1609054466553030157,1499,1609054466552450905,-3.562804949012712,0.4053312905259219,3.3360316985000416,0.0,0.0,0.0,1.0
1609054466603372587,1500,1609054466603152047,-3.5420540560484,0.36573831501378606,3.3356988231634412,0.0,0.0,0.0,1.0
1609054466651812131,1501,1609054466651506911,-3.5219210071262523,0.32402991700416806,3.3362215328715785,0.0,0.0,0.0,1.0
1609054466704038256,1502,1609054466703780900,-3.5013043098067236,0.28082161862170096,3.3373353401289445,0.0,0.0,0.0,1.0
1609054466751753526,1503,1609054466751344929,-3.4815639989691824,0.23984204419311084,3.3361685389375424,0.0,0.0,0.0,1.0
1609054466803507321,1504,1609054466803095112,-3.4607082497067907,0.20052525418827827,3.3363214584595347,0.0,0.0,0.0,1.0
1609054466854196832,1505,1609054466853938113,-3.418069945148723,0.12389281702958499,3.3376110024606542,0.0,0.0,0.0,1.0
1609054466904749586,1506,1609054466904437075,-3.400240684505963,0.08918296632067779,3.3393004496901835,0.0,0.0,0.0,1.0
1609054466952325660,1507,1609054466952064047,-3.3806162641038604,0.055547080219398026,3.3404311532307553,0.0,0.0,0.0,1.0
1609054467004320923,1508,1609054467003964911,-3.362280869638589,0.020950084804525204,3.3406102254350305,0.0,0.0,0.0,1.0
1609054467052310461,1509,1609054467052017937,-3.3431502927876053,-0.01150480975111634,3.3412955523828165,0.0,0.0,0.0,1.0
1609054467110166944,1510,1609054467109786044,-3.323507787065296,-0.042490925443729566,3.3397536020238165,0.0,0.0,0.0,1.0
1609054467154223783,1511,1609054467153933058,-3.2864350854918385,-0.10115784309050468,3.3402522455608423,0.0,0.0,0.0,1.0
1609054467203006675,1512,1609054467202565918,-3.267438586503115,-0.13000076119422488,3.3415197859998274,0.0,0.0,0.0,1.0
1609054467326473880,1513,1609054467325687895,-3.2148112223514644,-0.20995971833218618,3.3364818167813914,0.0,0.0,0.0,1.0
1609054467365265039,1514,1609054467364631901,-3.1959787632632874,-0.2345073950244938,3.3351959174939765,0.0,0.0,0.0,1.0
1609054467411508278,1515,1609054467411103020,-3.178396860073317,-0.25809948321962395,3.3346068171027565,0.0,0.0,0.0,1.0
1609054467461126622,1516,1609054467460609923,-3.1572789368226104,-0.28168371214255217,3.3333888004000634,0.0,0.0,0.0,1.0
1609054467505033652,1517,1609054467504728089,-3.1393708096043973,-0.3053639817603653,3.3308287933437635,0.0,0.0,0.0,1.0
1609054467551161896,1518,1609054467550940047,-3.1196934364324704,-0.32681054458828385,3.3297682705113414,0.0,0.0,0.0,1.0
1609054467602222966,1519,1609054467601888905,-3.0999913111911503,-0.34848890431872803,3.3282126213605996,0.0,0.0,0.0,1.0
1609054467651149282,1520,1609054467650775919,-3.080664064994746,-0.3700833662693128,3.3268948121584394,0.0,0.0,0.0,1.0
1609054467702914363,1521,1609054467702419053,-3.0618068786037966,-0.3906120748003872,3.3248103391533412,0.0,0.0,0.0,1.0
1609054467753319105,1522,1609054467752959977,-3.02084888191715,-0.43278514621344755,3.3212353722895855,0.0,0.0,0.0,1.0
1609054467803908019,1523,1609054467803428898,-3.0208489032472094,-0.4327850765968293,3.3212368822278564,0.0,0.0,0.0,1.0
1609054467851502737,1524,1609054467851001034,-2.9822743638134135,-0.46988354765096574,3.3174453428449127,0.0,0.0,0.0,1.0
1609054467904974235,1525,1609054467904416094,-2.9620268577681124,-0.48937465509699507,3.3194248106260895,0.0,0.0,0.0,1.0
1609054467952186773,1526,1609054467951854001,-2.940395569636106,-0.5081749786991594,3.3144841277813546,0.0,0.0,0.0,1.0
1609054468004165714,1527,1609054468003885994,-2.9187612740613,-0.5269745734283049,3.3137442899697676,0.0,0.0,0.0,1.0
1609054468054837021,1528,1609054468054331074,-2.8754807636785884,-0.5667133273841642,3.3102184966622104,0.0,0.0,0.0,1.0
1609054468105218886,1529,1609054468104750882,-2.8567261065702034,-0.5850163611788162,3.3089568032609105,0.0,0.0,0.0,1.0
1609054468153194591,1530,1609054468152646075,-2.836152420743865,-0.6046470061347264,3.3082406473675694,0.0,0.0,0.0,1.0
1609054468204299157,1531,1609054468203968058,-2.8142332800378007,-0.6230867992902915,3.3085561154816094,0.0,0.0,0.0,1.0
1609054468251781866,1532,1609054468251420031,-2.794111826485029,-0.6424019059906954,3.3090256509241534,0.0,0.0,0.0,1.0
1609054468312643001,1533,1609054468312054883,-2.7514431547080918,-0.6823428098018667,3.3107341521858427,0.0,0.0,0.0,1.0
1609054468359249209,1534,1609054468358798991,-2.730345712167459,-0.7043700881099824,3.3117798147173345,0.0,0.0,0.0,1.0
1609054468566850667,1536,1609054468566535006,-2.6301995351180842,-0.8065707672266171,3.3193943834875883,0.0,0.0,0.0,1.0
1609054468609583155,1537,1609054468609270106,-2.611438031002187,-0.8286932931006135,3.3210810124420815,0.0,0.0,0.0,1.0
1609054468658709287,1538,1609054468658425103,-2.5901057994227585,-0.8519517873670139,3.3237656340554795,0.0,0.0,0.0,1.0
1609054468703429093,1539,1609054468702965031,-2.5709266583620156,-0.8731469439489814,3.3260302249506366,0.0,0.0,0.0,1.0
1609054468751661923,1540,1609054468750931035,-2.552261603899968,-0.8964484265186172,3.3284017564501425,0.0,0.0,0.0,1.0
1609054468803025439,1541,1609054468802773963,-2.5321574387853367,-0.9189464070989644,3.3319636161164565,0.0,0.0,0.0,1.0
1609054468867719608,1542,1609054468867470036,-2.494743509866016,-0.9665389690368471,3.3356847657085935,0.0,0.0,0.0,1.0
1609054468909715456,1543,1609054468909251938,-2.475481070435979,-0.9897824512997104,3.3371020541052436,0.0,0.0,0.0,1.0
1609054468959698285,1544,1609054468959145079,-2.456502532391088,-1.014231931110814,3.3378736323017524,0.0,0.0,0.0,1.0
1609054469002004544,1545,1609054469001622925,-2.438316480971139,-1.0384978998615537,3.3396048498786794,0.0,0.0,0.0,1.0
1609054469051844001,1546,1609054469051366101,-2.4177334932426504,-1.0629076028238202,3.3401106930991333,0.0,0.0,0.0,1.0
1609054469107739599,1547,1609054469107438098,-2.3995829437754814,-1.088230138087951,3.3402728450989105,0.0,0.0,0.0,1.0
1609054469150687156,1548,1609054469150444041,-2.3810842540483,-1.113319276009591,3.3404360581478376,0.0,0.0,0.0,1.0
1609054469204517212,1549,1609054469204180012,-2.3618735303793663,-1.1380823854096676,3.3418770962676003,0.0,0.0,0.0,1.0
1609054469254179547,1550,1609054469253916035,-2.3256465448518995,-1.1900418696285655,3.3422117993941445,0.0,0.0,0.0,1.0
1609054469304823612,1551,1609054469304346095,-2.30764570253017,-1.2161491060545089,3.3428048752214146,0.0,0.0,0.0,1.0
1609054469351098612,1552,1609054469350836049,-2.289408683416937,-1.2421270777259181,3.3421811306640965,0.0,0.0,0.0,1.0
1609054469404714739,1553,1609054469404366980,-2.270888391047876,-1.2685476254980657,3.3413237768668766,0.0,0.0,0.0,1.0
1609054469453979860,1554,1609054469453622113,-2.2531966498121463,-1.2958869998517812,3.3409572731739745,0.0,0.0,0.0,1.0
1609054469506067519,1555,1609054469505599032,-2.2355003334109504,-1.3222187095098263,3.3415047337419406,0.0,0.0,0.0,1.0
1609054469556988302,1556,1609054469556339036,-2.2173092361081252,-1.3486670108991774,3.3404406500744224,0.0,0.0,0.0,1.0
1609054469604334098,1557,1609054469603723059,-2.1822675660505233,-1.4025137573118585,3.3397834761031384,0.0,0.0,0.0,1.0
1609054469697569568,1558,1609054469695729981,-2.147387644636023,-1.457816823986711,3.3369202104963365,0.0,0.0,0.0,1.0
1609054469767085080,1559,1609054469766092072,-2.1136739311553576,-1.5130890387882445,3.3326612694160573,0.0,0.0,0.0,1.0
1609054469808691255,1560,1609054469808110009,-2.096904582200686,-1.5405936618006564,3.3316469535206266,0.0,0.0,0.0,1.0
1609054469859374783,1561,1609054469859049092,-2.07975041840972,-1.5678162659131374,3.3292742396741515,0.0,0.0,0.0,1.0
1609054469904502724,1562,1609054469904148112,-2.0621739725962023,-1.595860906139798,3.3286373089339913,0.0,0.0,0.0,1.0
1609054469952279158,1563,1609054469951941977,-2.0454952533212705,-1.6246057652838388,3.3270006889478516,0.0,0.0,0.0,1.0
1609054470002589007,1564,1609054470002232085,-2.0286949272913617,-1.6530831187440853,3.3255690451542246,0.0,0.0,0.0,1.0
1609054470052079923,1565,1609054470051831017,-2.012240485330029,-1.6813807516313375,3.3238857744776564,0.0,0.0,0.0,1.0
1609054470106070328,1566,1609054470105645905,-1.9948554191017536,-1.7088700127954937,3.3230355816344215,0.0,0.0,0.0,1.0
1609054470154363347,1567,1609054470153985034,-1.9617559964934976,-1.7643111700038006,3.3221332291239904,0.0,0.0,0.0,1.0
1609054470204512247,1568,1609054470204214106,-1.9449074027600801,-1.791296209444269,3.3204451042170504,0.0,0.0,0.0,1.0
1609054470251760008,1569,1609054470251437912,-1.9282129356531215,-1.8184314618974682,3.3190100190706344,0.0,0.0,0.0,1.0
1609054470304869397,1570,1609054470304377089,-1.911074683100992,-1.8456284711225734,3.3173968472945683,0.0,0.0,0.0,1.0
1609054470352940557,1571,1609054470352343092,-1.8951861650765949,-1.8731635996913596,3.3159902562302697,0.0,0.0,0.0,1.0
1609054470406349554,1572,1609054470405801068,-1.8785240708677158,-1.8996963556003195,3.314125450995973,0.0,0.0,0.0,1.0
1609054470453855154,1573,1609054470453435908,-1.8448095202768258,-1.9527596825441478,3.3118354510249195,0.0,0.0,0.0,1.0
1609054470504620104,1574,1609054470504277001,-1.8293245753330858,-1.9793593251401802,3.3108005732458614,0.0,0.0,0.0,1.0
1609054470554028553,1575,1609054470553294907,-1.8126203676616015,-2.0048441901653433,3.3103955552473603,0.0,0.0,0.0,1.0
1609054470604486260,1576,1609054470603966008,-1.7963963057574723,-2.030341120568373,3.3090463964829824,0.0,0.0,0.0,1.0
1609054470655022959,1577,1609054470654726992,-1.7790342307382474,-2.055033989561366,3.3090617383511143,0.0,0.0,0.0,1.0
1609054470704398523,1578,1609054470703955899,-1.7449619174118745,-2.104284603115211,3.3061111095835094,0.0,0.0,0.0,1.0
1609054470751618223,1579,1609054470751302968,-1.7273331612224183,-2.1279629797954698,3.3034073822728454,0.0,0.0,0.0,1.0
1609054470804330351,1580,1609054470804013978,-1.7108772840096655,-2.1494238048763847,3.3023625778313974,0.0,0.0,0.0,1.0
1609054470851755776,1581,1609054470851499091,-1.693733887199464,-2.172697122261397,3.300620783064806,0.0,0.0,0.0,1.0
1609054470906456541,1582,1609054470905996094,-1.676175578179219,-2.195332701614582,3.2960546125224957,0.0,0.0,0.0,1.0
1609054470954192152,1583,1609054470953829060,-1.6400430349350934,-2.240312859274127,3.2955682185746142,0.0,0.0,0.0,1.0
1609054471003829384,1584,1609054471003571997,-1.6223894380312522,-2.260935300388816,3.2942514139565966,0.0,0.0,0.0,1.0
1609054471051940930,1585,1609054471051626931,-1.6045596539248557,-2.2828724773575644,3.2930705956804824,0.0,0.0,0.0,1.0
1609054471111910053,1586,1609054471111330996,-1.5858822784231101,-2.3043815067841464,3.2922058112178676,0.0,0.0,0.0,1.0
1609054471152291644,1587,1609054471151957999,-1.5673888901262352,-2.324607832297332,3.2907223055003136,0.0,0.0,0.0,1.0
1609054471205284552,1588,1609054471204899083,-1.5491678140235727,-2.3444173381762283,3.2909453194935274,0.0,0.0,0.0,1.0
1609054471253937376,1589,1609054471253428946,-1.509591029460065,-2.385788157032536,3.2893424265029703,0.0,0.0,0.0,1.0
1609054471304075740,1590,1609054471303709994,-1.4917301903041,-2.404452580272533,3.2876404183533325,0.0,0.0,0.0,1.0
1609054471352416187,1591,1609054471351878891,-1.47235188067625,-2.423330740259736,3.2876728623281952,0.0,0.0,0.0,1.0
1609054471404897936,1592,1609054471404372941,-1.4515108143049886,-2.4429264687686043,3.2863743318271283,0.0,0.0,0.0,1.0
1609054471453462088,1593,1609054471451807986,-1.4315281811664917,-2.4629246635040403,3.2853669982345175,0.0,0.0,0.0,1.0
1609054471505600124,1594,1609054471504865895,-1.4110299996550992,-2.482329546532803,3.2840745067396595,0.0,0.0,0.0,1.0
1609054471552463835,1595,1609054471552196990,-1.3668998767278566,-2.522892097108681,3.2835148892999375,0.0,0.0,0.0,1.0
1609054471604273984,1596,1609054471603915940,-1.3463559046185871,-2.541549795920659,3.2821215143490483,0.0,0.0,0.0,1.0
