%time,field.header.seq,field.header.stamp,field.pose.position.x,field.pose.position.y,field.pose.position.z,field.pose.orientation.x,field.pose.orientation.y,field.pose.orientation.z,field.pose.orientation.w
1609056014487516453,1548,1609056014486882067,-0.00024757899428351493,0.00017389906611242623,0.0013411734659634078,0.0,0.0,0.0,1.0
1609056014537945474,1549,1609056014537453032,-0.000580042947003534,0.00026108191526930113,0.001200756261097169,0.0,0.0,0.0,1.0
1609056014586334150,1550,1609056014586028910,-0.00040380736681200347,0.0001780575478562696,0.0018385361316344273,0.0,0.0,0.0,1.0
1609056014637880892,1551,1609056014637585021,-0.00023885744068863346,9.19901144555979e-05,0.0015304579509232141,0.0,0.0,0.0,1.0
1609056014740427846,1552,1609056014740033961,-0.00019442682152970292,4.762921512480034e-05,4.9096859148889394e-05,0.0,0.0,0.0,1.0
1609056014786487171,1553,1609056014786198950,-0.0005326334414945677,-0.00019041414589082706,-0.00014454138802655336,0.0,0.0,0.0,1.0
1609056014838544688,1554,1609056014837397910,-0.00011751812844806864,-0.00014356849767693802,6.340801482096481e-06,0.0,0.0,0.0,1.0
1609056014885405919,1555,1609056014884882069,-0.00027724611746293704,-0.0001205473904164478,-0.0002679762792086038,0.0,0.0,0.0,1.0
1609056014939936429,1556,1609056014939689017,2.736460465158075e-05,-2.040170414829845e-07,-8.237858799287068e-05,0.0,0.0,0.0,1.0
1609056014986010981,1557,1609056014985713101,-0.00048157024455974806,4.004904212706606e-05,-0.00012536887944047947,0.0,0.0,0.0,1.0
1609056015040023301,1558,1609056015039748049,-0.00044668092732536024,-0.00017547297311892862,-0.0002631762397662385,0.0,0.0,0.0,1.0
1609056015086634382,1559,1609056015086336947,-0.0005520459118706356,-0.00017871049147544227,1.7842533003964434e-05,0.0,0.0,0.0,1.0
1609056015138794840,1560,1609056015138361073,-0.0004403053316259786,-0.000170157413947436,-0.00023414320888104356,0.0,0.0,0.0,1.0
1609056015191119508,1561,1609056015189272023,-0.00043402306279816116,-0.0001632002947218325,-0.0001900739918383465,0.0,0.0,0.0,1.0
1609056015240173795,1562,1609056015239884949,-0.00045190599945854615,-0.00011608329295142994,0.0002862686963140959,0.0,0.0,0.0,1.0
1609056015287230700,1563,1609056015286747075,-0.00032168857777747917,-0.00010814927744462466,-2.5677828153547466e-05,0.0,0.0,0.0,1.0
1609056015337023042,1564,1609056015336018897,-0.00048233982361267635,-3.784960628649969e-05,0.00012787706578265556,0.0,0.0,0.0,1.0
1609056015387867782,1565,1609056015386971093,-0.0002222384041132841,6.65308848581958e-05,0.0003009391928454619,0.0,0.0,0.0,1.0
1609056015440497055,1566,1609056015439808941,-0.00035627991334408193,-4.675807065979143e-05,0.0006282329481317461,0.0,0.0,0.0,1.0
1609056015486405264,1567,1609056015486121989,-0.0003329219951915263,-7.841379631656764e-05,0.00027479045368661303,0.0,0.0,0.0,1.0
1609056015539308742,1568,1609056015538884020,-0.00022490265348196203,7.851854967810823e-05,0.00041658744114325685,0.0,0.0,0.0,1.0
1609056015585933990,1569,1609056015585574008,-0.0004666440748444245,-7.724374237483289e-05,0.0006789447593078535,0.0,0.0,0.0,1.0
1609056015649299953,1570,1609056015648938036,-0.0004505418073819101,-0.00010089316020867045,0.00041885832798893574,0.0,0.0,0.0,1.0
1609056015692277317,1571,1609056015691803074,-0.00036285680846148693,-1.2184533424886013e-05,0.0009585358370536312,0.0,0.0,0.0,1.0
1609056015737878464,1572,1609056015737182951,-0.00032817916320126983,-6.635717745950842e-06,0.0009063551491106381,0.0,0.0,0.0,1.0
1609056015786956901,1573,1609056015786582089,-0.00020015592983213537,7.992386306909793e-05,0.0013079888815363816,0.0,0.0,0.0,1.0
1609056015837740132,1574,1609056015837288952,-0.00020319143435543197,7.518719453258882e-05,0.0012743222062239212,0.0,0.0,0.0,1.0
1609056015888251575,1575,1609056015887940980,-0.0002085881165463377,5.850649065308744e-05,0.00114017993462312,0.0,0.0,0.0,1.0
1609056015939640752,1576,1609056015939095116,-0.000136131635237291,0.00038111648701999457,0.0009735182449475133,0.0,0.0,0.0,1.0
1609056015987393607,1577,1609056015986292935,-0.00027456848491524966,0.0003215867066899136,0.000845649121909986,0.0,0.0,0.0,1.0
1609056016039621346,1578,1609056016039042092,-0.00012735562059518202,0.0003153728290854474,0.0013080278258259526,0.0,0.0,0.0,1.0
1609056016148450842,1579,1609056016147761918,7.466740520456483e-05,0.0002531399714698068,0.0011052124963617516,0.0,0.0,0.0,1.0
1609056016194955671,1580,1609056016194602109,-0.0001820497959492684,0.0004984217542229885,0.0012121041418255984,0.0,0.0,0.0,1.0
1609056016282496929,1581,1609056016282272912,-0.00020320783639959927,0.00018796855087543918,0.00038547778818642797,0.0,0.0,0.0,1.0
1609056016330732443,1582,1609056016330427981,-3.4882171206618295e-05,7.303637282518594e-05,-0.001143421969133307,0.0,0.0,0.0,1.0
1609056016394666707,1583,1609056016394249058,-1.2942225541934249e-05,0.00039849754562482076,0.0007671973909779695,0.0,0.0,0.0,1.0
1609056016481392475,1584,1609056016480572081,-3.569496220379165e-05,0.0010903297105357979,0.005154567232321661,0.0,0.0,0.0,1.0
1609056016580629678,1585,1609056016580355025,-9.318168736172083e-05,0.0012084507198011352,0.005434733335238917,0.0,0.0,0.0,1.0
1609056016643055597,1586,1609056016642782069,0.00045033586743414844,0.0016801539813542377,0.006174546049174445,0.0,0.0,0.0,1.0
1609056016687311334,1587,1609056016686981059,-1.41105739537295e-05,0.001315016392787527,0.006160951249166935,0.0,0.0,0.0,1.0
1609056016730826361,1588,1609056016730403996,-8.686137807245586e-05,0.0003923307867879089,-2.2221767511432233e-05,0.0,0.0,0.0,1.0
1609056016782467075,1589,1609056016782174922,-0.0010075932760109652,-0.00043039695714242043,-0.0009044867496825759,0.0,0.0,0.0,1.0
1609056016850532067,1590,1609056016849476910,-0.002815702722724467,-0.0022942434742674322,-0.0009246434244438717,0.0,0.0,0.0,1.0
1609056016893186811,1591,1609056016892772055,-0.0031982713082250314,-0.0029469003186619602,4.149778305873042e-05,0.0,0.0,0.0,1.0
1609056016938165420,1592,1609056016937801934,-0.003524622244515996,-0.003257128609305937,0.00011555442123700743,0.0,0.0,0.0,1.0
1609056017028589107,1593,1609056017028194047,-0.003871683160461714,-0.0037134798124824897,0.0008396217390327365,0.0,0.0,0.0,1.0
1609056017080385663,1594,1609056017079713917,-0.003938508006573471,-0.003188555086467204,0.0029027222155528776,0.0,0.0,0.0,1.0
1609056017141531141,1595,1609056017141049004,-0.0031711521248283248,-0.002715097874052219,0.0010946916912839555,0.0,0.0,0.0,1.0
1609056017186845333,1596,1609056017186519957,-0.003007392210772508,-0.0025658605408409585,5.155781109422719e-05,0.0,0.0,0.0,1.0
1609056017231342505,1597,1609056017230990029,-0.002325113650865518,-0.0018690301122603614,0.0014548946143575492,0.0,0.0,0.0,1.0
1609056017281822884,1598,1609056017281185961,-0.0020347610731406007,-0.001758290779363847,-0.0012584735105249933,0.0,0.0,0.0,1.0
1609056017330271891,1599,1609056017329867936,-0.0012124951705381193,-0.0009527087866061379,0.0007106555847595786,0.0,0.0,0.0,1.0
1609056017382159666,1600,1609056017381812907,-0.0012544701776207035,-0.00028584561686528787,0.0030256891000801645,0.0,0.0,0.0,1.0
1609056017432892948,1601,1609056017432292080,0.000311797387947621,0.0014286666008018756,0.004319263620526925,0.0,0.0,0.0,1.0
1609056017481523392,1602,1609056017480934954,0.0012245962382841924,0.0024726390783698093,0.005312651091822218,0.0,0.0,0.0,1.0
1609056017532269683,1603,1609056017531829930,0.0016981397230928508,0.002522849737680133,0.0024657849644800223,0.0,0.0,0.0,1.0
1609056017581576608,1604,1609056017581304884,0.0020107836574254634,0.0030193071073938427,0.00410806454388446,0.0,0.0,0.0,1.0
1609056017635948422,1605,1609056017635485030,0.001704941624833367,0.0026062039514229696,0.003195678720322448,0.0,0.0,0.0,1.0
1609056017682803688,1606,1609056017682381011,0.0008024233770456135,0.0015088842726171947,0.0016923907250276926,0.0,0.0,0.0,1.0
1609056017730447315,1607,1609056017729872084,0.00047940610211227863,0.00113890678788664,0.002170641899280845,0.0,0.0,0.0,1.0
1609056017780797952,1608,1609056017780039883,-0.0002793138153123209,0.00021818155074271317,0.0008812303518022091,0.0,0.0,0.0,1.0
1609056017830813996,1609,1609056017830376959,-0.00035582564842684405,0.0003870616992003306,0.002625573146159077,0.0,0.0,0.0,1.0
1609056017883679241,1610,1609056017883293009,-0.0007207893725897918,0.000304254320944608,0.0029553149511034604,0.0,0.0,0.0,1.0
1609056017930868968,1611,1609056017930533982,-0.00030900942347500404,0.0005802408059167874,0.0023218657450714275,0.0,0.0,0.0,1.0
1609056017982825312,1612,1609056017982534028,0.0005341171170769599,0.0014669044231254702,0.0021046941217157666,0.0,0.0,0.0,1.0
1609056018030133209,1613,1609056018029773093,0.00060048128913337,0.0013084957754685433,0.0004845144948655289,0.0,0.0,0.0,1.0
1609056018081132976,1614,1609056018080715991,0.0011995922369507639,0.0018912919958253838,0.002059451682669966,0.0,0.0,0.0,1.0
1609056018134295898,1615,1609056018133953906,0.0011351409145241576,0.0017093214418295588,0.0006124217255818465,0.0,0.0,0.0,1.0
1609056018182172521,1616,1609056018181363917,0.0009191155059546929,0.0013901290794322563,0.0002807860614959523,0.0,0.0,0.0,1.0
1609056018231782343,1617,1609056018231473065,0.0005547841959874233,0.0010865493505960444,-0.0004253958246485112,0.0,0.0,0.0,1.0
1609056018304357058,1618,1609056018304061986,0.0002410320900949614,-0.00038871747227631204,-0.006105162550415599,0.0,0.0,0.0,1.0
1609056018345396680,1619,1609056018344956017,-0.00015227430606756798,0.0004851531695067024,0.0010051084473436944,0.0,0.0,0.0,1.0
1609056018431990248,1620,1609056018431629992,0.0001019600375187224,0.0001777217465388503,-0.001556215024972829,0.0,0.0,0.0,1.0
1609056018477108247,1621,1609056018476565934,0.00042862462894888154,0.0005459674264116643,-0.0011092840050057617,0.0,0.0,0.0,1.0
1609056018527540083,1622,1609056018527247048,0.0008658009930293531,0.0016489295540083049,0.0018137829847129083,0.0,0.0,0.0,1.0
1609056018641327386,1623,1609056018640986062,-3.923032078390065e-05,-0.000401836585965043,-0.006349481782976341,0.0,0.0,0.0,1.0
1609056018679081496,1624,1609056018678708888,-0.0009969920568515533,-0.0012677129975386947,-0.005608434382809335,0.0,0.0,0.0,1.0
1609056018733435863,1625,1609056018732915974,-0.0023331165773434748,-0.0022166525325175712,-0.002598576179567047,0.0,0.0,0.0,1.0
1609056018801252606,1626,1609056018800910092,-0.0037992726596129955,-0.0040378845367428085,-0.0003877359188182439,0.0,0.0,0.0,1.0
1609056018844317132,1627,1609056018844050980,-0.004808560077435686,-0.004297059785258739,0.0021563855338051496,0.0,0.0,0.0,1.0
1609056018887334580,1628,1609056018887094117,-0.00532053250677933,-0.004288625600814555,0.0046923038196258204,0.0,0.0,0.0,1.0
1609056018929446898,1629,1609056018929130888,-0.005632611391160225,-0.004647708854307098,0.0061892842284807514,0.0,0.0,0.0,1.0
1609056018980897842,1630,1609056018980487919,-0.005801070007979803,-0.00470158145138555,0.008105794172590386,0.0,0.0,0.0,1.0
1609056019030395473,1631,1609056019029959059,-0.005626907493116562,-0.004711662424590202,0.005596901799015619,0.0,0.0,0.0,1.0
1609056019081295321,1632,1609056019081029034,-0.0053744596364779795,-0.004467667949157317,0.003240274032343393,0.0,0.0,0.0,1.0
1609056019134291716,1633,1609056019133932925,-0.004058154184974683,-0.0036337652067359727,0.002105665326145534,0.0,0.0,0.0,1.0
1609056019182929226,1634,1609056019181371069,-0.004075649030472306,-0.0036229481890259763,0.0022544859303108566,0.0,0.0,0.0,1.0
1609056019231664078,1635,1609056019231098986,-0.002951919774545786,-0.0017396814385506332,0.0035125186464863845,0.0,0.0,0.0,1.0
1609056019281104164,1636,1609056019280619002,-0.002193062725854844,-0.0011732243689763777,0.0025660653028234393,0.0,0.0,0.0,1.0
1609056019334927427,1637,1609056019333540059,-0.0016881940526474182,-0.00037039455536103105,0.0016386337102654025,0.0,0.0,0.0,1.0
1609056019381811332,1638,1609056019381263114,-0.0007872040839131955,0.00027833501186336207,0.0010141590174166382,0.0,0.0,0.0,1.0
1609056019431057001,1639,1609056019430468894,-0.0010247706275947621,0.0007622551787136445,0.00225948585808311,0.0,0.0,0.0,1.0
1609056019482929542,1640,1609056019482219077,-0.0007531256310429058,0.0014272205576304486,0.0026823914653428815,0.0,0.0,0.0,1.0
1609056019531380975,1641,1609056019530375100,-0.001164470905344217,0.002142846229972406,0.0036685902581163887,0.0,0.0,0.0,1.0
1609056019582869111,1642,1609056019582009888,-0.0010755154924808608,0.0030204584583586325,0.0055912864611489255,0.0,0.0,0.0,1.0
1609056019635248683,1643,1609056019634545899,0.0002592619176944311,0.006280497665464679,0.010052173030648426,0.0,0.0,0.0,1.0
1609056019681077191,1644,1609056019680677987,0.0016639061824932355,0.008318804605302432,0.01760465031594105,0.0,0.0,0.0,1.0
1609056019732001516,1645,1609056019731616116,0.0031667280487326366,0.010844771505169604,0.02450338879569003,0.0,0.0,0.0,1.0
1609056019780495540,1646,1609056019780047036,0.005660132872524315,0.013943004405945203,0.03365389877775282,0.0,0.0,0.0,1.0
1609056019834319597,1647,1609056019833876944,0.009068900777812416,0.016801853366899877,0.03985771577675745,0.0,0.0,0.0,1.0
1609056019887115960,1648,1609056019886747933,0.014076589033969356,0.02305243964959658,0.06634086403947492,0.0,0.0,0.0,1.0
1609056019939385630,1649,1609056019938968039,0.02218951470371522,0.028765755392576864,0.07975657021528715,0.0,0.0,0.0,1.0
1609056019985969644,1650,1609056019985406971,0.021962228841140075,0.03153115445362431,0.09310795837683994,0.0,0.0,0.0,1.0
1609056020039073569,1651,1609056020038468934,0.027234575387446114,0.03615045954918372,0.1060428454217508,0.0,0.0,0.0,1.0
1609056020090293151,1652,1609056020089552975,0.030911141547463217,0.04117908100365497,0.12075282064568338,0.0,0.0,0.0,1.0
1609056020138949336,1653,1609056020138435936,0.03813588970382398,0.0505325984060363,0.14711664370517674,0.0,0.0,0.0,1.0
1609056020188953060,1654,1609056020188067055,0.04060523661609494,0.05480033508304416,0.15952610930338817,0.0,0.0,0.0,1.0
1609056020238983342,1655,1609056020238382912,0.04866853615483535,0.06152679507187031,0.17195753948635062,0.0,0.0,0.0,1.0
1609056020287752415,1656,1609056020287340022,0.04991239562865957,0.06569673811097942,0.18330339288345776,0.0,0.0,0.0,1.0
1609056020340734816,1657,1609056020340267993,0.052851076082973236,0.07048997890766628,0.1953271169283557,0.0,0.0,0.0,1.0
1609056020386627989,1658,1609056020386372901,0.05951599155593357,0.08072209819567888,0.21618548203762344,0.0,0.0,0.0,1.0
1609056020438029128,1659,1609056020437300063,0.06254408892509744,0.08560378157410042,0.22587923008968946,0.0,0.0,0.0,1.0
1609056020485233537,1660,1609056020484851933,0.06515385166281362,0.09068673832545215,0.23578208533019573,0.0,0.0,0.0,1.0
1609056020539481982,1661,1609056020539178944,0.06730649650356568,0.0951639136972986,0.24439664061295652,0.0,0.0,0.0,1.0
1609056020586758921,1662,1609056020586398936,0.06943132247474182,0.09942821395424772,0.24814845154787157,0.0,0.0,0.0,1.0
1609056020637609218,1663,1609056020637292958,0.07386116376054375,0.10957300692108873,0.2692848876071636,0.0,0.0,0.0,1.0
1609056020685959057,1664,1609056020685604907,0.07425049711733323,0.1135022607944478,0.2772058741263237,0.0,0.0,0.0,1.0
1609056020737967768,1665,1609056020737619973,0.07455448955371224,0.11721386697816172,0.2853406280286608,0.0,0.0,0.0,1.0
1609056020789345146,1666,1609056020788492060,0.0756970052027981,0.12144482824816549,0.29381812007397645,0.0,0.0,0.0,1.0
1609056020838219483,1667,1609056020837622977,0.07623285462937446,0.1286680294338538,0.3104765289554221,0.0,0.0,0.0,1.0
1609056020933983974,1669,1609056020933312035,0.07472574631729856,0.13467353919811842,0.3249456269653237,0.0,0.0,0.0,1.0
1609056020982997467,1670,1609056020981793976,0.07372944873895193,0.13780968221718837,0.3347107975054584,0.0,0.0,0.0,1.0
1609056021030985972,1671,1609056021030598975,0.07255339448898113,0.14090892800497556,0.3426876542822619,0.0,0.0,0.0,1.0
1609056021083806108,1672,1609056021083366013,0.0708334430870039,0.14378618862088643,0.3512527108829362,0.0,0.0,0.0,1.0
1609056021130192383,1673,1609056021129793025,0.0660283088803908,0.15029225113800493,0.369747086101202,0.0,0.0,0.0,1.0
1609056021182756962,1674,1609056021182459927,0.06330547704750344,0.15317970985149287,0.37853866329147046,0.0,0.0,0.0,1.0
1609056021231281566,1675,1609056021230937100,0.060136581644435694,0.1559852517427558,0.3879497744933378,0.0,0.0,0.0,1.0
1609056021281986907,1676,1609056021281652070,0.056821309182595314,0.15852502612835906,0.397311973141667,0.0,0.0,0.0,1.0
1609056021336252291,1677,1609056021335786915,0.050280367377641966,0.1641667404315541,0.419179764355575,0.0,0.0,0.0,1.0
1609056021381659779,1678,1609056021381277895,0.046552802905559076,0.16694049169971947,0.4311267377803505,0.0,0.0,0.0,1.0
1609056021434913508,1679,1609056021434395886,0.041905255189483626,0.16952840605042496,0.44317749209052515,0.0,0.0,0.0,1.0
1609056021481284530,1680,1609056021480572081,0.03718204427264027,0.17204170151996578,0.4557947460798548,0.0,0.0,0.0,1.0
1609056021533777257,1681,1609056021533038950,0.03225021029743047,0.17467916750470636,0.46928070031945346,0.0,0.0,0.0,1.0
1609056021583294526,1682,1609056021582650042,0.021694979077064858,0.1793759105147359,0.49703557066813353,0.0,0.0,0.0,1.0
1609056021638353314,1683,1609056021637944079,0.017239441224024432,0.1821104521815684,0.5131551457027275,0.0,0.0,0.0,1.0
1609056021687590066,1684,1609056021687095976,0.010635828757614263,0.18393650419812957,0.5262463526961048,0.0,0.0,0.0,1.0
1609056021734972356,1685,1609056021734546042,0.006824216234864622,0.18695941111913328,0.5411446505749726,0.0,0.0,0.0,1.0
1609056021788559626,1686,1609056021788301087,0.0007631274527142295,0.18918275216514502,0.5554354061882316,0.0,0.0,0.0,1.0
1609056021839181083,1687,1609056021838853932,-0.007042870514439414,0.1905527536777356,0.5690501277807316,0.0,0.0,0.0,1.0
1609056021931684608,1688,1609056021930832959,-0.023945651218785002,0.1977411033325822,0.6111740554807366,0.0,0.0,0.0,1.0
1609056021981735730,1689,1609056021980841971,-0.029652108834270052,0.19923730897960468,0.6246327032308665,0.0,0.0,0.0,1.0
1609056022044835125,1690,1609056022044041014,-0.04282273078289123,0.201444449593275,0.6527216198968606,0.0,0.0,0.0,1.0
1609056022089946347,1691,1609056022089309073,-0.048251890818288956,0.20334327211045178,0.666240201498665,0.0,0.0,0.0,1.0
1609056022138855665,1692,1609056022138320065,-0.055136299094044716,0.20447287299062822,0.6800341105692844,0.0,0.0,0.0,1.0
1609056022187141489,1693,1609056022186844922,-0.06053982903881305,0.2057388837653562,0.6935543065280267,0.0,0.0,0.0,1.0
1609056022238853625,1694,1609056022238504029,-0.06841345555026379,0.20582573120637448,0.7076362032325116,0.0,0.0,0.0,1.0
1609056022289597848,1695,1609056022289165116,-0.07348411297944324,0.2067168627343534,0.7227532913086012,0.0,0.0,0.0,1.0
1609056022337036061,1696,1609056022336737013,-0.08667897717977269,0.20736295033088936,0.7528104235254967,0.0,0.0,0.0,1.0
1609056022387284534,1697,1609056022386694050,-0.09273759089707667,0.2074506268696723,0.7674787080158367,0.0,0.0,0.0,1.0
1609056022437696665,1698,1609056022437388993,-0.0991328729565808,0.2079480035644039,0.7831859338268075,0.0,0.0,0.0,1.0
1609056022486204892,1699,1609056022485472060,-0.10599976931882438,0.20820421778226716,0.7991394119653865,0.0,0.0,0.0,1.0
1609056022539672200,1700,1609056022539090968,-0.11037432310266837,0.2089379985414368,0.8159964511760025,0.0,0.0,0.0,1.0
1609056022588079854,1701,1609056022587854004,-0.1253177641404406,0.20665259469044628,0.8495702115078325,0.0,0.0,0.0,1.0
1609056022639964388,1702,1609056022639629937,-0.1332650434774152,0.2051814162067771,0.8657540015720837,0.0,0.0,0.0,1.0
1609056022707157523,1703,1609056022706753111,-0.14629651285183343,0.20344609954393889,0.8988633281055778,0.0,0.0,0.0,1.0
1609056022749504285,1704,1609056022749087906,-0.15063229562692726,0.20347164630040737,0.9151366728560406,0.0,0.0,0.0,1.0
1609056022792370020,1705,1609056022791497088,-0.15945108290087973,0.2015998265131529,0.932565741441584,0.0,0.0,0.0,1.0
1609056022837273301,1706,1609056022836764908,-0.16596337628208602,0.20040247152854107,0.9480602423360605,0.0,0.0,0.0,1.0
1609056022888388474,1707,1609056022887957907,-0.17459009448380058,0.19814474767725443,0.96310505312087,0.0,0.0,0.0,1.0
1609056022938236950,1708,1609056022937807894,-0.17968058180141,0.1972134557185754,0.9788004318764836,0.0,0.0,0.0,1.0
1609056022987934983,1709,1609056022987489081,-0.18608195425430551,0.1958056731555189,0.9951914275656879,0.0,0.0,0.0,1.0
1609056023041959569,1710,1609056023041607953,-0.198362753895843,0.19271061564306535,1.0244480137140286,0.0,0.0,0.0,1.0
1609056023087509441,1711,1609056023086921073,-0.20621007134018754,0.19054343445606037,1.0402328044547398,0.0,0.0,0.0,1.0
1609056023138109299,1712,1609056023137789107,-0.21172431778921919,0.18910804269428638,1.0556688353142576,0.0,0.0,0.0,1.0
1609056023185598111,1713,1609056023185346938,-0.21950820373718116,0.18659972029323768,1.0710788463659124,0.0,0.0,0.0,1.0
1609056023239980879,1714,1609056023239656067,-0.22433808990331272,0.18473743056613046,1.0852745209332646,0.0,0.0,0.0,1.0
1609056023288037138,1715,1609056023287571049,-0.23685118701404306,0.18036428232455393,1.1158290018926875,0.0,0.0,0.0,1.0
1609056023339157731,1716,1609056023338662005,-0.23685111743764864,0.18036417619667588,1.1158276012343196,0.0,0.0,0.0,1.0
1609056023388086327,1717,1609056023387344933,-0.24935994271804063,0.17580144583421742,1.1445001086702575,0.0,0.0,0.0,1.0
1609056023437513083,1718,1609056023437147952,-0.2538230407061235,0.17403040434543726,1.1597425042717084,0.0,0.0,0.0,1.0
1609056023489010078,1719,1609056023488766051,-0.25974256376025195,0.1715342503422761,1.1746803156449657,0.0,0.0,0.0,1.0
1609056023539927420,1720,1609056023539321042,-0.2714669888809027,0.16657869172678375,1.2046875930167147,0.0,0.0,0.0,1.0
1609056023585968080,1721,1609056023585585928,-0.2764861384048629,0.16380513753332338,1.2192529953169222,0.0,0.0,0.0,1.0
1609056023640614826,1722,1609056023640081978,-0.28240817118193107,0.16071245366353537,1.2336397647198565,0.0,0.0,0.0,1.0
1609056023688525889,1723,1609056023687608099,-0.2878616926005684,0.15786667019901302,1.2490913636477847,0.0,0.0,0.0,1.0
1609056023740134340,1724,1609056023739208079,-0.2947714903183787,0.1547264002973776,1.2643333702532162,0.0,0.0,0.0,1.0
1609056023787003403,1725,1609056023786474085,-0.30903084412505066,0.14743966604408598,1.294816321040984,0.0,0.0,0.0,1.0
1609056023838471646,1726,1609056023837806082,-0.3130504980631095,0.1450001169997961,1.3073193310397855,0.0,0.0,0.0,1.0
1609056023890312054,1727,1609056023889613009,-0.3197987350309326,0.141443209583052,1.3222328968809407,0.0,0.0,0.0,1.0
1609056023938078018,1728,1609056023937125063,-0.3262932445267275,0.13842646734156006,1.3351822671110334,0.0,0.0,0.0,1.0
1609056023987771736,1729,1609056023987151003,-0.33265728614729184,0.13460471327189083,1.348145337055504,0.0,0.0,0.0,1.0
1609056024039148371,1730,1609056024038235045,-0.3440950198720678,0.12730383361967768,1.3768223648067899,0.0,0.0,0.0,1.0
1609056024088789882,1731,1609056024088007069,-0.35146781608491295,0.12316527051451942,1.3877145463543386,0.0,0.0,0.0,1.0
1609056024138332413,1732,1609056024138053036,-0.35890559816311907,0.1187756587974107,1.399645475488425,0.0,0.0,0.0,1.0
1609056024186230857,1733,1609056024185966111,-0.36493078342412133,0.1148718871510539,1.4117964392024884,0.0,0.0,0.0,1.0
1609056024247063390,1734,1609056024245709992,-0.37862207661098424,0.10508635505067332,1.4367751159602475,0.0,0.0,0.0,1.0
1609056024290635036,1735,1609056024290232039,-0.38369221088548855,0.1009742566451024,1.4478478752010986,0.0,0.0,0.0,1.0
1609056024338272804,1736,1609056024337941981,-0.39130788972061836,0.096926854892601,1.4585035141302267,0.0,0.0,0.0,1.0
1609056024388664487,1737,1609056024388371087,-0.3974650869828835,0.09254978812852954,1.469543164773298,0.0,0.0,0.0,1.0
1609056024437754364,1738,1609056024437419987,-0.4045712246552142,0.08759137368173242,1.4812253461588192,0.0,0.0,0.0,1.0
1609056024488388905,1739,1609056024488118983,-0.41183669550181534,0.08283579683455855,1.4922337255959084,0.0,0.0,0.0,1.0
1609056024539350760,1740,1609056024538935042,-0.42577270013967805,0.07287618214204628,1.5142142315931846,0.0,0.0,0.0,1.0
1609056024590623997,1741,1609056024590339995,-0.4302140625947253,0.06928724653673157,1.525464253336505,0.0,0.0,0.0,1.0
1609056024638359518,1742,1609056024637895918,-0.4381192066061921,0.06399924549720737,1.5366001507628768,0.0,0.0,0.0,1.0
1609056024686439735,1743,1609056024686093903,-0.4430868112690831,0.06002429628338035,1.5479314890681435,0.0,0.0,0.0,1.0
1609056024739512800,1744,1609056024739225960,-0.44897075381140183,0.05567750350186884,1.5597711350025465,0.0,0.0,0.0,1.0
1609056024786579770,1745,1609056024786036110,-0.4579402325513975,0.04878582738344761,1.585033400469392,0.0,0.0,0.0,1.0
1609056024838361288,1746,1609056024837787962,-0.4635837034417314,0.04525714707763484,1.5969466426860555,0.0,0.0,0.0,1.0
1609056024889341986,1747,1609056024888455010,-0.46860714498745537,0.041468044129885584,1.609619652181526,0.0,0.0,0.0,1.0
1609056024938972880,1748,1609056024938208914,-0.47187736613769715,0.038483759754555535,1.6224003120812869,0.0,0.0,0.0,1.0
1609056024989055050,1749,1609056024988149024,-0.4758746506901588,0.0357173638064765,1.63567423616053,0.0,0.0,0.0,1.0
1609056025038451138,1750,1609056025037604905,-0.4832057596753181,0.0311189603042763,1.6632666052897926,0.0,0.0,0.0,1.0
1609056025088649714,1751,1609056025088014937,-0.48627423510057,0.029101490734056767,1.6768322953482508,0.0,0.0,0.0,1.0
1609056025139804345,1752,1609056025139000035,-0.48687434829748355,0.028026857438575803,1.6905490271797294,0.0,0.0,0.0,1.0
1609056025187615012,1753,1609056025187361098,-0.49110758121299014,0.025754615507572964,1.704556672208084,0.0,0.0,0.0,1.0
1609056025239616687,1754,1609056025239261961,-0.4953062959327106,0.02444540808610185,1.7198850146950226,0.0,0.0,0.0,1.0
1609056025286812762,1755,1609056025286472893,-0.4991454373633566,0.02368081646304887,1.752072900178045,0.0,0.0,0.0,1.0
1609056025338781483,1756,1609056025338445044,-0.5005039446113422,0.02379971197736097,1.7681927157026056,0.0,0.0,0.0,1.0
1609056025387743591,1757,1609056025387345887,-0.5020618506246883,0.024102345242582146,1.7848477651657966,0.0,0.0,0.0,1.0
1609056025432355135,1758,1609056025431595898,-0.5035245613209511,0.02482145864814811,1.7984688002998555,0.0,0.0,0.0,1.0
1609056025485056449,1759,1609056025484216071,-0.5043968288093588,0.026035140339203622,1.8158020565524984,0.0,0.0,0.0,1.0
1609056025532655307,1760,1609056025531735993,-0.5061195075653089,0.029252111697594785,1.851180494590885,0.0,0.0,0.0,1.0
1609056025584110843,1761,1609056025583374119,-0.5070349687266216,0.0310650108155599,1.868444415940541,0.0,0.0,0.0,1.0
1609056025632343305,1762,1609056025631881094,-0.5077333903625956,0.03357886186574888,1.8870201924512076,0.0,0.0,0.0,1.0
1609056025682028126,1763,1609056025681450940,-0.508587959647727,0.036165713575975644,1.904581840653881,0.0,0.0,0.0,1.0
1609056025734233448,1764,1609056025733923054,-0.5090430473559344,0.039275691156547055,1.9231197015479848,0.0,0.0,0.0,1.0
1609056025780998951,1765,1609056025780511952,-0.5097562467519161,0.04607823481999418,1.9616154913877004,0.0,0.0,0.0,1.0
1609056025833031422,1766,1609056025832263089,-0.5097263372967333,0.04980926003574382,1.9808381295621578,0.0,0.0,0.0,1.0
1609056025882183990,1767,1609056025881610013,-0.509890458737857,0.053903028135870557,1.9988405492700254,0.0,0.0,0.0,1.0
1609056025930561328,1768,1609056025929649926,-0.5096446641027086,0.05843403801184621,2.0180571502466655,0.0,0.0,0.0,1.0
1609056025985442623,1769,1609056025984740115,-0.50934730542496,0.0630692528118999,2.0357367681444725,0.0,0.0,0.0,1.0
1609056026031596875,1770,1609056026030990935,-0.5089100982589088,0.07391369873379716,2.0732281030624806,0.0,0.0,0.0,1.0
1609056026083170178,1771,1609056026082707024,-0.5084273061879969,0.07971757794554435,2.093169188419102,0.0,0.0,0.0,1.0
1609056026130731192,1772,1609056026130291081,-0.5080753114759666,0.08590405130724577,2.1118499244123505,0.0,0.0,0.0,1.0
1609056026181901202,1773,1609056026181545115,-0.5072151987556772,0.09228223846707806,2.1308959887252454,0.0,0.0,0.0,1.0
1609056026235347733,1774,1609056026234891034,-0.5062468269143565,0.09869424964095685,2.148584766215161,0.0,0.0,0.0,1.0
1609056026281754012,1775,1609056026281090117,-0.5034028286203167,0.11284057760644828,2.1850853189533455,0.0,0.0,0.0,1.0
1609056026334230546,1776,1609056026333690024,-0.5016937530741359,0.12043031669723803,2.2041381945020024,0.0,0.0,0.0,1.0
1609056026381896044,1777,1609056026381544924,-0.49979888432593,0.12767438536081244,2.222049763828763,0.0,0.0,0.0,1.0
1609056026439130701,1778,1609056026438833094,-0.49901504670202,0.13559438573367544,2.2456820712999415,0.0,0.0,0.0,1.0
1609056026488297254,1779,1609056026487854100,-0.4928719755633537,0.1532939672737328,2.2818533991434675,0.0,0.0,0.0,1.0
1609056026538988051,1780,1609056026538555956,-0.4903939944019662,0.16138773387957173,2.298940482160721,0.0,0.0,0.0,1.0
1609056026588420712,1781,1609056026587792016,-0.48687405158477404,0.17108766592187408,2.317421700682525,0.0,0.0,0.0,1.0
1609056026637787670,1782,1609056026637144900,-0.48484212097416446,0.18025185286581547,2.33546558305678,0.0,0.0,0.0,1.0
1609056026688283947,1783,1609056026687985039,-0.48104153019038165,0.1898422898377845,2.3527640509989816,0.0,0.0,0.0,1.0
1609056026739044556,1784,1609056026738756037,-0.4740028948520276,0.20985029588492665,2.3885206065101388,0.0,0.0,0.0,1.0
1609056026787983453,1785,1609056026787630892,-0.46983482313263636,0.22012577351159734,2.4065625092557035,0.0,0.0,0.0,1.0
1609056026839679438,1786,1609056026839020110,-0.4669454973694869,0.230085516764305,2.4247776359650572,0.0,0.0,0.0,1.0
1609056026886105633,1787,1609056026885618067,-0.46164006723683926,0.241373806924976,2.4429982209730454,0.0,0.0,0.0,1.0
1609056026939931367,1788,1609056026939565993,-0.45786544308730726,0.251987578196605,2.4604844035181195,0.0,0.0,0.0,1.0
1609056026987078579,1789,1609056026986816025,-0.4485843590584899,0.27375426183879625,2.4967074268914944,0.0,0.0,0.0,1.0
1609056027039151550,1790,1609056027038894034,-0.444368147231085,0.2843397597211137,2.5134584289680326,0.0,0.0,0.0,1.0
1609056027087876877,1791,1609056027086954928,-0.44022267887224587,0.2951841026559592,2.5297915065377268,0.0,0.0,0.0,1.0
1609056027137039330,1792,1609056027136525965,-0.43522794112872276,0.30646778442365985,2.5469568550708575,0.0,0.0,0.0,1.0
1609056027188775335,1793,1609056027188047028,-0.43111323619557496,0.3177906700225748,2.5644412843754276,0.0,0.0,0.0,1.0
1609056027237914813,1794,1609056027237485028,-0.421548292060681,0.3405712940745431,2.5982355880067036,0.0,0.0,0.0,1.0
1609056027288677408,1795,1609056027288196898,-0.41793220481606497,0.35130063228130837,2.6143427044348666,0.0,0.0,0.0,1.0
1609056027339236761,1796,1609056027338842011,-0.41258425911840746,0.3630142263465146,2.6319142005317095,0.0,0.0,0.0,1.0
1609056027386336342,1797,1609056027385824061,-0.4097588377880399,0.3733939639121857,2.6484739396542736,0.0,0.0,0.0,1.0
1609056027439587151,1798,1609056027439219094,-0.40536858367375217,0.38421308943095767,2.6655020879548594,0.0,0.0,0.0,1.0
1609056027486832693,1799,1609056027486569977,-0.39907097036159556,0.4042519460309961,2.697662235408176,0.0,0.0,0.0,1.0
1609056027539950151,1800,1609056027539449072,-0.3955128921214204,0.41473908893355116,2.714097246429974,0.0,0.0,0.0,1.0
1609056027587133079,1801,1609056027586701966,-0.39329532134859946,0.42398486188339746,2.7297227093638297,0.0,0.0,0.0,1.0
1609056027638562156,1802,1609056027638130999,-0.38959564181750395,0.4342833891845146,2.745943999794395,0.0,0.0,0.0,1.0
1609056027689361698,1803,1609056027688591099,-0.38757909616915853,0.4432067199754144,2.762667020221715,0.0,0.0,0.0,1.0
1609056027737683824,1804,1609056027737264967,-0.38185071270077486,0.4612303805913953,2.7952976255935997,0.0,0.0,0.0,1.0
1609056027789195857,1805,1609056027788942910,-0.37845250102853356,0.4700586738260313,2.8102152639371547,0.0,0.0,0.0,1.0
1609056027838820071,1806,1609056027838574029,-0.37755030987005256,0.4774336393569385,2.825298509952297,0.0,0.0,0.0,1.0
1609056027888576339,1807,1609056027888101912,-0.3752746879707374,0.4848997208316632,2.841379918940247,0.0,0.0,0.0,1.0
1609056027940087353,1808,1609056027939319945,-0.3738593025811241,0.4918272989521739,2.856854840103917,0.0,0.0,0.0,1.0
1609056027987115868,1809,1609056027986692048,-0.37108818616975725,0.5056961983838875,2.8885542812678726,0.0,0.0,0.0,1.0
1609056028087336204,1810,1609056028086341000,-0.3694995522511846,0.5182956053183858,2.9234171052266706,0.0,0.0,0.0,1.0
1609056028138534509,1811,1609056028137421942,-0.3710057769983912,0.5231918972144172,2.9390980582677226,0.0,0.0,0.0,1.0
1609056028189041382,1812,1609056028188737965,-0.3689750229554747,0.5286397372137728,2.956827268308974,0.0,0.0,0.0,1.0
1609056028237441175,1813,1609056028237159110,-0.3674337463583903,0.5386361195631224,2.9914634545597627,0.0,0.0,0.0,1.0
1609056028288346244,1814,1609056028288071967,-0.3662584265571489,0.5433112336854862,3.0083320914534166,0.0,0.0,0.0,1.0
1609056028335627379,1815,1609056028335393048,-0.3661194943401185,0.5471455673278527,3.0257701882715837,0.0,0.0,0.0,1.0
1609056028388503432,1816,1609056028388160086,-0.36584726922432864,0.5506250389238971,3.043682731235046,0.0,0.0,0.0,1.0
1609056028435217210,1817,1609056028434929944,-0.3652049809563316,0.5529986938486005,3.056983668140795,0.0,0.0,0.0,1.0
1609056028481029278,1818,1609056028480712986,-0.36541955729133946,0.5583949992192672,3.090643614490039,0.0,0.0,0.0,1.0
1609056028535311243,1819,1609056028534547902,-0.3656678584250841,0.560567101673314,3.1075141847003938,0.0,0.0,0.0,1.0
1609056028606957626,1820,1609056028606717921,-0.36755575284652053,0.5641543720323057,3.1418337188707,0.0,0.0,0.0,1.0
1609056028650070337,1821,1609056028649654961,-0.367727080671596,0.5655767665764841,3.15831721079435,0.0,0.0,0.0,1.0
1609056028691487628,1822,1609056028691198922,-0.3670766239746541,0.567181412012495,3.175163734278637,0.0,0.0,0.0,1.0
1609056028739016359,1823,1609056028738359070,-0.36760079670028745,0.5681389354001212,3.191249305359964,0.0,0.0,0.0,1.0
1609056028787829700,1824,1609056028787005044,-0.3679473296101605,0.5685098533444162,3.2071914336846636,0.0,0.0,0.0,1.0
1609056028836692693,1825,1609056028836385108,-0.3679623601962412,0.5688127832909942,3.223800227065278,0.0,0.0,0.0,1.0
1609056028888700313,1826,1609056028888362980,-0.36886275658634915,0.5686054195105399,3.240368162090248,0.0,0.0,0.0,1.0
1609056028934971688,1827,1609056028934598065,-0.3688596471625871,0.5682062272758017,3.2539107519057486,0.0,0.0,0.0,1.0
1609056028981574945,1828,1609056028981259919,-0.36943414276532494,0.5670291697956671,3.2853936548489426,0.0,0.0,0.0,1.0
1609056029034574108,1829,1609056029034189082,-0.3697138846750896,0.5664804157468737,3.301922094259751,0.0,0.0,0.0,1.0
1609056029081675935,1830,1609056029081265069,-0.3704461100928249,0.565841070803863,3.317685429131426,0.0,0.0,0.0,1.0
1609056029135916272,1831,1609056029135589934,-0.3709233078066241,0.5648086471897784,3.3325093855578127,0.0,0.0,0.0,1.0
1609056029182906259,1832,1609056029182449914,-0.3717862831550498,0.5631263986787687,3.347490988824689,0.0,0.0,0.0,1.0
1609056029231307029,1833,1609056029230965949,-0.3730041900736403,0.5600114423019562,3.3772197564714066,0.0,0.0,0.0,1.0
1609056029282365769,1834,1609056029281895972,-0.37369973055003314,0.5584087642843443,3.3928592667625876,0.0,0.0,0.0,1.0
1609056029331069012,1835,1609056029330678082,-0.37524185890757167,0.5564698812953495,3.407519421869194,0.0,0.0,0.0,1.0
1609056029384132364,1836,1609056029383422947,-0.376071460486159,0.5545852644036202,3.4228046262633898,0.0,0.0,0.0,1.0
1609056029438415981,1837,1609056029437915898,-0.3786618308307048,0.5505005416950652,3.4554524277707,0.0,0.0,0.0,1.0
1609056029483290475,1838,1609056029482210970,-0.3803099382917239,0.5478761200338269,3.470066537017785,0.0,0.0,0.0,1.0
1609056029534623583,1839,1609056029533854104,-0.3816840843102369,0.5458406459323939,3.488239092157004,0.0,0.0,0.0,1.0
1609056029582335740,1840,1609056029581920958,-0.3837771923518787,0.5430444828490266,3.504567830097963,0.0,0.0,0.0,1.0
1609056029637620957,1841,1609056029637132025,-0.385401197953243,0.5404507054603656,3.521899492886948,0.0,0.0,0.0,1.0
1609056029687640586,1842,1609056029687172986,-0.3899447017675186,0.5346522028405047,3.5574199285989336,0.0,0.0,0.0,1.0
1609056029737377267,1843,1609056029736981965,-0.39326762929215775,0.531028723625262,3.574155298647976,0.0,0.0,0.0,1.0
1609056029787969986,1844,1609056029787282086,-0.39385229594930493,0.5288685122227292,3.591574193032681,0.0,0.0,0.0,1.0
1609056029836155145,1845,1609056029835874892,-0.3968117809107028,0.5253922384001442,3.609040701604807,0.0,0.0,0.0,1.0
1609056029889362152,1846,1609056029888886071,-0.40084240071590216,0.5214770538037143,3.62703893123821,0.0,0.0,0.0,1.0
1609056029938690148,1847,1609056029938366032,-0.40629401899152384,0.5140972810199713,3.663545124769455,0.0,0.0,0.0,1.0
1609056029987919678,1848,1609056029987388945,-0.40977811806740405,0.5102386536479813,3.6815039449936497,0.0,0.0,0.0,1.0
1609056030038394479,1849,1609056030038039065,-0.412732392376828,0.5064060938838821,3.700841168049606,0.0,0.0,0.0,1.0
1609056030088155066,1850,1609056030087657071,-0.415784382757451,0.5025082806207735,3.719630607483655,0.0,0.0,0.0,1.0
1609056030139269891,1851,1609056030138858891,-0.41857535717360506,0.4987147913057015,3.738917111239594,0.0,0.0,0.0,1.0
1609056030188294342,1852,1609056030186734057,-0.42656072358516184,0.49006320011357474,3.776701394169324,0.0,0.0,0.0,1.0
1609056030239756928,1853,1609056030239039040,-0.43142629536085764,0.4855331920585897,3.795368874752775,0.0,0.0,0.0,1.0
1609056030306878551,1854,1609056030306517935,-0.43630830869075865,0.4773148948702328,3.832466578712026,0.0,0.0,0.0,1.0
1609056030351236971,1855,1609056030349485970,-0.44444477996751175,0.47167974551278746,3.851125313972546,0.0,0.0,0.0,1.0
1609056030439658808,1856,1609056030439379073,-0.45214223421486466,0.46335258540901947,3.890954711303337,0.0,0.0,0.0,1.0
1609056030480955629,1857,1609056030480542994,-0.4571448242222509,0.45908892321968153,3.9103699101869966,0.0,0.0,0.0,1.0
1609056030529672328,1858,1609056030529236889,-0.4618299162042909,0.45463578635576596,3.9304144195739728,0.0,0.0,0.0,1.0
1609056030601002256,1859,1609056030600483037,-0.47076705235309646,0.44568799021167393,3.971565547047082,0.0,0.0,0.0,1.0
1609056030645250861,1860,1609056030644671059,-0.4743699235147716,0.4417968572262865,3.991899917108793,0.0,0.0,0.0,1.0
1609056030694464552,1861,1609056030693278885,-0.48130405866372783,0.4371324024674905,4.012842653067222,0.0,0.0,0.0,1.0
1609056030738334327,1862,1609056030737727023,-0.4853730570342769,0.43313310966965446,4.034612624591068,0.0,0.0,0.0,1.0
1609056030786843187,1863,1609056030785950041,-0.4915478381479019,0.4287587336383467,4.0543422661533555,0.0,0.0,0.0,1.0
1609056030837841183,1864,1609056030837519980,-0.4963343752795879,0.4254032143958568,4.074920085114445,0.0,0.0,0.0,1.0
1609056030892217019,1865,1609056030891836024,-0.5088162348969263,0.41794388969194785,4.116874952945121,0.0,0.0,0.0,1.0
1609056030938797723,1866,1609056030938366986,-0.5147975482983753,0.4142064569916428,4.135867542755921,0.0,0.0,0.0,1.0
1609056030987037751,1867,1609056030986724949,-0.5204909668300317,0.41056689856772266,4.155067845988671,0.0,0.0,0.0,1.0
1609056031037135663,1868,1609056031036786891,-0.5256589239702762,0.40709327168229237,4.174202336983807,0.0,0.0,0.0,1.0
1609056031087748894,1869,1609056031087483979,-0.5319412689579011,0.4040823132960867,4.193273460304963,0.0,0.0,0.0,1.0
1609056031138713870,1870,1609056031138403988,-0.5433390655193264,0.3986140945929506,4.2307429154176575,0.0,0.0,0.0,1.0
1609056031186308842,1871,1609056031185637093,-0.5508189138687314,0.39577936479979314,4.248894847738895,0.0,0.0,0.0,1.0
1609056031238086953,1872,1609056031237655974,-0.5570883298986828,0.3935738877868502,4.267553955440087,0.0,0.0,0.0,1.0
1609056031286140021,1873,1609056031285693026,-0.5640104124535981,0.3906501877565134,4.284384546872457,0.0,0.0,0.0,1.0
1609056031340653441,1874,1609056031340195036,-0.5706511561783074,0.38784550760092884,4.302003547423778,0.0,0.0,0.0,1.0
1609056031387883722,1875,1609056031387561894,-0.5857511744048303,0.3831813921300693,4.336966447669763,0.0,0.0,0.0,1.0
1609056031437765567,1876,1609056031437246895,-0.5925861842856293,0.3813048676945314,4.353424087152058,0.0,0.0,0.0,1.0
1609056031488482486,1877,1609056031488215066,-0.5995478896949145,0.37950887367111363,4.370489750695905,0.0,0.0,0.0,1.0
1609056031538173179,1878,1609056031537889100,-0.6077796423730497,0.3776312190131108,4.388452024350315,0.0,0.0,0.0,1.0
1609056031589337223,1879,1609056031589065886,-0.6150568917083099,0.37592656880099895,4.4054630942538076,0.0,0.0,0.0,1.0
1609056031640788960,1880,1609056031640380955,-0.6305288662515096,0.37198045074494956,4.436577316647867,0.0,0.0,0.0,1.0
1609056031688687753,1881,1609056031688212967,-0.6391011425471049,0.3700174689357283,4.450179581968239,0.0,0.0,0.0,1.0
1609056031740092799,1882,1609056031739345885,-0.6466969291350999,0.3687698402283033,4.462928504812156,0.0,0.0,0.0,1.0
1609056031786568909,1883,1609056031785952902,-0.6562917742611489,0.3665953975111478,4.474565268123679,0.0,0.0,0.0,1.0
1609056031840521804,1884,1609056031840089894,-0.6636672386914775,0.3654810952292564,4.486220648145766,0.0,0.0,0.0,1.0
1609056031887516713,1885,1609056031887292958,-0.6818514458892899,0.36178129991746744,4.506849282066481,0.0,0.0,0.0,1.0
1609056031938563623,1886,1609056031938179112,-0.6893256924582438,0.36052167327415674,4.515582631959494,0.0,0.0,0.0,1.0
1609056031987279439,1887,1609056031986877060,-0.6985817370204543,0.358796169668814,4.525208862377269,0.0,0.0,0.0,1.0
1609056032037512949,1888,1609056032037108040,-0.7067144687323363,0.35783187593543886,4.533775514667164,0.0,0.0,0.0,1.0
1609056032089192100,1889,1609056032088831044,-0.7143378118299886,0.35743966100268665,4.541771379743467,0.0,0.0,0.0,1.0
1609056032138835856,1890,1609056032138297892,-0.7320625338841076,0.35556501580540356,4.556701995504884,0.0,0.0,0.0,1.0
1609056032188242024,1891,1609056032187578059,-0.7384098744666403,0.355977497615271,4.563459409840303,0.0,0.0,0.0,1.0
1609056032280671559,1892,1609056032279065943,-0.7558219485690003,0.35438610562727035,4.577762488480727,0.0,0.0,0.0,1.0
1609056032347622162,1893,1609056032347091055,-0.772791312553835,0.35327748312981555,4.589668824273181,0.0,0.0,0.0,1.0
1609056032434131752,1894,1609056032433311081,-0.7885199007425747,0.35263843149966334,4.603250234223129,0.0,0.0,0.0,1.0
1609056032490159909,1895,1609056032489743090,-0.7941143819451497,0.35364933011563693,4.6079711852111505,0.0,0.0,0.0,1.0
1609056032539613259,1896,1609056032538976050,-0.805598513127169,0.3524076965540317,4.614498828912401,0.0,0.0,0.0,1.0
1609056032591110103,1897,1609056032590330935,-0.8120499431487644,0.35304114697023437,4.61984601497882,0.0,0.0,0.0,1.0
1609056032638273816,1898,1609056032637930012,-0.8279675086226028,0.35437018057395164,4.631485773717545,0.0,0.0,0.0,1.0
1609056032687935850,1899,1609056032687589026,-0.8353984763040074,0.3556448124778484,4.637626532581928,0.0,0.0,0.0,1.0
1609056032737906228,1900,1609056032737482882,-0.8426643049071671,0.356133150871635,4.643897493436247,0.0,0.0,0.0,1.0
1609056032787865308,1901,1609056032787364102,-0.8494285294087263,0.3568392808597878,4.648442900571861,0.0,0.0,0.0,1.0
1609056032843183998,1902,1609056032842326022,-0.8584522619682495,0.3569738921027934,4.652551379844734,0.0,0.0,0.0,1.0
1609056032889530616,1903,1609056032888496972,-0.8729202211734588,0.35933195142743557,4.658488036804934,0.0,0.0,0.0,1.0
1609056032940658120,1904,1609056032940306044,-0.8788541913149679,0.36110081876142885,4.661167924781629,0.0,0.0,0.0,1.0
1609056032987215558,1905,1609056032986909009,-0.8859815812520146,0.3620601649541726,4.664449718403333,0.0,0.0,0.0,1.0
1609056033040200267,1906,1609056033039662934,-0.892178289248708,0.3629187356203616,4.667921271298878,0.0,0.0,0.0,1.0
1609056033089220333,1907,1609056033088601923,-0.8986393418033494,0.36328293346901575,4.671979042440833,0.0,0.0,0.0,1.0
1609056033137911132,1908,1609056033137579060,-0.9101719255187817,0.36432393377205585,4.681746688032021,0.0,0.0,0.0,1.0
1609056033192393547,1909,1609056033191748953,-0.915515866112603,0.3650748376080202,4.6860780063530925,0.0,0.0,0.0,1.0
1609056033257105308,1910,1609056033256594039,-0.926700281352371,0.36746536820189135,4.694836767560355,0.0,0.0,0.0,1.0
1609056033297809069,1911,1609056033297518111,-0.929374726400912,0.3689269956970378,4.699617727789622,0.0,0.0,0.0,1.0
1609056033342062391,1912,1609056033341758109,-0.9349407039591675,0.36887567446409975,4.70445124899706,0.0,0.0,0.0,1.0
1609056033386282674,1913,1609056033385732985,-0.9411067192861644,0.36882522047353916,4.709126089103506,0.0,0.0,0.0,1.0
1609056033438960909,1914,1609056033438603020,-0.9432260914433286,0.3699241074151445,4.713218846050935,0.0,0.0,0.0,1.0
1609056033486260306,1915,1609056033485926009,-0.9472379149341847,0.3702830255943752,4.717675747930476,0.0,0.0,0.0,1.0
1609056033541586566,1916,1609056033541082001,-0.9504223692067093,0.3707059796061358,4.721935322878639,0.0,0.0,0.0,1.0
1609056033589442574,1917,1609056033588800049,-0.9549542424612341,0.3704905510909384,4.730597148988668,0.0,0.0,0.0,1.0
1609056033632083849,1918,1609056033631807900,-0.9566696202714198,0.3705617434875066,4.731304389597698,0.0,0.0,0.0,1.0
1609056033688560981,1919,1609056033688212014,-0.9572961586431923,0.3708031837618009,4.73905679190894,0.0,0.0,0.0,1.0
1609056033736566010,1920,1609056033736054993,-0.9618882016512806,0.3686764879467006,4.744820072347327,0.0,0.0,0.0,1.0
1609056033788855074,1921,1609056033788550950,-0.9582991293091503,0.3690869950046931,4.7491990890569635,0.0,0.0,0.0,1.0
1609056033839569070,1922,1609056033839217997,-0.957269353861907,0.36545481603135954,4.757057219877887,0.0,0.0,0.0,1.0
1609056033888226278,1923,1609056033887758112,-0.9570193448963416,0.36346738691430147,4.761797141176256,0.0,0.0,0.0,1.0
1609056033940482493,1924,1609056033939994908,-0.9549293033770816,0.3618946632068969,4.76648844696978,0.0,0.0,0.0,1.0
1609056033981747298,1925,1609056033981376029,-0.9522523140286516,0.3596551211973207,4.767076409686677,0.0,0.0,0.0,1.0
1609056034032866726,1926,1609056034032111025,-0.9491479976377057,0.3567132271940707,4.771007530223999,0.0,0.0,0.0,1.0
1609056034086423811,1927,1609056034085975981,-0.9410707936846876,0.34975460066479513,4.778217147688064,0.0,0.0,0.0,1.0
1609056034131849307,1928,1609056034131390906,-0.9359900438138453,0.34567345198556154,4.781643768818325,0.0,0.0,0.0,1.0
1609056034182165179,1929,1609056034181931115,-0.9302290671203579,0.3414920189459423,4.784588855362168,0.0,0.0,0.0,1.0
1609056034230868358,1930,1609056034230538941,-0.9239324258348489,0.33646169411441207,4.788379911816579,0.0,0.0,0.0,1.0
1609056034288027120,1931,1609056034287674046,-0.9173547395321293,0.331267468704624,4.794069784359971,0.0,0.0,0.0,1.0
1609056034339128188,1932,1609056034338209010,-0.9023925593301954,0.31890418614813854,4.796803545934797,0.0,0.0,0.0,1.0
1609056034387183723,1933,1609056034386700964,-0.8911592501498653,0.3138245023888473,4.802841832087965,0.0,0.0,0.0,1.0
1609056034438409622,1934,1609056034437719918,-0.8841079243944918,0.305925409648907,4.80472322639689,0.0,0.0,0.0,1.0
1609056034487481434,1935,1609056034486969090,-0.8741826209015215,0.2985788406765053,4.8065218900740785,0.0,0.0,0.0,1.0
1609056034540426936,1936,1609056034540172911,-0.8629204260645054,0.2907405805532406,4.808501145950293,0.0,0.0,0.0,1.0
1609056034587926334,1937,1609056034587627030,-0.8387489071690801,0.27351687160381744,4.812781864471119,0.0,0.0,0.0,1.0
1609056034640873902,1938,1609056034640513039,-0.8250931006026825,0.26426164626744253,4.814508202505404,0.0,0.0,0.0,1.0
1609056034687265001,1939,1609056034686980105,-0.812475464802997,0.25477690882809867,4.816864153743067,0.0,0.0,0.0,1.0
1609056034739210881,1940,1609056034738804913,-0.7987750424992157,0.24438883918553245,4.819165824876776,0.0,0.0,0.0,1.0
1609056034788893483,1941,1609056034788168049,-0.782730808060478,0.23458009458210682,4.821378311911304,0.0,0.0,0.0,1.0
1609056034839562059,1942,1609056034838531113,-0.7505868314959763,0.21329249589793164,4.826087512266814,0.0,0.0,0.0,1.0
1609056034888076261,1943,1609056034887461997,-0.7350768910581458,0.2022549949020913,4.828821889944133,0.0,0.0,0.0,1.0
1609056034940214524,1944,1609056034939576006,-0.7186982422207393,0.19076646213867576,4.831440315028665,0.0,0.0,0.0,1.0
1609056034988294321,1945,1609056034987444973,-0.6993784055311743,0.17909401461334085,4.833584687486859,0.0,0.0,0.0,1.0
1609056035041144822,1946,1609056035040732956,-0.6823478684148121,0.16689495947747446,4.837039846017332,0.0,0.0,0.0,1.0
1609056035087491112,1947,1609056035087116099,-0.645939702283254,0.1431127949509019,4.841855223032617,0.0,0.0,0.0,1.0
1609056035138716793,1948,1609056035138433075,-0.6279012020853223,0.130278197940207,4.8447442156112075,0.0,0.0,0.0,1.0
1609056035188901511,1949,1609056035188499070,-0.6082036775621766,0.1179615623848207,4.846354102679878,0.0,0.0,0.0,1.0
1609056035238699207,1950,1609056035238413907,-0.5879388628571967,0.10540011204540178,4.847631458474598,0.0,0.0,0.0,1.0
1609056035290720277,1951,1609056035290360070,-0.5472386992277656,0.07942523985848027,4.8519468186022765,0.0,0.0,0.0,1.0
1609056035338016003,1952,1609056035337715006,-0.5269198725332522,0.06709441792138193,4.853665778199855,0.0,0.0,0.0,1.0
1609056035387708928,1953,1609056035387087918,-0.5086915659414295,0.05256731234834433,4.854927194144787,0.0,0.0,0.0,1.0
1609056035437839241,1954,1609056035436992980,-0.4867597317381005,0.03992233053798344,4.856524200671027,0.0,0.0,0.0,1.0
1609056035489088450,1955,1609056035488829947,-0.46753383015092354,0.02603649325716617,4.857677467391406,0.0,0.0,0.0,1.0
1609056035540452911,1956,1609056035539631939,-0.4281952449268793,-0.0017526644716454598,4.860389359621061,0.0,0.0,0.0,1.0
1609056035586527717,1957,1609056035586186028,-0.40794006722414977,-0.016058265991567566,4.861014578415469,0.0,0.0,0.0,1.0
1609056035640336048,1958,1609056035639904118,-0.38866143658679064,-0.03139616082882668,4.8628526859312675,0.0,0.0,0.0,1.0
1609056035686771424,1959,1609056035686042882,-0.3676789879016056,-0.045645470365350604,4.864542995458621,0.0,0.0,0.0,1.0
1609056035740429320,1960,1609056035740105010,-0.3491548789206895,-0.06126942272591407,4.865436232087603,0.0,0.0,0.0,1.0
1609056035788943672,1961,1609056035788647986,-0.3083168108860903,-0.09115719522068133,4.867242272239395,0.0,0.0,0.0,1.0
1609056035838838415,1962,1609056035838343001,-0.2911498319557957,-0.10619836718900189,4.867761691958156,0.0,0.0,0.0,1.0
1609056035930263758,1963,1609056035929999924,-0.2525973125627736,-0.13789481324752728,4.870422108288054,0.0,0.0,0.0,1.0
1609056035996065899,1964,1609056035995780087,-0.21515463008429592,-0.17133637006418212,4.873266963496787,0.0,0.0,0.0,1.0
1609056036043235262,1965,1609056036042964077,-0.19717952098672242,-0.18809552021281206,4.87476747710164,0.0,0.0,0.0,1.0
1609056036088853427,1966,1609056036088565922,-0.17861699538130793,-0.20529466099846871,4.876268505869682,0.0,0.0,0.0,1.0
1609056036139008282,1967,1609056036138602114,-0.16017798217016121,-0.22264237413996568,4.877778108490274,0.0,0.0,0.0,1.0
1609056036186446395,1968,1609056036186086989,-0.14200259009080796,-0.24071153040453197,4.879306842348755,0.0,0.0,0.0,1.0
1609056036240226033,1969,1609056036239957905,-0.12319794721068078,-0.25887812034612523,4.881271559151448,0.0,0.0,0.0,1.0
1609056036287767526,1970,1609056036287454939,-0.08788461607312925,-0.2975514984043883,4.885418814097768,0.0,0.0,0.0,1.0
1609056036338478087,1971,1609056036338198042,-0.07148812084000866,-0.31646319898722197,4.889338511739092,0.0,0.0,0.0,1.0
1609056036388958011,1972,1609056036388310051,-0.05438440244139642,-0.3358052442876982,4.892231387699126,0.0,0.0,0.0,1.0
1609056036439462075,1973,1609056036438500023,-0.03743060140580923,-0.3559422915528856,4.8949079455367706,0.0,0.0,0.0,1.0
1609056036490237483,1974,1609056036489698029,-0.020790874136970672,-0.3760513541897268,4.898543326592944,0.0,0.0,0.0,1.0
1609056036539187101,1975,1609056036538395024,0.011227742493638004,-0.4189516234556123,4.907728190986917,0.0,0.0,0.0,1.0
1609056036587495790,1976,1609056036587153054,0.02641377388685129,-0.44003990185657926,4.912432520176379,0.0,0.0,0.0,1.0
1609056036642703965,1977,1609056036642290926,0.04109010772509336,-0.4627374741581889,4.918326529841108,0.0,0.0,0.0,1.0
1609056036687495532,1978,1609056036686807013,0.056136494868763265,-0.48513272594347256,4.923216467550554,0.0,0.0,0.0,1.0
1609056036739370274,1979,1609056036738989926,0.0702850038306444,-0.5084393334488553,4.92870161741667,0.0,0.0,0.0,1.0
1609056036787971453,1980,1609056036787321902,0.09834894856374987,-0.5554594265235764,4.939276354326878,0.0,0.0,0.0,1.0
1609056036839618762,1981,1609056036839157916,0.11219582633442826,-0.5802737683589001,4.943470671662794,0.0,0.0,0.0,1.0
1609056036887331190,1982,1609056036886842108,0.124743350339795,-0.6039788175877732,4.9498768629330705,0.0,0.0,0.0,1.0
1609056036938865808,1983,1609056036938597060,0.13705236611142624,-0.6295562118024733,4.956174418157902,0.0,0.0,0.0,1.0
1609056036990088997,1984,1609056036989668942,0.14869603206753723,-0.6541364820184654,4.960797700066259,0.0,0.0,0.0,1.0
1609056037038458207,1985,1609056037038179017,0.17225899016918333,-0.7078509111045292,4.969679343953691,0.0,0.0,0.0,1.0
1609056037088227205,1986,1609056037087955094,0.18411061240059823,-0.7363473637071039,4.971178580490585,0.0,0.0,0.0,1.0
1609056037142514407,1987,1609056037142123080,0.1939920321954567,-0.7622730352353599,4.978550093113536,0.0,0.0,0.0,1.0
1609056037182212198,1988,1609056037181906081,0.20455194118241238,-0.7887868683951567,4.979519395075743,0.0,0.0,0.0,1.0
1609056037239534870,1989,1609056037239035941,0.21451380598983505,-0.8157376272066159,4.983187702623463,0.0,0.0,0.0,1.0
1609056037281458828,1990,1609056037281104899,0.2339404166455239,-0.8710399550233703,4.991470027108807,0.0,0.0,0.0,1.0
1609056037335406508,1991,1609056037334282971,0.24356930826586165,-0.8993543397576005,4.995484575681784,0.0,0.0,0.0,1.0
1609056037381948066,1992,1609056037381263114,0.2540083964697324,-0.9297801615903865,4.997298419331467,0.0,0.0,0.0,1.0
1609056037438553254,1993,1609056037437723017,0.262432825354459,-0.9587796918117348,5.00608094120602,0.0,0.0,0.0,1.0
1609056037489132169,1994,1609056037488273955,0.2717560782583952,-0.9875966638533527,5.0108062163281355,0.0,0.0,0.0,1.0
1609056037539787192,1995,1609056037538791037,0.2930575298548135,-1.0465978081240976,5.019279518452171,0.0,0.0,0.0,1.0
1609056037587995346,1996,1609056037587370968,0.3045943968312166,-1.0757435135234914,5.023947519513056,0.0,0.0,0.0,1.0
1609056037639875292,1997,1609056037639354086,0.3153226171375607,-1.1068389033903898,5.028632491100919,0.0,0.0,0.0,1.0
1609056037696592932,1998,1609056037696333027,0.3377830539253708,-1.1683925443230905,5.037731664101043,0.0,0.0,0.0,1.0
1609056037739479475,1999,1609056037739203072,0.34891238177619144,-1.1990438891670792,5.038429909778163,0.0,0.0,0.0,1.0
1609056037782034814,2000,1609056037781560040,0.3613821537651205,-1.2308532863111026,5.0423313078304135,0.0,0.0,0.0,1.0
1609056037833256316,2001,1609056037832877017,0.3746403671876024,-1.2637944440108555,5.045435478717424,0.0,0.0,0.0,1.0
1609056037883111782,2002,1609056037882784939,0.3876217453622175,-1.295051798031544,5.047986200300289,0.0,0.0,0.0,1.0
1609056037938419660,2003,1609056037937604046,0.4016573647875852,-1.3270329604941011,5.053831718616639,0.0,0.0,0.0,1.0
1609056037990270212,2004,1609056037989488936,0.4335996966395754,-1.3916084380941456,5.058219193137596,0.0,0.0,0.0,1.0
1609056038040660595,2005,1609056038039882994,0.4463826418297856,-1.4229680371461626,5.059419316521971,0.0,0.0,0.0,1.0
1609056038092277827,2006,1609056038091559029,0.4631770834353297,-1.45470116128444,5.060498670575382,0.0,0.0,0.0,1.0
1609056038138633089,2007,1609056038137525893,0.47881437240321034,-1.488609980032436,5.061327241356379,0.0,0.0,0.0,1.0
1609056038190070748,2008,1609056038189299918,0.49615226908399634,-1.5206109044250198,5.061528254526036,0.0,0.0,0.0,1.0
1609056038241156597,2009,1609056038240727044,0.5321136740243979,-1.585690320876985,5.061098437445063,0.0,0.0,0.0,1.0
1609056038287872664,2010,1609056038287572003,0.5498494234226925,-1.6188720683535607,5.0596046341755,0.0,0.0,0.0,1.0
1609056038339926058,2011,1609056038339598036,0.5702234722669104,-1.651620770878992,5.0578361796877545,0.0,0.0,0.0,1.0
1609056038387180514,2012,1609056038386910058,0.5897460961527123,-1.68528259997057,5.055993388663882,0.0,0.0,0.0,1.0
1609056038441021310,2013,1609056038440481043,0.6102766931662096,-1.7169448061014947,5.053711023514543,0.0,0.0,0.0,1.0
1609056038487233942,2014,1609056038486528969,0.6531421606693293,-1.782637369936225,5.0489632356113505,0.0,0.0,0.0,1.0
1609056038539154529,2015,1609056038538049078,0.6736163138090525,-1.8135620493580618,5.047599535136628,0.0,0.0,0.0,1.0
1609056038590117775,2016,1609056038589195109,0.6961739210850588,-1.8439140051005865,5.04627540025282,0.0,0.0,0.0,1.0
1609056038639022158,2017,1609056038638247109,0.7175992823768986,-1.876307217211675,5.04543181510121,0.0,0.0,0.0,1.0
1609056038689596006,2018,1609056038688869095,0.7419684440815608,-1.908592461606844,5.044361926138546,0.0,0.0,0.0,1.0
1609056038738098450,2019,1609056038737516022,0.7656097623542593,-1.9397298148522495,5.04402775478964,0.0,0.0,0.0,1.0
1609056038788453204,2020,1609056038787813044,0.814475456099327,-2.000864606616311,5.043497968389772,0.0,0.0,0.0,1.0
1609056038839393895,2021,1609056038838742114,0.8395195381905864,-2.0315637679950243,5.04288717884471,0.0,0.0,0.0,1.0
1609056038886514712,2022,1609056038886173106,0.863922070057729,-2.0613175766007217,5.042281413209244,0.0,0.0,0.0,1.0
1609056038943091093,2023,1609056038942495919,0.8922267756314888,-2.0912723198109546,5.042088917727259,0.0,0.0,0.0,1.0
1609056038987575878,2024,1609056038987329102,0.9446452349480516,-2.149244512895315,5.039656734639221,0.0,0.0,0.0,1.0
1609056039046344081,2025,1609056039045987940,0.9720784196731209,-2.1759205620333475,5.039516867934665,0.0,0.0,0.0,1.0
1609056039092202006,2026,1609056039091722107,0.9986135448275455,-2.2047803284637055,5.039501950251118,0.0,0.0,0.0,1.0
1609056039136591284,2027,1609056039136261082,1.0250808662233482,-2.2324293749017343,5.038619498944884,0.0,0.0,0.0,1.0
1609056039189770268,2028,1609056039189349032,1.0514710694172926,-2.258318439411724,5.037853013191707,0.0,0.0,0.0,1.0
1609056039237472896,2029,1609056039237206078,1.1038211336870312,-2.309094619660115,5.03632117431006,0.0,0.0,0.0,1.0
1609056039289154876,2030,1609056039288714982,1.1295652466891042,-2.332266553188269,5.035495515096801,0.0,0.0,0.0,1.0
1609056039337431110,2031,1609056039336931086,1.1546352282518484,-2.3573688049326904,5.03365978356741,0.0,0.0,0.0,1.0
1609056039386930983,2032,1609056039386614895,1.1802633778690037,-2.37934991606042,5.032035773245519,0.0,0.0,0.0,1.0
1609056039440928310,2033,1609056039440646983,1.2065649483235141,-2.4009370123241283,5.029479623574344,0.0,0.0,0.0,1.0
1609056039486469552,2034,1609056039486214972,1.254694198043154,-2.443435582587547,5.02516948876319,0.0,0.0,0.0,1.0
1609056039541319934,2035,1609056039540790892,1.2783353016254928,-2.4638977654625265,5.022460843582395,0.0,0.0,0.0,1.0
1609056039587567245,2036,1609056039587255097,1.3016394688842077,-2.483822392171021,5.020459910456626,0.0,0.0,0.0,1.0
1609056039639619638,2037,1609056039639364100,1.3262498758055266,-2.5033487167556743,5.01426301719453,0.0,0.0,0.0,1.0
1609056039744297214,2038,1609056039743686057,1.39139536737893,-2.5584424671047614,5.006153989749467,0.0,0.0,0.0,1.0
1609056039782628700,2039,1609056039782301999,1.4102901968776038,-2.577124003205448,5.00192696625464,0.0,0.0,0.0,1.0
1609056039830187617,2040,1609056039829820967,1.430022914487079,-2.5939616825331555,5.001636228932778,0.0,0.0,0.0,1.0
1609056039900198642,2041,1609056039899846888,1.4674024468129758,-2.6256128609334652,4.988846139324294,0.0,0.0,0.0,1.0
1609056039945351151,2042,1609056039945014096,1.4863400393309618,-2.641118969720168,4.985562686980071,0.0,0.0,0.0,1.0
