%time,field.header.seq,field.header.stamp,field.pose.position.x,field.pose.position.y,field.pose.position.z,field.pose.orientation.x,field.pose.orientation.y,field.pose.orientation.z,field.pose.orientation.w
1609046839925351162,579,1609046839924956989,-0.00017258162194266902,-7.856946255380137e-05,0.0002775103100578491,0.0,0.0,0.0,1.0
1609046839974326522,580,1609046839973895025,0.00018462763580018304,-5.753608564695867e-05,0.00028240476956042926,0.0,0.0,0.0,1.0
1609046840023148053,581,1609046840022637081,8.699138519219218e-05,-0.00015263847290469812,0.00018718668293438157,0.0,0.0,0.0,1.0
1609046840072981736,582,1609046840072735023,0.00016057376883082952,-0.00017672104714172576,0.00025568702835343515,0.0,0.0,0.0,1.0
1609046840121933921,583,1609046840121411037,0.00010878687876925142,-8.171808536161507e-05,0.00018899502039815275,0.0,0.0,0.0,1.0
1609046840175005923,584,1609046840174370002,0.00016318254103353524,-4.686982227752878e-05,0.00010762074342096639,0.0,0.0,0.0,1.0
1609046840223941080,585,1609046840223540973,0.00012270791543755877,-5.586812622304649e-05,0.0001783996908883978,0.0,0.0,0.0,1.0
1609046840270970550,586,1609046840270759057,0.00023312203582648294,-0.00012113569412086633,0.0001526595460692448,0.0,0.0,0.0,1.0
1609046840323973277,587,1609046840323651027,0.0001584624880237584,-5.1216776062901204e-05,0.00011388235546405667,0.0,0.0,0.0,1.0
1609046840371434522,588,1609046840371103954,0.000192014441729782,8.020723688773046e-06,8.649443354613595e-05,0.0,0.0,0.0,1.0
1609046840422718102,589,1609046840422040891,-4.96929377646893e-07,-3.104049928204233e-05,0.00020379174133822175,0.0,0.0,0.0,1.0
1609046840474248356,590,1609046840473989915,0.00014920668212781152,-0.0002218564736029549,2.821084653170658e-05,0.0,0.0,0.0,1.0
1609046840522659861,591,1609046840522263002,5.5615970047995233e-05,-0.0001590335524017661,0.00024240472293968196,0.0,0.0,0.0,1.0
1609046840572474443,592,1609046840572076034,-6.093758162251106e-05,-0.00014427986361198464,0.00024918560568742976,0.0,0.0,0.0,1.0
1609046840623342432,593,1609046840622775983,9.94168016781316e-05,-0.00033661320389910543,0.00027424291986832827,0.0,0.0,0.0,1.0
1609046840673073339,594,1609046840672587108,0.0001403427390087586,-0.00020277910641830488,0.00027803901228651284,0.0,0.0,0.0,1.0
1609046840726350441,595,1609046840724960994,1.80432530321184e-05,-0.00017496535110161915,8.191921807032543e-05,0.0,0.0,0.0,1.0
1609046840770953087,596,1609046840770633888,3.799076372601462e-05,-0.00017005257263136286,4.732536135421128e-05,0.0,0.0,0.0,1.0
1609046840822374642,597,1609046840822104883,1.0833969351864425e-05,-0.00033529148561939337,0.0002202374628978987,0.0,0.0,0.0,1.0
1609046840871098692,598,1609046840870809984,3.8058039464772264e-05,-0.00015714300187141816,5.4998610448109275e-05,0.0,0.0,0.0,1.0
1609046840923226451,599,1609046840922810983,8.472402299730675e-05,-0.00018873372494709884,0.00016964741900693525,0.0,0.0,0.0,1.0
1609046840974450552,600,1609046840974035930,0.000142001503402156,-4.246321717182866e-05,0.0001501681876554528,0.0,0.0,0.0,1.0
1609046841020866262,601,1609046841020522069,0.0001394921203292654,-4.207201523342974e-05,0.0001551298573012616,0.0,0.0,0.0,1.0
1609046841072603301,602,1609046841072194051,0.0002167922246982812,-8.518891568343179e-05,0.00020512871243205666,0.0,0.0,0.0,1.0
1609046841123722264,603,1609046841123330068,0.000167517966442432,-0.0002256705095433631,-8.574313264730904e-06,0.0,0.0,0.0,1.0
1609046841173800122,604,1609046841173305940,6.830604795027284e-05,-0.00020682228655388712,0.00018963434692764736,0.0,0.0,0.0,1.0
1609046841223316030,605,1609046841223003101,7.029362594579425e-05,-0.00018729256560945373,0.00019769149532322672,0.0,0.0,0.0,1.0
1609046841272604741,606,1609046841271548938,6.388664358070173e-05,-0.00018214953849238213,0.00021286369121575888,0.0,0.0,0.0,1.0
1609046841322918454,607,1609046841322617959,5.986674990410279e-05,-0.00018148021123920444,0.0002208378301826741,0.0,0.0,0.0,1.0
1609046841377098214,608,1609046841376768064,-2.3621181853172857e-05,-0.0001279038450583414,0.00018881054143093934,0.0,0.0,0.0,1.0
1609046841429605242,609,1609046841428889942,-2.9193102388802572e-05,-0.00013010358910747755,0.00019797375959385022,0.0,0.0,0.0,1.0
1609046841476734563,610,1609046841476072978,-5.1761414745499223e-05,-0.0001234298440575543,0.00046611812360453087,0.0,0.0,0.0,1.0
1609046841522281567,611,1609046841521974039,4.341078306424606e-05,-0.0002315982289573526,0.0004431573005074796,0.0,0.0,0.0,1.0
1609046841571880816,612,1609046841571499061,-0.00014894612241533878,-0.0002707757238020747,0.0003384840955309443,0.0,0.0,0.0,1.0
1609046841624421710,613,1609046841623732995,-0.0001346664134551645,-0.0002587588683908848,0.0003188546439147899,0.0,0.0,0.0,1.0
1609046841671685499,614,1609046841671352100,-7.00801378172855e-06,-0.00015820906978802896,0.00036082890621536023,0.0,0.0,0.0,1.0
1609046841723001011,615,1609046841722408962,-5.7766116739799145e-05,-0.00028186877699099,0.00038169509213403785,0.0,0.0,0.0,1.0
1609046841773493176,616,1609046841772855949,5.256837529898917e-05,-0.00017449794293256105,0.00023879988999553348,0.0,0.0,0.0,1.0
1609046841822652397,617,1609046841822185945,-3.526787798691089e-05,-0.00014227186833259964,0.00020206084970908478,0.0,0.0,0.0,1.0
1609046841873146612,618,1609046841872827959,-6.457404446891246e-05,-0.00014450768656182333,0.0002558957054770161,0.0,0.0,0.0,1.0
1609046841922750588,619,1609046841922381114,-9.53697832883904e-06,-6.156890935216097e-05,0.0002023691437020858,0.0,0.0,0.0,1.0
1609046841972967417,620,1609046841972078037,0.00016704385975785385,-3.7467330733065296e-05,0.00010603077120840965,0.0,0.0,0.0,1.0
1609046842022219854,621,1609046842021949958,0.00013648371355756694,-0.00012589439397636681,0.00011014879683735046,0.0,0.0,0.0,1.0
1609046842070504863,622,1609046842070270013,7.350860673582815e-05,-0.00010205668790241873,0.0002431375140901082,0.0,0.0,0.0,1.0
1609046842123671010,623,1609046842123321008,1.2140013083694612e-07,-4.700213306918499e-05,0.00019298316346016975,0.0,0.0,0.0,1.0
1609046842174544217,624,1609046842174127054,9.77838481936999e-05,-4.595844412591532e-06,0.0002563127300145851,0.0,0.0,0.0,1.0
1609046842223072733,625,1609046842222263050,7.226469892884779e-05,-9.471225783208581e-05,0.0002499174615930855,0.0,0.0,0.0,1.0
1609046842272181411,626,1609046842271814060,9.483794615405827e-05,-3.92606773189641e-05,0.0002409150208997346,0.0,0.0,0.0,1.0
1609046842323044295,627,1609046842322137069,0.00018655028041436594,-5.886950398448221e-05,0.00027797863046785665,0.0,0.0,0.0,1.0
1609046842372399921,628,1609046842372158002,9.413915652345395e-06,-4.141910890709255e-06,0.00020138144692616322,0.0,0.0,0.0,1.0
1609046842421182611,629,1609046842420614910,5.00982618945045e-05,-0.00017537906008335824,0.0002429189134076637,0.0,0.0,0.0,1.0
1609046842472776421,630,1609046842472456884,0.00010081546301066169,-4.4528520211528644e-05,0.00022647605382530855,0.0,0.0,0.0,1.0
1609046842523511035,631,1609046842523184013,0.00018993625683094706,-3.9960850909182e-05,0.00028302751062270204,0.0,0.0,0.0,1.0
1609046842572189341,632,1609046842571367931,1.3679286801959734e-05,9.081311590719565e-06,0.00020133913912445678,0.0,0.0,0.0,1.0
1609046842623936759,633,1609046842623454046,0.00010026196462931125,-1.7450192260071162e-06,0.00025336878331572166,0.0,0.0,0.0,1.0
1609046842674503100,634,1609046842673422050,9.691103334930062e-05,-1.6818622787795334e-05,0.00025057109101034314,0.0,0.0,0.0,1.0
1609046842723458276,635,1609046842722834062,9.697107574879738e-05,-2.5877292516796047e-05,0.0002449846341718853,0.0,0.0,0.0,1.0
1609046842772661762,636,1609046842772319030,9.883196238646974e-05,-2.3358295003106377e-05,0.00024300247550179677,0.0,0.0,0.0,1.0
1609046842825732614,637,1609046842825463962,9.73234006451662e-05,-5.099900077354391e-05,0.00022914228700265937,0.0,0.0,0.0,1.0
1609046842872720142,638,1609046842872034025,0.00016128296515915963,-5.5483745752482605e-05,0.00010599313050185799,0.0,0.0,0.0,1.0
1609046842924910752,639,1609046842924433898,0.00016077699163830061,-7.546127182855855e-05,9.487534756402738e-05,0.0,0.0,0.0,1.0
1609046842975460905,640,1609046842975161027,0.00018413497641134313,-6.846895833412248e-05,0.00027672668103484455,0.0,0.0,0.0,1.0
1609046843022632072,641,1609046843022078943,0.00018127121985855865,-5.8630124685876694e-05,0.0002880640927287459,0.0,0.0,0.0,1.0
1609046843074291834,642,1609046843073831987,7.019257078866303e-05,-3.407890227968835e-05,6.884345851965179e-05,0.0,0.0,0.0,1.0
1609046843122450575,643,1609046843121874046,0.00018731859349685465,-5.956095511905346e-05,0.0002761140612577151,0.0,0.0,0.0,1.0
1609046843174457478,644,1609046843174096059,5.580120930304133e-05,-0.00018606609607196845,0.0002257227123312333,0.0,0.0,0.0,1.0
1609046843223067779,645,1609046843222712945,0.00016059883989782975,-6.351335288989901e-05,0.00010242982277652857,0.0,0.0,0.0,1.0
1609046843272126927,646,1609046843271800947,0.00024805533975325034,-8.055654743621687e-05,0.0001490576268459165,0.0,0.0,0.0,1.0
1609046843324129419,647,1609046843323832941,0.00015106353414395812,-5.174404929952914e-05,0.00012749635634357048,0.0,0.0,0.0,1.0
1609046843371044359,648,1609046843370558929,6.129772912899512e-05,-0.00012574908937068585,0.00025181628632608977,0.0,0.0,0.0,1.0
1609046843423864067,649,1609046843423561048,9.674242269142042e-05,-3.628715403181104e-05,0.00023912540849302388,0.0,0.0,0.0,1.0
1609046843474444547,650,1609046843474136066,0.00010438208750329636,-1.9220922078844183e-05,0.0002350510824733476,0.0,0.0,0.0,1.0
1609046843521982352,651,1609046843521696043,0.000126479527033041,5.903335497059459e-05,0.0002407228218430646,0.0,0.0,0.0,1.0
1609046843572743867,652,1609046843571726989,0.0001458624988437407,-5.253629340984389e-05,0.0003584233270306214,0.0,0.0,0.0,1.0
1609046843625613818,653,1609046843625276041,9.805596870293698e-05,-3.023790203293686e-05,0.00024030696015842068,0.0,0.0,0.0,1.0
1609046843672830329,654,1609046843672438097,8.592067370827294e-05,-9.464478869425363e-05,0.00022424309158530775,0.0,0.0,0.0,1.0
1609046843724301625,655,1609046843723682117,7.604657514903579e-05,-0.00010165869818479223,0.000238598813124824,0.0,0.0,0.0,1.0
1609046843772142307,656,1609046843771346044,3.334809061072974e-05,-1.0120804493141122e-05,0.00037431211001681675,0.0,0.0,0.0,1.0
1609046843822482421,657,1609046843822111082,7.268088217315949e-05,-0.0001734561121775613,0.0004231690119382847,0.0,0.0,0.0,1.0
1609046843873502128,658,1609046843872921895,3.154864225507481e-05,-9.290987613042034e-06,0.00037820202724070384,0.0,0.0,0.0,1.0
1609046843922703606,659,1609046843922455024,3.855337343949827e-05,7.600794724282878e-06,0.00037521788913075227,0.0,0.0,0.0,1.0
1609046843974471186,660,1609046843974224996,9.959600251363554e-05,-1.8334524677143804e-05,0.00024459917759500627,0.0,0.0,0.0,1.0
1609046844021845933,661,1609046844021499109,0.0001447832917733649,0.00011829212956016022,0.0002420611804474504,0.0,0.0,0.0,1.0
1609046844073058554,662,1609046844072838973,0.00010187746761047833,-2.3227746144272032e-05,0.0002373464635727629,0.0,0.0,0.0,1.0
1609046844124092165,663,1609046844123650026,0.00018409862307677827,-5.379239249947432e-05,0.00028566293202203497,0.0,0.0,0.0,1.0
1609046844174820917,664,1609046844173968982,1.4001507569361138e-05,-7.152726203329962e-06,0.00019092352094318699,0.0,0.0,0.0,1.0
1609046844223126739,665,1609046844222342920,9.814388596396384e-05,-4.110751541830382e-05,0.0002335738280248023,0.0,0.0,0.0,1.0
1609046844274293155,666,1609046844273637008,0.00010316208094351964,-4.7698744458202214e-05,0.00022014172831497092,0.0,0.0,0.0,1.0
1609046844322263087,667,1609046844321777057,0.00013858071478267675,-0.00020070690300144634,0.00028260906218768866,0.0,0.0,0.0,1.0
1609046844371513589,668,1609046844371246051,9.719519736961502e-05,-3.819070821720061e-05,0.00023712264835751284,0.0,0.0,0.0,1.0
1609046844421247894,669,1609046844420952987,0.00018543728079123412,-6.750198896732229e-05,0.00027485861201981265,0.0,0.0,0.0,1.0
1609046844474450796,670,1609046844473952960,9.502951666107151e-05,-4.51094762876636e-05,0.0002370203536958826,0.0,0.0,0.0,1.0
1609046844523922328,671,1609046844523555946,7.760423028457808e-05,-2.9478303098073866e-05,5.7666679746049e-05,0.0,0.0,0.0,1.0
1609046844570618308,672,1609046844570110988,0.00018055858392429514,-6.398852906741581e-05,0.00028616840721973347,0.0,0.0,0.0,1.0
1609046844623219075,673,1609046844622555923,0.00010073302350832591,-3.8019310222736635e-05,0.00023056424703504774,0.0,0.0,0.0,1.0
1609046844673834774,674,1609046844673063945,0.00026727794070424693,-9.227510723519572e-05,0.0003273909043421952,0.0,0.0,0.0,1.0
1609046844723223424,675,1609046844722726058,0.0001027643049802407,-4.548167769868883e-05,0.00022223034689261567,0.0,0.0,0.0,1.0
1609046844772684909,676,1609046844772412967,0.000100681750105025,-3.478202814477527e-05,0.00023261681013053703,0.0,0.0,0.0,1.0
1609046844822289831,677,1609046844821927022,9.964421915142907e-05,-3.958192302455643e-05,0.00023167038514415594,0.0,0.0,0.0,1.0
1609046844872994195,678,1609046844872564983,1.4004055110206082e-05,-8.344486770894832e-06,0.00019019864473612813,0.0,0.0,0.0,1.0
1609046844924468463,679,1609046844924167108,9.89300659988146e-05,-4.1571389706618334e-05,0.00023181311941122829,0.0,0.0,0.0,1.0
1609046844972373752,680,1609046844972058010,0.0001022660981249146,-3.9683984700999986e-05,0.00022667154717481708,0.0,0.0,0.0,1.0
1609046845022914000,681,1609046845022650909,9.887413563092196e-05,-3.346124458936117e-05,0.00023681870537117788,0.0,0.0,0.0,1.0
1609046845074577796,682,1609046845074275922,9.959947516691159e-05,-3.701998036120813e-05,0.00023330260298948247,0.0,0.0,0.0,1.0
1609046845122306866,683,1609046845122040939,0.00018139137092987312,-7.000263072498569e-05,0.0002809664069811646,0.0,0.0,0.0,1.0
1609046845175257304,684,1609046845174636077,0.00010038814029300624,-3.9008362286097054e-05,0.00023061608579055815,0.0,0.0,0.0,1.0
1609046845223061226,685,1609046845222779941,0.00018082277423658866,-6.36575563373043e-05,0.00028587089749620986,0.0,0.0,0.0,1.0
1609046845273186735,686,1609046845272619915,0.00017978866945966843,-5.5739430337098383e-05,0.0002926024381419978,0.0,0.0,0.0,1.0
1609046845323552132,687,1609046845323249053,0.00018608740551684377,-6.883602157259361e-05,0.0002728283434603185,0.0,0.0,0.0,1.0
1609046845372640580,688,1609046845371564102,9.798952959272356e-05,-3.6954970653368946e-05,0.00023637351783456495,0.0,0.0,0.0,1.0
1609046845424128837,689,1609046845423824977,1.1146803650774473e-05,-1.1054762579121302e-05,0.00019394145350837277,0.0,0.0,0.0,1.0
1609046845472770606,690,1609046845472536039,0.00018638660867509316,-6.5027865687739e-05,0.00027456586483864953,0.0,0.0,0.0,1.0
1609046845522656214,691,1609046845522335958,8.833243384742673e-05,-3.640209527411287e-05,0.0002548925472503072,0.0,0.0,0.0,1.0
1609046845572296470,692,1609046845571994018,8.752936207656603e-05,-3.805805578416255e-05,0.00025540423132675016,0.0,0.0,0.0,1.0
1609046845623582379,693,1609046845622631978,4.722058775996629e-05,-0.00017949908219350164,0.0002458484423168983,0.0,0.0,0.0,1.0
1609046845674037461,694,1609046845673305940,5.3526074150767045e-05,-0.0001770303736829959,0.0002354663691885861,0.0,0.0,0.0,1.0
1609046845725014627,695,1609046845724338960,0.0001664513318822003,-5.095949183164805e-05,9.899445312377964e-05,0.0,0.0,0.0,1.0
1609046845770383458,696,1609046845769895029,0.00020080001359801258,-0.00022712629258414552,0.0001494838054902914,0.0,0.0,0.0,1.0
1609046845823093372,697,1609046845822790098,0.0002236997758231496,-0.00023007573439670637,0.0003261911312328891,0.0,0.0,0.0,1.0
1609046845873648673,698,1609046845873218011,5.9974042475374745e-05,-0.00017784415221910876,0.00022283271154499573,0.0,0.0,0.0,1.0
1609046845927866016,699,1609046845927535009,5.617990176531862e-05,-0.00016853618367562717,0.00023560125673860455,0.0,0.0,0.0,1.0
1609046845972643799,700,1609046845972301912,-2.6745678532336115e-05,-0.00016111172919863748,0.00017462982853366782,0.0,0.0,0.0,1.0
1609046846021105015,701,1609046846020857048,-2.7406773284610608e-05,-0.0001609090826821813,0.00017599715440930197,0.0,0.0,0.0,1.0
1609046846074150802,702,1609046846073835086,0.00014163826175561667,-0.0002101241820096078,0.000271161528498709,0.0,0.0,0.0,1.0
1609046846124772179,703,1609046846124362897,6.567003216062517e-05,-0.00019626049792798028,0.00020097957724374282,0.0,0.0,0.0,1.0
1609046846175231225,704,1609046846174699974,0.00018738721230704414,-6.90804046836746e-05,0.00027023306256701574,0.0,0.0,0.0,1.0
1609046846221901966,705,1609046846221576881,5.972961215050532e-05,-0.00019360746509278215,0.00021376874638079357,0.0,0.0,0.0,1.0
1609046846272574204,706,1609046846272352886,5.9688263675639064e-05,-0.0001573794407256912,0.00023573573220225796,0.0,0.0,0.0,1.0
1609046846324022100,707,1609046846323753070,5.923880392799674e-05,-0.00013721969814639579,0.00024876275217700083,0.0,0.0,0.0,1.0
1609046846374018024,708,1609046846373789024,0.0001805556891376625,-5.291104273652536e-05,0.00029286704316255907,0.0,0.0,0.0,1.0
1609046846424592728,709,1609046846423505973,0.00010071664406297032,-2.5783691240732765e-05,0.00023798803090535614,0.0,0.0,0.0,1.0
1609046846472682584,710,1609046846472284030,5.324135618067771e-05,-0.00016916821817858363,0.00024075286618518987,0.0,0.0,0.0,1.0
1609046846523650299,711,1609046846523290109,0.00014185132152277902,-0.00017399406195650613,0.00029259033713735505,0.0,0.0,0.0,1.0
1609046846571707144,712,1609046846571126890,-3.0442338708525085e-05,-0.0001423595733882621,0.00019292102431656133,0.0,0.0,0.0,1.0
1609046846627443803,713,1609046846626654100,5.413797171982537e-05,-0.0001754590769138531,0.0002352635079443388,0.0,0.0,0.0,1.0
1609046846674404479,714,1609046846673835945,-3.157443153867234e-05,-0.00015197360226437695,0.00018924399266495584,0.0,0.0,0.0,1.0
1609046846722217243,715,1609046846721317958,-3.3254722506370626e-05,-0.0001437812495481694,0.00019735795775943643,0.0,0.0,0.0,1.0
1609046846773411364,716,1609046846771877002,5.526576120473692e-05,-0.00016179438893715314,0.000241396077058198,0.0,0.0,0.0,1.0
1609046846821164172,717,1609046846820827913,5.495036902303241e-05,-0.00016445436261847135,0.00024038281147298335,0.0,0.0,0.0,1.0
1609046846874313009,718,1609046846874058914,0.00017631872056966813,-5.583949337228944e-05,0.00029907613269486433,0.0,0.0,0.0,1.0
1609046846923881647,719,1609046846923628997,0.00017873428108217126,-4.97456803056906e-05,0.00029820944274305816,0.0,0.0,0.0,1.0
1609046846972228005,720,1609046846971706104,9.870775426179534e-05,-3.0404018181329207e-05,0.0002389792341190855,0.0,0.0,0.0,1.0
1609046847023389038,721,1609046847022654008,0.00010689394607155123,-2.243454260053568e-05,0.00022837936848141283,0.0,0.0,0.0,1.0
1609046847074239835,722,1609046847073791933,0.00024395220358996994,-8.161092419278759e-05,0.00015614695680099544,0.0,0.0,0.0,1.0
1609046847130201984,723,1609046847129586887,0.00024471836073303166,-8.07255894468284e-05,0.00015523917376825125,0.0,0.0,0.0,1.0
1609046847173354396,724,1609046847173150014,0.00015081009042816618,-8.460938832399734e-05,0.00010811612925643033,0.0,0.0,0.0,1.0
1609046847220799919,725,1609046847220482063,8.749537926533435e-05,-3.6762302269011116e-05,0.00025625113729610405,0.0,0.0,0.0,1.0
1609046847272124045,726,1609046847271656942,0.0001764344285675179,-4.865326702230277e-05,0.00030320027980046405,0.0,0.0,0.0,1.0
1609046847328106068,727,1609046847327774953,-2.7649894597914226e-05,0.00013763596701465985,0.00013522787457276308,0.0,0.0,0.0,1.0
1609046847383050299,728,1609046847382671070,0.00016438052326961383,-4.3624187915369816e-05,0.00010732592784634676,0.0,0.0,0.0,1.0
1609046847426920462,729,1609046847426676940,4.983172715711248e-05,-0.00017330956147176835,0.0002446712189012601,0.0,0.0,0.0,1.0
1609046847473355239,730,1609046847472999048,-3.3238635207766265e-05,-0.00013340851606002957,0.00020359492933685885,0.0,0.0,0.0,1.0
1609046847522748329,731,1609046847522292089,5.4811688627864896e-05,-0.00015346081425171576,0.0002472863260365443,0.0,0.0,0.0,1.0
1609046847575432695,732,1609046847574919891,-3.127228396948567e-05,-0.00013581457135458663,0.00019843839617195158,0.0,0.0,0.0,1.0
1609046847626265450,733,1609046847625672054,0.00010102040716830629,-2.4567582446621827e-05,0.00023815081612887923,0.0,0.0,0.0,1.0
1609046847673366881,734,1609046847672687005,0.00018817825282368972,-6.0179272344029755e-05,0.00027412166993023845,0.0,0.0,0.0,1.0
1609046847724390309,735,1609046847723982048,7.188824184822806e-05,-0.00011311173920525164,0.00023950920512127993,0.0,0.0,0.0,1.0
1609046847772083644,736,1609046847771470975,7.390689076203216e-05,-0.0001745985845271747,0.0001985572243512479,0.0,0.0,0.0,1.0
1609046847824913069,737,1609046847824279975,0.0001515815891615091,-4.7802317613587775e-05,0.00012890246273045136,0.0,0.0,0.0,1.0
1609046847874335115,738,1609046847873785924,9.927962840450277e-05,-3.196143192951695e-05,0.00023696134415729375,0.0,0.0,0.0,1.0
1609046847922607093,739,1609046847922109079,1.1576023130288604e-05,-1.2539478486672806e-06,0.0001990550019677073,0.0,0.0,0.0,1.0
1609046847972902778,740,1609046847972589921,9.277519660244593e-05,-2.453699059934422e-05,0.0002536955955871889,0.0,0.0,0.0,1.0
1609046848021192850,741,1609046848020910930,4.555621302060331e-05,-0.00017161794149700427,0.00025374440701497747,0.0,0.0,0.0,1.0
1609046848073300171,742,1609046848072874021,9.806340594664675e-05,-2.028555196176285e-05,0.00024630631951971793,0.0,0.0,0.0,1.0
1609046848123897751,743,1609046848123563957,0.00013758262679886002,-0.00019775328653004465,0.00028627312230078417,0.0,0.0,0.0,1.0
1609046848171220971,744,1609046848170902919,5.227855801237524e-05,-0.00016645587727737166,0.00024420469474684126,0.0,0.0,0.0,1.0
1609046848222314268,745,1609046848221879911,-3.101349102507811e-05,-0.00014358873780651038,0.00019325387688340356,0.0,0.0,0.0,1.0
1609046848273252500,746,1609046848272422027,9.501425091329452e-05,-3.231479974630247e-05,0.0002447798286553393,0.0,0.0,0.0,1.0
1609046848323714479,747,1609046848323150110,0.0001574315224353029,-4.078467000212527e-05,0.00012212688200641253,0.0,0.0,0.0,1.0
1609046848372808804,748,1609046848372193050,0.00010011050528646592,-1.813148076479365e-05,0.00024375301630286117,0.0,0.0,0.0,1.0
1609046848423752219,749,1609046848423114013,9.955894595847781e-05,-1.9586377183244963e-05,0.00024391256831357566,0.0,0.0,0.0,1.0
1609046848473172206,750,1609046848472372961,0.0002393403015297224,-6.542938168685453e-05,0.00017460841858607523,0.0,0.0,0.0,1.0
1609046848525747375,751,1609046848525217962,9.895402105897233e-05,-1.2421372579396461e-05,0.00024938089575599065,0.0,0.0,0.0,1.0
1609046848575923999,752,1609046848575605106,0.0001919488937396352,-5.651124077132863e-05,0.0002692375844368655,0.0,0.0,0.0,1.0
1609046848622812189,753,1609046848622600984,0.00015806844078269933,-4.1000179002992354e-05,0.00012079732185377168,0.0,0.0,0.0,1.0
1609046848673162227,754,1609046848672212076,0.0002479939138844145,-7.112376389883934e-05,0.0001548726586211302,0.0,0.0,0.0,1.0
1609046848723075284,755,1609046848722749900,7.690546833316603e-05,-1.8364634675194225e-05,6.569744652829002e-05,0.0,0.0,0.0,1.0
1609046848775069802,756,1609046848774793100,0.00013028492406519376,-2.8369382910398144e-05,0.0001807468077732466,0.0,0.0,0.0,1.0
1609046848824147694,757,1609046848823459100,4.5039290668569265e-05,0.00012923650602658654,0.00021488636255462268,0.0,0.0,0.0,1.0
1609046848872932002,758,1609046848872559976,-1.5804910105998715e-05,0.00012710304127416805,0.0003281716126135592,0.0,0.0,0.0,1.0
1609046848924220191,759,1609046848923723888,3.622699682637176e-05,-6.919054870380137e-06,0.00037082544009159335,0.0,0.0,0.0,1.0
1609046848973509992,760,1609046848972809028,7.790714284539035e-05,-2.2437810491382493e-05,0.0002829615733634938,0.0,0.0,0.0,1.0
1609046849023665275,761,1609046849023263883,5.9865196597286285e-05,-1.3507836197135248e-05,0.00032233161854655634,0.0,0.0,0.0,1.0
1609046849107825009,762,1609046849107521963,5.339567017870195e-05,-0.00016869197737712227,0.00024075002924917044,0.0,0.0,0.0,1.0
1609046849173842269,763,1609046849173617076,0.00012657113117953145,-4.260782291609644e-05,0.00017913705547201175,0.0,0.0,0.0,1.0
1609046849221581849,764,1609046849221161079,9.568938422077622e-05,-2.555926691094612e-05,0.00024759030312360153,0.0,0.0,0.0,1.0
1609046849273321739,765,1609046849272920083,9.6509761661423e-05,-2.304098162753121e-05,0.0002475670636883365,0.0,0.0,0.0,1.0
1609046849325608236,766,1609046849325108957,9.638613628837334e-05,-2.9260358131111275e-05,0.0002440420147689082,0.0,0.0,0.0,1.0
1609046849372599701,767,1609046849371821117,-3.4398687972725384e-05,1.376874701009001e-05,0.0002947058628208765,0.0,0.0,0.0,1.0
1609046849421710643,768,1609046849421040964,3.516057617858337e-05,1.476214972484513e-06,0.00037790621781574885,0.0,0.0,0.0,1.0
1609046849472430514,769,1609046849472056102,5.012843118379351e-05,-1.150489628365392e-05,0.00034187696979337545,0.0,0.0,0.0,1.0
1609046849525216576,770,1609046849524914932,0.0002110875081378083,-0.0002021780642120774,0.00014518563585674826,0.0,0.0,0.0,1.0
1609046849573842600,771,1609046849573526096,4.846320669571469e-05,-0.00017526611180151974,0.00024606608324972967,0.0,0.0,0.0,1.0
1609046849622754239,772,1609046849622224998,9.61803591614796e-05,-2.8084450349297185e-05,0.0002451400086371791,0.0,0.0,0.0,1.0
1609046849673610293,773,1609046849673258018,0.00010030998688392856,-2.0707296698674327e-05,0.0002418210300323409,0.0,0.0,0.0,1.0
1609046849723618515,774,1609046849723133039,9.549519564444608e-06,-3.916969731676545e-06,0.0002012620083320371,0.0,0.0,0.0,1.0
1609046849773501291,775,1609046849773039054,9.843610309445694e-05,-2.9478804167482053e-05,0.0002400497997854245,0.0,0.0,0.0,1.0
1609046849823670196,776,1609046849823186111,0.00024516460701562437,-7.044532425659611e-05,0.00016061029344172084,0.0,0.0,0.0,1.0
1609046849872614054,777,1609046849872113895,0.00016574105625366542,-3.941403094209761e-05,0.00010730779563239423,0.0,0.0,0.0,1.0
1609046849923014870,778,1609046849922757101,7.933571778195869e-05,-1.63517775888522e-05,6.233736106331378e-05,0.0,0.0,0.0,1.0
1609046849973503770,779,1609046849973224115,0.00010142952752545398,-2.272298260308503e-05,0.0002384949506879508,0.0,0.0,0.0,1.0
1609046850022323181,780,1609046850022011947,-6.147670301714925e-06,-0.00011449495325699388,0.0003856214468545005,0.0,0.0,0.0,1.0
1609046850073437721,781,1609046850072936964,9.550032423533139e-05,-3.497346296477133e-05,0.0002422581154668535,0.0,0.0,0.0,1.0
1609046850123528976,782,1609046850123157930,-7.049539908265956e-05,3.2629146568652345e-05,0.00015246163183491035,0.0,0.0,0.0,1.0
1609046850172042045,783,1609046850171808910,9.386123216970077e-05,-2.862570181605406e-05,0.00024918005155960543,0.0,0.0,0.0,1.0
1609046850223428759,784,1609046850223164033,0.00017805291010120072,-5.652254156984782e-05,0.00029539782483212207,0.0,0.0,0.0,1.0
1609046850274082610,785,1609046850273771953,9.712010405138471e-05,-2.8938384486920654e-05,0.00024285444489891006,0.0,0.0,0.0,1.0
1609046850323486420,786,1609046850323239994,0.00026676918500001534,-8.015813818218476e-05,0.00033567017985625114,0.0,0.0,0.0,1.0
1609046850373033442,787,1609046850372698020,6.028519086598294e-05,-0.00013810915728917905,0.0002462549129056413,0.0,0.0,0.0,1.0
1609046850421695109,788,1609046850421312046,-2.659377168612309e-05,-0.00010997460504036383,0.00020524110945530083,0.0,0.0,0.0,1.0
1609046850474967432,789,1609046850474554967,0.00018268001907983944,-5.379833122631794e-05,0.0002883306711911615,0.0,0.0,0.0,1.0
1609046850524733746,790,1609046850524382066,0.0002265681693423005,8.718857094436316e-05,0.00029087352417533907,0.0,0.0,0.0,1.0
1609046850573653051,791,1609046850573006105,0.00011148115684633808,7.308347091772305e-05,0.00027745517873434267,0.0,0.0,0.0,1.0
1609046850624198838,792,1609046850623729896,5.0189557239121996e-05,3.6943783566556476e-05,0.0003710356688468863,0.0,0.0,0.0,1.0
1609046850672352902,793,1609046850672074985,-9.862375566527248e-05,-0.00011884504075254654,0.0003355199242598417,0.0,0.0,0.0,1.0
1609046850725420185,794,1609046850725022029,1.4011092840604533e-05,-2.414456462318526e-06,0.0001937684038217924,0.0,0.0,0.0,1.0
1609046850772737281,795,1609046850772428941,0.0001826162425544453,-5.100676822955563e-05,0.00029013747249173605,0.0,0.0,0.0,1.0
1609046850824456369,796,1609046850824150037,0.00015212747650750202,-3.809268016397027e-05,0.00013374118522868628,0.0,0.0,0.0,1.0
1609046850872866452,797,1609046850872590017,9.909347681968939e-06,3.6645901069221054e-06,0.00020516532367054197,0.0,0.0,0.0,1.0
1609046850922152440,798,1609046850921489906,0.00010082968195490594,-1.5344386362414753e-05,0.00024408276518528282,0.0,0.0,0.0,1.0
1609046850974084941,799,1609046850973730039,0.0002725753138257403,-7.166249368495414e-05,0.00032987004805917763,0.0,0.0,0.0,1.0
1609046851022856697,800,1609046851022604894,0.0001831679861226121,-4.98167857170273e-05,0.0002898175078644982,0.0,0.0,0.0,1.0
1609046851073943854,801,1609046851073708009,0.0001694104878708913,-4.0069888992633196e-05,0.0003216130884258206,0.0,0.0,0.0,1.0
1609046851123227144,802,1609046851122944068,-2.0479821007057808e-05,-0.00010552075876191225,0.00019641915612744754,0.0,0.0,0.0,1.0
1609046851170793753,803,1609046851170309019,0.0001862936934173831,-5.006285647546349e-05,0.00028378290985209276,0.0,0.0,0.0,1.0
1609046851222615764,804,1609046851222130012,8.93112349658054e-05,-5.979679979084551e-05,0.0002389139878715696,0.0,0.0,0.0,1.0
1609046851273465437,805,1609046851273189973,-4.867343447045869e-05,2.9109307687846808e-05,0.00033085555126532995,0.0,0.0,0.0,1.0
1609046851323235713,806,1609046851322973918,0.00013209372320233115,-3.465271268332515e-05,0.0003951566853750421,0.0,0.0,0.0,1.0
1609046851372621129,807,1609046851372193050,9.953468601864301e-05,-2.445322476241074e-05,0.00024101762573636165,0.0,0.0,0.0,1.0
1609046851422209335,808,1609046851421827030,0.00018063243652122196,-5.10028433353682e-05,0.0002938754867010118,0.0,0.0,0.0,1.0
1609046851473408779,809,1609046851472825956,7.706034072896273e-05,-1.2933833669848127e-05,6.86871519448573e-05,0.0,0.0,0.0,1.0
1609046851523558057,810,1609046851523311090,4.927686716627022e-05,-0.0001734564321722587,0.00024562731996446985,0.0,0.0,0.0,1.0
1609046851572140907,811,1609046851571767997,0.00013469685710632007,-0.00019355026928025154,0.0002942467192639242,0.0,0.0,0.0,1.0
1609046851624087026,812,1609046851623686027,0.00010059310203303085,-2.3094030479953176e-05,0.00023984580323066496,0.0,0.0,0.0,1.0
1609046851674165017,813,1609046851673356008,-3.3739247495390146e-05,-0.0001431213480831417,0.0001986690687711956,0.0,0.0,0.0,1.0
1609046851722640109,814,1609046851722353887,0.00018763384690245744,-4.176179984938244e-05,0.0002862749404641818,0.0,0.0,0.0,1.0
1609046851773675221,815,1609046851773277950,0.00017701068182418567,-6.166652496908398e-05,0.00029425233926261285,0.0,0.0,0.0,1.0
1609046851823144094,816,1609046851822354984,1.2672369667399153e-05,1.6032541369170872e-05,0.00020743528111388798,0.0,0.0,0.0,1.0
1609046851872223515,817,1609046851871842098,3.737155966376804e-05,-3.480888413065486e-06,0.0003707475431635743,0.0,0.0,0.0,1.0
1609046851924203467,818,1609046851923778009,0.00013892983973917694,-0.00018680216148503348,0.0002903529567088725,0.0,0.0,0.0,1.0
1609046851975003759,819,1609046851974672031,9.661247309011856e-05,-2.3135503104398936e-05,0.00024731653965126554,0.0,0.0,0.0,1.0
1609046852023814833,820,1609046852023293924,9.155240941893794e-05,-3.7098205000418716e-05,0.00024840850903373735,0.0,0.0,0.0,1.0
1609046852072734547,821,1609046852072443914,1.2875169865367297e-05,6.9362358221525255e-06,0.00020155725707837746,0.0,0.0,0.0,1.0
1609046852121576628,822,1609046852121252012,0.00010182904255984226,-2.4406791084174984e-05,0.0002367252541493059,0.0,0.0,0.0,1.0
1609046852176562743,823,1609046852175969076,0.00033187981570748093,-9.681811143735786e-05,0.0002029969734742565,0.0,0.0,0.0,1.0
1609046852223661016,824,1609046852223165941,0.00011152516379908661,-2.5561896874748413e-05,0.0002177688932079036,0.0,0.0,0.0,1.0
1609046852272665149,825,1609046852272071075,0.00011315127998656749,-0.0001850387790867103,0.0001183498226851043,0.0,0.0,0.0,1.0
1609046852325252277,826,1609046852324950885,0.00027773787275009454,-0.00023546561063980675,0.00022117750842198802,0.0,0.0,0.0,1.0
1609046852371466012,827,1609046852371200037,9.908154451920836e-05,-7.346137187269619e-05,0.00021225955478598735,0.0,0.0,0.0,1.0
1609046852423648739,828,1609046852423197937,4.928886439969915e-05,-0.00011009637804271222,0.00028388739513829364,0.0,0.0,0.0,1.0
1609046852472508646,829,1609046852471847963,0.00013565715558527813,9.305080102528507e-05,0.00024399485440618207,0.0,0.0,0.0,1.0
1609046852523310219,830,1609046852522637081,9.44124184591999e-05,-1.7200906759384793e-05,0.0002550451739473658,0.0,0.0,0.0,1.0
1609046852574190909,831,1609046852573636007,0.00013999003033049462,0.00011926886908497636,0.0002516773760508073,0.0,0.0,0.0,1.0
1609046852626510199,832,1609046852625887107,0.00014092811906252223,0.00012030109569138858,0.00025053459117430066,0.0,0.0,0.0,1.0
1609046852672574181,833,1609046852672225904,0.0001425643836263646,0.0001191005198784012,0.0002467279786788623,0.0,0.0,0.0,1.0
1609046852724379365,834,1609046852723885011,0.00024555125204983597,8.77702876955766e-05,0.000255478685687649,0.0,0.0,0.0,1.0
1609046852771685316,835,1609046852771381092,0.0002432379966599285,8.69602605675368e-05,0.0002593452455545986,0.0,0.0,0.0,1.0
1609046852822392428,836,1609046852822013092,0.00014141571572778844,0.00011710297175149265,0.00024768402550279234,0.0,0.0,0.0,1.0
1609046852872627086,837,1609046852872228097,0.00018023033548786316,-4.5762658745118756e-05,0.0002977988746568627,0.0,0.0,0.0,1.0
1609046852923366882,838,1609046852922728013,9.654134220937749e-05,-2.123087775451893e-05,0.000248601288944883,0.0,0.0,0.0,1.0
1609046852974200330,839,1609046852973727893,0.00014682028418633308,0.000126047517866823,0.00024291139806642548,0.0,0.0,0.0,1.0
1609046853022380903,840,1609046853021830987,0.00023429918879003253,9.85942693656483e-05,0.0002832071316518636,0.0,0.0,0.0,1.0
1609046853073768729,841,1609046853073162031,0.000214690195736722,0.00011131799331742798,0.00010620883860390506,0.0,0.0,0.0,1.0
1609046853125173214,842,1609046853124880981,0.00013903019928207527,0.0001171617296229499,0.00025221161315513996,0.0,0.0,0.0,1.0
1609046853176755745,843,1609046853175415945,0.00012563474860272095,-2.8300280913384768e-05,0.00041115777389499897,0.0,0.0,0.0,1.0
1609046853222991679,844,1609046853222628068,0.0002047775519109507,9.528373634282161e-05,0.00011518656838482855,0.0,0.0,0.0,1.0
1609046853274371257,845,1609046853273843002,0.00014371015327085956,0.00011915207758406154,0.00024460157231054325,0.0,0.0,0.0,1.0
1609046853323738489,846,1609046853323338937,0.0001591802343128279,-7.183193966753265e-06,0.00013913634740170266,0.0,0.0,0.0,1.0
1609046853375281267,847,1609046853374448013,0.00022466691029521257,9.752524838013699e-05,0.00030069940932619943,0.0,0.0,0.0,1.0
1609046853424659956,848,1609046853424328041,0.00022432568281871568,9.97726768900975e-05,0.0003026999196844571,0.0,0.0,0.0,1.0
1609046853473443170,849,1609046853473008108,0.0002721826956779694,-7.025470843302628e-05,0.0003314599808135199,0.0,0.0,0.0,1.0
1609046853523961184,850,1609046853523635101,1.519698234986322e-05,1.5120625905140628e-05,0.0002021302672208236,0.0,0.0,0.0,1.0
1609046853571418324,851,1609046853571119022,6.911929653696802e-05,-9.319135919838573e-06,0.00030743630456875337,0.0,0.0,0.0,1.0
1609046853625630813,852,1609046853625230979,0.00014439292043277874,6.106538142880424e-05,0.00042983152149744797,0.0,0.0,0.0,1.0
1609046853674812973,853,1609046853674551916,0.00018368912062882714,-4.8405170598897485e-05,6.807832089528176e-05,0.0,0.0,0.0,1.0
1609046853723349501,854,1609046853722952079,0.0002444527719269729,-7.566476590170623e-05,0.00015879708055166475,0.0,0.0,0.0,1.0
1609046853774113603,855,1609046853773651075,0.00011475748983613698,5.246770910893872e-05,0.00025882910194852116,0.0,0.0,0.0,1.0
1609046853821515565,856,1609046853821171951,8.970974870337045e-05,-1.4523816192379968e-05,0.00026551817652098464,0.0,0.0,0.0,1.0
1609046853875259317,857,1609046853874463033,1.0086636919481862e-05,4.055399635660706e-06,0.00020506760913008293,0.0,0.0,0.0,1.0
1609046853925895355,858,1609046853925581884,1.2357529644901888e-05,8.639493135120802e-06,0.00020356114459829655,0.0,0.0,0.0,1.0
1609046853972732701,859,1609046853972115945,9.964272019047371e-05,-1.791758775837593e-05,0.00024476312501242603,0.0,0.0,0.0,1.0
1609046854024396834,860,1609046854024079036,1.2771348561813056e-05,4.0894190380669215e-06,0.00020003266783952256,0.0,0.0,0.0,1.0
1609046854072994645,861,1609046854072736930,0.00015642233139701034,-4.9068304566191046e-05,0.00011902219088888444,0.0,0.0,0.0,1.0
1609046854124982940,862,1609046854124618005,9.158940386555514e-06,-0.0001548781208100536,0.00011078555701082848,0.0,0.0,0.0,1.0
1609046854174833482,863,1609046854174545001,0.00022818890540676762,-0.00018653504080390348,0.0003440453535130672,0.0,0.0,0.0,1.0
1609046854222644145,864,1609046854222316932,2.1148229091494386e-05,5.251245493553824e-06,0.00018496043452742583,0.0,0.0,0.0,1.0
1609046854273752004,865,1609046854273136091,0.00011226090018823243,-0.00018843988017280822,0.00011797151126735628,0.0,0.0,0.0,1.0
1609046854322981993,866,1609046854322701883,0.0002507444760944111,-7.222828136121962e-05,0.00014902586670828555,0.0,0.0,0.0,1.0
1609046854375098100,867,1609046854374851894,9.87106876770838e-05,-2.410477513770104e-05,0.00024277980907250196,0.0,0.0,0.0,1.0
1609046854424274399,868,1609046854423603010,0.00013525043292617056,-0.0001908538497215062,0.0002948334888461801,0.0,0.0,0.0,1.0
1609046854472644976,869,1609046854472345066,6.462434188136967e-05,-4.592223268140572e-05,7.217287203076239e-05,0.0,0.0,0.0,1.0
1609046854523745314,870,1609046854523350906,8.421609028630428e-05,-5.883479615143017e-05,0.0002490897513407475,0.0,0.0,0.0,1.0
1609046854574702265,871,1609046854573922109,9.514885392647443e-05,-2.3512097291344958e-05,0.00024984509108527675,0.0,0.0,0.0,1.0
1609046854624356633,872,1609046854623556089,8.802066215807258e-05,-1.748659569322797e-05,0.00026690868538992163,0.0,0.0,0.0,1.0
1609046854674177476,873,1609046854673576068,0.00014916564594358306,-4.259642511605932e-05,0.00013659725315662286,0.0,0.0,0.0,1.0
1609046854724416896,874,1609046854723947000,0.00024210604742691544,-6.689999467646146e-05,0.00016851182646959728,0.0,0.0,0.0,1.0
1609046854773010514,875,1609046854772302103,0.000182268740584135,-4.89865948569701e-05,0.000292012463107838,0.0,0.0,0.0,1.0
1609046854825525184,876,1609046854825087022,6.997326277158322e-05,-2.2588194974915154e-05,7.61992037769943e-05,0.0,0.0,0.0,1.0
1609046854874466472,877,1609046854873599004,0.0001550082292958166,-4.994823073722898e-05,0.0001211533535681042,0.0,0.0,0.0,1.0
1609046854923831984,878,1609046854923375082,1.120314935221245e-05,6.49619531500889e-07,0.00020090731352695457,0.0,0.0,0.0,1.0
1609046854973122383,879,1609046854972850990,9.85816294374331e-05,-1.4581374248479051e-05,0.00024877702594849893,0.0,0.0,0.0,1.0
1609046855022736070,880,1609046855022194099,9.224840933086398e-05,-2.5796103059860798e-05,0.00025392679693680975,0.0,0.0,0.0,1.0
1609046855075709565,881,1609046855075406026,9.637670541806642e-05,-2.3426611319266044e-05,0.0002475846141791749,0.0,0.0,0.0,1.0
1609046855124844084,882,1609046855124308061,3.3168904945313216e-05,-2.8930022839546155e-06,0.0003790167332553551,0.0,0.0,0.0,1.0
1609046855173577643,883,1609046855173238945,9.726674624488396e-05,-1.3299928987464682e-05,0.000252027312090064,0.0,0.0,0.0,1.0
1609046855223897161,884,1609046855222984027,9.601940285008936e-05,-1.4379391387819851e-05,0.00025372391696265595,0.0,0.0,0.0,1.0
1609046855272061264,885,1609046855271763992,-9.984212921310132e-05,4.751301048422363e-05,0.00021671676118018013,0.0,0.0,0.0,1.0
1609046855326108740,886,1609046855325773906,1.0234574208567437e-05,8.24059337567462e-06,0.00020731779453875276,0.0,0.0,0.0,1.0
1609046855372623987,887,1609046855372270059,9.158399661046701e-05,-2.0562177214245025e-05,0.0002583403553906294,0.0,0.0,0.0,1.0
1609046855422336216,888,1609046855422006082,9.625050856598705e-05,-2.0765967654767792e-05,0.0002494298548523233,0.0,0.0,0.0,1.0
1609046855474226844,889,1609046855473617029,0.00010167606361122239,-1.932310477670285e-05,0.0002400849659931481,0.0,0.0,0.0,1.0
1609046855523589856,890,1609046855523247909,1.68406690015388e-05,1.8292977941314348e-05,0.00020095188115476503,0.0,0.0,0.0,1.0
1609046855573930691,891,1609046855573610973,9.736461452902745e-05,-1.639502654882108e-05,0.0002499729101739234,0.0,0.0,0.0,1.0
1609046855625940360,892,1609046855625635099,-3.30935984678149e-05,2.1851970986475067e-05,0.0005187473569598922,0.0,0.0,0.0,1.0
1609046855671700923,893,1609046855671206903,9.906271579041004e-06,7.492226277605596e-06,0.0004290974783724977,0.0,0.0,0.0,1.0
1609046855723626915,894,1609046855723248910,-5.3175392928039855e-05,2.6369317001950776e-05,0.00033767758053748764,0.0,0.0,0.0,1.0
1609046855772052241,895,1609046855771732997,3.2864321653391926e-05,1.3423659712685776e-06,0.00038214939826097805,0.0,0.0,0.0,1.0
1609046855823512113,896,1609046855823207092,3.0514376003765165e-05,4.0194997552589484e-06,0.0003881921476498462,0.0,0.0,0.0,1.0
1609046855874784651,897,1609046855874078941,0.00010596491346248627,-6.696382523685429e-05,0.00042483650122804306,0.0,0.0,0.0,1.0
1609046855923459299,898,1609046855922763061,-9.90034877581536e-05,-0.00011588505692827766,0.0003380234562317952,0.0,0.0,0.0,1.0
1609046855974371892,899,1609046855974065017,-5.353011061970392e-05,-6.357247282373635e-05,0.0002840010219884448,0.0,0.0,0.0,1.0
1609046856021732145,900,1609046856021315050,-9.906679456861411e-05,-0.00011311493039301013,0.00033981641622027325,0.0,0.0,0.0,1.0
1609046856072374624,901,1609046856072081995,4.208610593181561e-05,-0.0002551245654949241,0.00043143698584025003,0.0,0.0,0.0,1.0
1609046856125459271,902,1609046856124909114,9.593586113609831e-05,-2.5577121913755718e-05,0.00024711538189947646,0.0,0.0,0.0,1.0
1609046856171520631,903,1609046856171273899,9.275108769202234e-05,-2.3554246407542223e-05,0.00025433478416481137,0.0,0.0,0.0,1.0
1609046856222690382,904,1609046856222157907,-3.150518108441247e-05,-0.0001336723314775412,0.00020017131214444817,0.0,0.0,0.0,1.0
1609046856273427263,905,1609046856273016881,5.0889651010521675e-05,-0.00016388769041597584,0.000248371819550286,0.0,0.0,0.0,1.0
1609046856324317746,906,1609046856323759031,5.633570935970056e-05,-0.00016354562715292786,0.0002383231811382558,0.0,0.0,0.0,1.0
1609046856374498220,907,1609046856373948049,0.0002488644379496918,-6.267412012839202e-05,0.00015833877184512346,0.0,0.0,0.0,1.0
1609046856422011023,908,1609046856421402883,-3.283465877146341e-05,-0.00012842601236151552,0.000205844673514477,0.0,0.0,0.0,1.0
1609046856474143766,909,1609046856473319005,4.986597041423124e-05,-0.00016058731500123713,0.00025229359131984097,0.0,0.0,0.0,1.0
1609046856524384273,910,1609046856523544025,5.51469219089995e-05,-0.00015653239963597798,0.00024479918592845706,0.0,0.0,0.0,1.0
1609046856572723430,911,1609046856571675014,0.00013759683228542485,-0.00018495974656929093,0.00029397630388849905,0.0,0.0,0.0,1.0
1609046856624905985,912,1609046856624405097,-5.287052850988516e-05,3.876996350271611e-05,0.00034459625746485756,0.0,0.0,0.0,1.0
1609046856673327872,913,1609046856673025083,-1.1796327374469229e-05,-0.00013878526141475334,0.00038158184662151484,0.0,0.0,0.0,1.0
1609046856722733665,914,1609046856722501945,9.818821209606199e-05,-1.7250417727154854e-05,0.00024790517802486534,0.0,0.0,0.0,1.0
1609046856773250605,915,1609046856772887897,3.3686460856330314e-05,7.938088245396102e-06,0.000384586525923325,0.0,0.0,0.0,1.0
1609046856821357601,916,1609046856821108055,3.2202593899910426e-05,1.2591627562841268e-06,0.00038334521849492376,0.0,0.0,0.0,1.0
1609046856874132946,917,1609046856873816919,9.60410526786859e-05,-1.3912440792296366e-05,0.0002539652881967669,0.0,0.0,0.0,1.0
1609046856924395254,918,1609046856923998069,3.372117821598408e-05,9.50666610677331e-06,0.00038546892220736595,0.0,0.0,0.0,1.0
1609046856972152602,919,1609046856971686077,0.00011623554809148118,-2.07953696804708e-05,0.0004333919552941268,0.0,0.0,0.0,1.0
1609046857024059016,920,1609046857023232889,0.00011614464274956049,-2.7135908062803082e-05,0.0004297320356556611,0.0,0.0,0.0,1.0
1609046857074614015,921,1609046857074028921,8.292454663205717e-05,-3.8883598190153634e-06,0.0002847213411882876,0.0,0.0,0.0,1.0
1609046857125580476,922,1609046857124148082,-6.330051078151655e-05,-8.445909054799472e-06,0.00033570798084170406,0.0,0.0,0.0,1.0
1609046857173832120,923,1609046857173304033,-4.831643594371826e-05,2.5399518271740362e-05,0.00032794175158379346,0.0,0.0,0.0,1.0
1609046857222070612,924,1609046857221424055,-1.4012099608606832e-05,-0.0001379080839534197,0.00038628435719978427,0.0,0.0,0.0,1.0
1609046857274120915,925,1609046857273400020,5.1101270525322207e-05,-0.00016666870481785168,0.0002462930196163171,0.0,0.0,0.0,1.0
1609046857323523455,926,1609046857322889041,0.0001375336238744751,-0.0001830173509951294,0.0002952689380055773,0.0,0.0,0.0,1.0
1609046857380981967,927,1609046857380572986,-5.1004290078537906e-05,3.76168655265019e-05,0.0003403852299435073,0.0,0.0,0.0,1.0
1609046857423658569,928,1609046857422799062,-5.041760553581298e-05,3.112692706075393e-05,0.00033535907507520335,0.0,0.0,0.0,1.0
1609046857473648806,929,1609046857473135900,2.1621687167794335e-05,7.874651918982067e-06,0.00040726728768625264,0.0,0.0,0.0,1.0
1609046857522790316,930,1609046857521938037,-0.00010160329969011173,4.911183805766939e-05,0.000442613780773371,0.0,0.0,0.0,1.0
1609046857573706879,931,1609046857573429059,8.396356477646805e-06,-0.0001143681946462749,0.00035831029944688453,0.0,0.0,0.0,1.0
1609046857626403721,932,1609046857625137996,0.00018420640251193277,-4.3317614492721646e-05,0.00029178900231841,0.0,0.0,0.0,1.0
1609046857673078891,933,1609046857672750902,-3.018228006723689e-05,-0.00012621219434549857,0.00020218765744850486,0.0,0.0,0.0,1.0
1609046857723781167,934,1609046857723514986,5.3344476185657186e-05,-0.00015248428361402944,0.00025063921885148943,0.0,0.0,0.0,1.0
1609046857771424812,935,1609046857771048021,0.00014655065673352397,-0.00014707094248400665,0.00030000832308552106,0.0,0.0,0.0,1.0
1609046857826217630,936,1609046857825858068,5.5241325153332355e-05,-0.00015208027613944353,0.0002473114201499982,0.0,0.0,0.0,1.0
1609046857874025205,937,1609046857873683881,4.140359346394007e-05,-0.00015857288588527751,0.0002694460048147107,0.0,0.0,0.0,1.0
1609046857922909942,938,1609046857922666978,5.098651785218067e-05,-0.00016076983252766297,0.0002500732411814255,0.0,0.0,0.0,1.0
1609046857973946228,939,1609046857973325920,0.0001473968994822883,-0.00015972785874218687,0.00029076736835165207,0.0,0.0,0.0,1.0
1609046858022723515,940,1609046858022139024,0.00011624974868240656,-2.3307106776115916e-05,0.0004318475630817886,0.0,0.0,0.0,1.0
1609046858074341330,941,1609046858074082088,-4.2053122768948015e-05,2.7273097760627252e-05,0.00031727943754944476,0.0,0.0,0.0,1.0
1609046858123780575,942,1609046858123402070,-4.0311544431403945e-05,2.5997423168888645e-05,0.00031322910274056426,0.0,0.0,0.0,1.0
1609046858173570703,943,1609046858173200082,0.0001752662724925358,-7.841369338734694e-05,0.00028741830208467434,0.0,0.0,0.0,1.0
1609046858223259509,944,1609046858222885084,-1.121397593450979e-05,-0.00014191476654623614,0.0003785943358991517,0.0,0.0,0.0,1.0
1609046858274005699,945,1609046858273676109,5.2579915134742805e-05,-0.0001563861968190139,0.0002497213801433418,0.0,0.0,0.0,1.0
1609046858324414344,946,1609046858324167919,0.00010090641678672796,-2.116472751545473e-05,0.00024042152537617767,0.0,0.0,0.0,1.0
1609046858374519160,947,1609046858374120903,5.462983839876756e-05,-0.0001621935948108444,0.0002423523622017143,0.0,0.0,0.0,1.0
1609046858423478330,948,1609046858422740888,9.583451387484843e-05,-2.96444398131257e-05,0.0002448486894142121,0.0,0.0,0.0,1.0
1609046858473312963,949,1609046858472874116,9.740377037559256e-05,-1.5462873852456482e-05,0.0002504623990038368,0.0,0.0,0.0,1.0
1609046858525776158,950,1609046858525416088,9.500074212098752e-05,-3.018355484307733e-05,0.00024609299714839494,0.0,0.0,0.0,1.0
1609046858572879150,951,1609046858572603893,3.455774321636795e-05,5.941125955644111e-07,0.00037850842007713936,0.0,0.0,0.0,1.0
1609046858625684117,952,1609046858625419092,-0.00011974360255706529,5.552103498907002e-05,0.000480646622689207,0.0,0.0,0.0,1.0
1609046858673942244,953,1609046858673686933,-9.957747250766147e-05,4.790929498099672e-05,0.0004380723181593993,0.0,0.0,0.0,1.0
1609046858722850681,954,1609046858722579908,2.037538013510698e-05,8.01843737541219e-06,0.00040970108118720816,0.0,0.0,0.0,1.0
1609046858776989392,955,1609046858776622962,-5.1113692194348914e-05,2.825481026569321e-05,0.00033493446953869466,0.0,0.0,0.0,1.0
1609046858823574371,956,1609046858823208999,8.874344703713177e-05,-1.7219443218863262e-05,0.00026570904774025905,0.0,0.0,0.0,1.0
1609046858872867713,957,1609046858872308921,-1.7181305153712856e-05,-0.00013570963267461877,0.0003935806080548332,0.0,0.0,0.0,1.0
1609046858924235244,958,1609046858924004030,-9.62825384007715e-05,-0.00010917422712886093,0.00033695442559711353,0.0,0.0,0.0,1.0
1609046858971781877,959,1609046858971533012,0.00010922275063052211,-0.00017541307091306635,0.00035317505655285686,0.0,0.0,0.0,1.0
1609046859024379517,960,1609046859023923110,5.232026787282962e-05,-0.00015676972003397793,0.00024997858739439494,0.0,0.0,0.0,1.0
1609046859078764303,961,1609046859078223896,0.00018340580307452115,-3.869803010836392e-05,0.00029608781533063677,0.0,0.0,0.0,1.0
1609046859141359090,962,1609046859141013097,0.0001814574156355775,-4.271585451576243e-05,0.0002973291269814382,0.0,0.0,0.0,1.0
1609046859221424336,963,1609046859221162033,0.00015882054312399418,-4.485646791785314e-05,0.00011705107311321683,0.0,0.0,0.0,1.0
1609046859274107639,964,1609046859273499917,0.00016320567105054806,-3.547209420240449e-05,0.00011446379594204359,0.0,0.0,0.0,1.0
1609046859325029961,965,1609046859324321937,0.00013873553700705088,0.00011865111008013685,0.00025366640409707486,0.0,0.0,0.0,1.0
1609046859376040101,966,1609046859375422906,0.00020327657115259967,-4.886652740765385e-05,0.00025252589608903975,0.0,0.0,0.0,1.0
1609046859424116771,967,1609046859423437070,9.775022196478744e-05,-1.612800539341208e-05,0.00024940812338059004,0.0,0.0,0.0,1.0
1609046859473297694,968,1609046859473020029,0.0001757244512248235,-5.261995078242876e-05,0.00030214048233645485,0.0,0.0,0.0,1.0
1609046859525294646,969,1609046859525078964,9.832714804502984e-05,-2.0120838275516917e-05,0.0002459091977744521,0.0,0.0,0.0,1.0
1609046859576053925,970,1609046859575788927,1.6793966732819854e-05,1.2410476015745076e-05,0.00019748552006149112,0.0,0.0,0.0,1.0
1609046859624070298,971,1609046859623737049,0.00018337358608988552,-3.806589418431372e-05,0.0002965304292938953,0.0,0.0,0.0,1.0
1609046859674700905,972,1609046859673526954,0.00018032254947542015,-4.040077844535972e-05,0.0003008649665350305,0.0,0.0,0.0,1.0
1609046859723336474,973,1609046859722965908,1.4902273584027625e-05,1.2526155167336128e-05,0.00020111760197671913,0.0,0.0,0.0,1.0
1609046859774177069,974,1609046859773771953,0.00024424746995777014,-6.586947327846815e-05,0.00016510207642284058,0.0,0.0,0.0,1.0
1609046859822694324,975,1609046859822247934,1.1006051447992604e-05,1.214541486049825e-05,0.00020822440685996924,0.0,0.0,0.0,1.0
1609046859873477325,976,1609046859873044919,9.637434237674825e-05,-1.8207980723161654e-05,0.0002507422443720486,0.0,0.0,0.0,1.0
1609046859924531612,977,1609046859924155902,-6.648598857594834e-05,4.2738502271433276e-05,0.00015101987583854282,0.0,0.0,0.0,1.0
1609046859971742696,978,1609046859971306991,0.00012049364700317255,-2.033934327805298e-05,0.00020403622097298069,0.0,0.0,0.0,1.0
1609046860025052950,979,1609046860024311971,0.0001818783118849865,-4.611709639235073e-05,0.00029448146420207877,0.0,0.0,0.0,1.0
1609046860077576002,980,1609046860076178979,1.4794308849985782e-05,2.3548460987399267e-05,0.0002079807703943004,0.0,0.0,0.0,1.0
1609046860124594782,981,1609046860124098014,-5.456208373999516e-06,2.335877165471345e-05,0.0002459993458767684,0.0,0.0,0.0,1.0
1609046860174674913,982,1609046860174246025,1.3273663483914788e-05,1.2604525190695881e-05,0.0002042317387953574,0.0,0.0,0.0,1.0
1609046860222925087,983,1609046860222068977,4.797651829591132e-05,-0.00012041465515544303,0.00028012422850309804,0.0,0.0,0.0,1.0
1609046860275682752,984,1609046860274840068,-4.6707665894984984e-05,2.8662506327492565e-05,0.0003268838655152706,0.0,0.0,0.0,1.0
1609046860325543820,985,1609046860324876976,1.646997996118671e-05,3.820923204500559e-07,0.0001908278713784739,0.0,0.0,0.0,1.0
1609046860372628908,986,1609046860372023057,1.9534905657536683e-05,2.924595588282841e-05,0.00020249642753533692,0.0,0.0,0.0,1.0
1609046860423674227,987,1609046860423294019,9.975735279610376e-05,-2.153405177907075e-05,0.00024236213897488312,0.0,0.0,0.0,1.0
1609046860472506541,988,1609046860472068023,8.236685705753644e-05,-5.622528592219567e-05,0.00025414868868622875,0.0,0.0,0.0,1.0
1609046860524674371,989,1609046860524345111,7.38551247536634e-05,-9.519998184792655e-05,0.00024662788971596683,0.0,0.0,0.0,1.0
1609046860574917653,990,1609046860574511957,9.615018575104273e-05,-4.141127089241081e-06,0.0002596637789107348,0.0,0.0,0.0,1.0
1609046860623598153,991,1609046860622527074,0.00022950615566585952,0.00012846356106699375,0.0003102805749790605,0.0,0.0,0.0,1.0
1609046860680197291,992,1609046860679250907,5.884020883684116e-05,0.00013530036188136307,0.00019256225569108665,0.0,0.0,0.0,1.0
1609046860723407787,993,1609046860722757053,3.32455961071787e-05,6.026757697341623e-06,0.00038426184312712053,0.0,0.0,0.0,1.0
1609046860774425374,994,1609046860774100017,3.5891933340082005e-05,-5.313691183062019e-06,0.00037242639105095066,0.0,0.0,0.0,1.0
1609046860825428633,995,1609046860824613046,0.00018051189957191127,-5.751998295977501e-05,0.0002901647090602921,0.0,0.0,0.0,1.0
1609046860872624620,996,1609046860872260999,1.861469573682939e-05,5.4738509263074775e-06,0.00018986574683133028,0.0,0.0,0.0,1.0
1609046860924458908,997,1609046860924158048,7.796816058913691e-05,-0.0001024685382144952,0.00023449102270767241,0.0,0.0,0.0,1.0
1609046860974189987,998,1609046860973066043,9.797702458769209e-05,-1.5486835140521293e-05,0.0002493684440363353,0.0,0.0,0.0,1.0
1609046861025378749,999,1609046861024404954,1.5764554287756027e-05,1.0017529834982497e-05,0.0001979781166951966,0.0,0.0,0.0,1.0
1609046861076239789,1000,1609046861075694990,9.943419054536662e-05,-2.3890101308765566e-05,0.00024154711342561086,0.0,0.0,0.0,1.0
1609046861123922975,1001,1609046861123401117,0.00010094936278548516,-2.325660002000518e-05,0.00023907671324074897,0.0,0.0,0.0,1.0
1609046861173337878,1002,1609046861172718954,0.00016930598969366883,-0.0001274798474018013,0.0002689955799830557,0.0,0.0,0.0,1.0
1609046861223170911,1003,1609046861222859096,-2.455210832863486e-05,2.8454288642620895e-05,0.0002850372441489668,0.0,0.0,0.0,1.0
1609046861272970619,1004,1609046861272515010,6.099873998621774e-05,6.3022932401679554e-06,0.00033216675157810016,0.0,0.0,0.0,1.0
1609046861329573073,1005,1609046861329286050,0.00018180813220070036,-2.7325112949228014e-05,0.00030596805534699456,0.0,0.0,0.0,1.0
1609046861374537194,1006,1609046861373880100,-4.397348412510382e-06,-3.4084569263015396e-05,0.00020929723604901085,0.0,0.0,0.0,1.0
1609046861422558378,1007,1609046861422249031,9.762861651196886e-05,-1.4061015232158525e-06,0.0002585323410979612,0.0,0.0,0.0,1.0
1609046861479683120,1008,1609046861479417037,0.00026354927579674836,-4.0861159751770515e-05,0.0003654774205799072,0.0,0.0,0.0,1.0
1609046861523994830,1009,1609046861523678016,4.741100557481559e-05,-0.00018149868072114828,0.00024428170508450364,0.0,0.0,0.0,1.0
1609046861573903922,1010,1609046861573563051,0.00010818499566767059,-3.626004118117976e-05,0.00021759467397153287,0.0,0.0,0.0,1.0
1609046861630026515,1011,1609046861629671049,0.00019530582185112166,-0.00016015239605415843,0.0002002953354853787,0.0,0.0,0.0,1.0
1609046861677226348,1012,1609046861676821899,9.828414859214263e-05,-4.34785497844814e-05,0.00023187709233774,0.0,0.0,0.0,1.0
1609046861728135868,1013,1609046861727791023,0.00014479950147716636,-5.0654423532137116e-05,0.00013995020478674292,0.0,0.0,0.0,1.0
1609046861773874103,1014,1609046861773316097,0.00010221470602189697,-4.1783451720789344e-05,0.00022549979514785434,0.0,0.0,0.0,1.0
1609046861823198351,1015,1609046861822729063,0.0002379019647698044,-6.661484512093807e-05,0.00017660060883528672,0.0,0.0,0.0,1.0
1609046861901577587,1016,1609046861899572086,8.950476929925344e-05,-3.0103921885071827e-05,0.0002564904110169408,0.0,0.0,0.0,1.0
1609046861938508687,1017,1609046861937637996,0.00014213508885063675,0.00012135535708601708,0.0002488987998656711,0.0,0.0,0.0,1.0
1609046861979661823,1018,1609046861978901100,0.00014505882482040988,0.00012738073071716371,0.00024703390241676004,0.0,0.0,0.0,1.0
1609046862069673328,1019,1609046862069429111,0.0002174516256374659,7.190709051840827e-05,0.000298807125354017,0.0,0.0,0.0,1.0
1609046862122408691,1020,1609046862121916007,0.0001432998183972245,0.0001245608618969385,0.00024864238752186907,0.0,0.0,0.0,1.0
1609046862188988132,1021,1609046862188723993,1.1726755495544694e-06,0.00016845161734657665,0.0003211854519626911,0.0,0.0,0.0,1.0
1609046862234354448,1022,1609046862234009933,8.440423622602111e-05,0.00013522128365650588,0.00036598854107516843,0.0,0.0,0.0,1.0
1609046862278613309,1023,1609046862278001022,7.603657106969308e-05,0.00012151960856776611,0.00037346658794845666,0.0,0.0,0.0,1.0
1609046862324707922,1024,1609046862323917102,2.9156185856749062e-05,0.00013098150332169212,0.0002458497416402139,0.0,0.0,0.0,1.0
1609046862374088732,1025,1609046862373811912,0.00010274694014000829,-4.9538211108313135e-05,0.00021981203578747,0.0,0.0,0.0,1.0
1609046862422578278,1026,1609046862422193956,0.0001253861040417803,9.61059722026647e-05,4.3570847617857567e-05,0.0,0.0,0.0,1.0
1609046862475825457,1027,1609046862475201082,0.0002087774984040891,6.427697069533167e-05,8.891969110180753e-05,0.0,0.0,0.0,1.0
1609046862525371671,1028,1609046862525077056,0.0001613271139078165,-7.740747796347591e-05,9.26635346232274e-05,0.0,0.0,0.0,1.0
1609046862572542733,1029,1609046862572251033,0.00012456222325241129,1.8276253742399717e-05,0.00021970699574502817,0.0,0.0,0.0,1.0
1609046862625217703,1030,1609046862624978017,0.00017004274020848698,2.207471766269009e-05,0.0001363597326289323,0.0,0.0,0.0,1.0
1609046862673408475,1031,1609046862673191022,1.8680352514621745e-05,-1.94923866114749e-05,0.0001746571556804355,0.0,0.0,0.0,1.0
1609046862724277058,1032,1609046862723936033,-3.21574727841778e-05,-0.00016656906686129958,0.00018152326679832242,0.0,0.0,0.0,1.0
1609046862775630289,1033,1609046862774596881,7.68423929358164e-05,-0.00012854799005523887,0.0002208534922427674,0.0,0.0,0.0,1.0
1609046862823240246,1034,1609046862822932910,-1.8410677796509844e-05,-1.085676117895673e-06,0.0002556238205642103,0.0,0.0,0.0,1.0
1609046862873659500,1035,1609046862873176050,4.238519202459656e-05,7.245852694204302e-05,0.00018557767215909848,0.0,0.0,0.0,1.0
1609046862926374271,1036,1609046862925621938,0.00020829968712376967,-2.959864275453583e-06,0.00027080460420414454,0.0,0.0,0.0,1.0
1609046862972936579,1037,1609046862972558927,0.00014795512464615967,-4.425916074524139e-05,0.00013787208475335433,0.0,0.0,0.0,1.0
1609046863022174160,1038,1609046863021897029,0.0002685211438304691,-0.00024424317373927806,1.1620504139386867e-05,0.0,0.0,0.0,1.0
1609046863075247143,1039,1609046863074717950,8.092288645045187e-05,-3.066689889585916e-05,5.069934504575713e-05,0.0,0.0,0.0,1.0
1609046863124086616,1040,1609046863123454046,0.0001151839169928337,-0.00011971612599381842,0.00015399034102081544,0.0,0.0,0.0,1.0
1609046863174187616,1041,1609046863173928928,-6.459146949922001e-05,1.7977101350652447e-05,0.00013249115901103892,0.0,0.0,0.0,1.0
1609046863223097610,1042,1609046863222320032,5.713621718328454e-05,-0.00018021778932819643,0.00022674236948105886,0.0,0.0,0.0,1.0
1609046863275326036,1043,1609046863274917078,0.0001250193579487302,-3.485825322080416e-05,0.00040835413680362365,0.0,0.0,0.0,1.0
