%time,field.header.seq,field.header.stamp,field.pose.position.x,field.pose.position.y,field.pose.position.z,field.pose.orientation.x,field.pose.orientation.y,field.pose.orientation.z,field.pose.orientation.w
1609043642054916148,508,1609043642054158030,-0.00029880426913564406,0.00022051222016195027,-0.00019883865227043884,0.0,0.0,0.0,0.0
1609043642102857115,509,1609043642102359114,-0.0001455984915139652,0.00010216515038052876,-0.00011168316980914028,0.0,0.0,0.0,0.0
1609043642154380305,510,1609043642153720913,-0.00031325657287339936,7.183313384651058e-05,-2.4965817157607262e-05,0.0,0.0,0.0,0.0
1609043642203371273,511,1609043642203130065,-0.00044074185981557434,0.0002828150606521973,-0.00011009165582898106,0.0,0.0,0.0,0.0
1609043642254949359,512,1609043642254720984,-0.0003369789245759591,0.0002790002313552975,-8.885279206616303e-05,0.0,0.0,0.0,0.0
1609043642303143716,513,1609043642302882967,-0.00027078124535862,0.0003119564998179669,-0.0002020944000538094,0.0,0.0,0.0,0.0
1609043642352420812,514,1609043642352048932,-0.0002213023684234372,0.000259067196981988,-0.00010070758868963026,0.0,0.0,0.0,0.0
1609043642405273553,515,1609043642404753027,-0.0003672617750893892,0.0003239645483681386,-0.0002331575214498116,0.0,0.0,0.0,0.0
1609043642460519759,516,1609043642460060893,-0.00018393787857817756,0.00040042690503838685,-0.000324569122366114,0.0,0.0,0.0,0.0
1609043642502101652,517,1609043642501741944,-0.00013011228305970235,0.0002554974804951371,-0.00028493617336167176,0.0,0.0,0.0,0.0
1609043642551857983,518,1609043642551175890,-3.6711553420332166e-05,0.00024438491520584193,-0.0002472041228802624,0.0,0.0,0.0,0.0
1609043642603512845,519,1609043642603060065,-0.00016854699057589073,0.00041343116203940156,-0.0003478169701338629,0.0,0.0,0.0,0.0
1609043642655654505,520,1609043642655016957,-6.279681862508824e-05,0.00035374859240278056,-0.0001320353726601553,0.0,0.0,0.0,0.0
1609043642703742335,521,1609043642703115998,-0.0002295153369296088,0.0002623808790662707,-0.0003131159341975831,0.0,0.0,0.0,0.0
1609043642753319119,522,1609043642752657948,-0.00013117916017080233,0.00023829666185903875,-0.00029272265329716163,0.0,0.0,0.0,0.0
1609043642804399063,523,1609043642803447066,-7.218622210558578e-05,0.00041674092486765346,-0.0003076820824361448,0.0,0.0,0.0,0.0
1609043642856368617,524,1609043642855460940,-0.0001181273599861754,0.00048284469480464054,-0.00017779049988142503,0.0,0.0,0.0,0.0
1609043642902997499,525,1609043642902546940,-9.41107211680503e-05,0.0003642222227391301,-0.0002941660949051794,0.0,0.0,0.0,0.0
1609043642953435185,526,1609043642952973900,-0.0001479389806746667,0.0003712941184854657,-0.00018255636448216706,0.0,0.0,0.0,0.0
1609043643004043634,527,1609043643003691016,-0.0002355601448122968,0.0004119603687762208,-0.0002147936410654694,0.0,0.0,0.0,0.0
1609043643055586747,528,1609043643055297909,-0.00014419004817156633,0.0003942914587131696,-0.0001767853228340499,0.0,0.0,0.0,0.0
1609043643103577577,529,1609043643102990923,-0.0002574423729200248,0.0003865818135171395,-0.000185712752468703,0.0,0.0,0.0,0.0
1609043643153346170,530,1609043643152493058,1.6007617031021937e-05,0.0004975134858415942,-0.00020656690642439912,0.0,0.0,0.0,0.0
1609043643205603761,531,1609043643205050049,4.248400301420929e-05,0.0004955223886291549,-0.0002606062966243883,0.0,0.0,0.0,0.0
1609043643256307803,532,1609043643255723057,-0.00012758201962270732,0.0004323600536721983,-0.0001880126890618783,0.0,0.0,0.0,0.0
1609043643303595730,533,1609043643302914916,-5.018432257486438e-05,0.00021729804138992392,-0.00023590775529847008,0.0,0.0,0.0,0.0
1609043643353838831,534,1609043643352988062,-0.000119383232302539,0.0005444581291804695,-0.00013975468837479355,0.0,0.0,0.0,0.0
1609043643406153436,535,1609043643404909907,-0.0001383441131075358,0.0007236971080892829,-0.0002292505847378834,0.0,0.0,0.0,0.0
1609043643456481797,536,1609043643455735026,-0.00030671093061585,0.00047494122101987557,-0.0002670670900783989,0.0,0.0,0.0,0.0
1609043643503744383,537,1609043643503424941,-0.00011176722865968713,0.00031369428749528083,-5.730221025856963e-05,0.0,0.0,0.0,0.0
1609043643553069568,538,1609043643552750884,-0.00031543058085503617,0.0004394641074849659,-3.937646688711993e-05,0.0,0.0,0.0,0.0
1609043643604585257,539,1609043643604286013,-0.0003224960470795679,0.0003249045097444281,-9.131724572242206e-05,0.0,0.0,0.0,0.0
1609043643655143031,540,1609043643654822884,-0.00035979604116676,0.00039876276115258236,2.5785210613804566e-05,0.0,0.0,0.0,0.0
1609043643703024029,541,1609043643702201901,-0.0003259318182600168,0.00013002084254587487,-0.00019682173374846457,0.0,0.0,0.0,0.0
1609043643753292933,542,1609043643752656994,-0.00018782496639957458,0.0002138579568757848,-0.0001936529010375665,0.0,0.0,0.0,0.0
1609043643804205483,543,1609043643803844986,-0.0002389385636689667,0.00035781656779576565,-0.0002392638280195314,0.0,0.0,0.0,0.0
1609043643859273583,544,1609043643858996926,-0.00016376269577023095,0.00038188975532449376,-0.00037556102587466,0.0,0.0,0.0,0.0
1609043643903998135,545,1609043643903624115,-0.00010092191901733827,0.0003577778494410211,-0.0002842752935716675,0.0,0.0,0.0,0.0
1609043643953380904,546,1609043643953024922,-0.0001508131957983494,0.0004045792508442503,-0.00015762229504900915,0.0,0.0,0.0,0.0
1609043644004971378,547,1609043644004710017,-0.00017850883284964425,0.000272654645902648,-0.00017836213145727697,0.0,0.0,0.0,0.0
1609043644057057140,548,1609043644056649981,-0.0002644516184027168,0.00037430318236708615,-0.0001787902012768683,0.0,0.0,0.0,0.0
1609043644103835947,549,1609043644103090106,-0.00021924322706112775,0.00012923155508914874,-0.0001796829436688796,0.0,0.0,0.0,0.0
1609043644153216028,550,1609043644152585087,-0.0002630337620033174,0.00024966470401110996,-2.2761318643205186e-05,0.0,0.0,0.0,0.0
1609043644204598161,551,1609043644204182921,-0.0004233319927138268,0.0002954111340525145,-0.00013760895805603468,0.0,0.0,0.0,0.0
1609043644255655295,552,1609043644255357085,-0.0002948308830745816,0.00026661147556694687,5.053240232300027e-05,0.0,0.0,0.0,0.0
1609043644302804841,553,1609043644302393971,-5.155260206635148e-05,0.0003166281139641569,5.482549944879622e-05,0.0,0.0,0.0,0.0
1609043644352624934,554,1609043644352324067,-0.00021025516835138092,0.00027750861035436003,-0.00011214349575894289,0.0,0.0,0.0,0.0
1609043644402193935,555,1609043644401588974,-0.0003340870992154521,0.00032223418978460927,-6.970121676452834e-05,0.0,0.0,0.0,0.0
1609043644456743533,556,1609043644456440030,-0.00040982593354499386,0.00043416728090583945,0.00014614727864703525,0.0,0.0,0.0,0.0
1609043644504649249,557,1609043644504197894,-0.0001388340145318523,8.816520151988527e-05,-0.0001332687355510842,0.0,0.0,0.0,0.0
1609043644553225383,558,1609043644552747069,-0.00035490177114283483,0.00027501092365689317,-0.0002860753722124798,0.0,0.0,0.0,0.0
1609043644602428390,559,1609043644601918993,-0.00027306583452357813,0.00024826130266752955,-0.0002342565983095568,0.0,0.0,0.0,0.0
1609043644655495371,560,1609043644655213891,-0.0003064892684392362,0.00038535527660776836,-8.843830749860615e-05,0.0,0.0,0.0,0.0
1609043644703468861,561,1609043644703132926,-0.00020289185331634485,0.00022951257364312028,-0.00015452745297039883,0.0,0.0,0.0,0.0
1609043644759723191,562,1609043644759403048,-0.0001844711461664872,0.00026209535992904875,-0.00017253961498653325,0.0,0.0,0.0,0.0
1609043644809333913,563,1609043644808939991,-0.000129335943320541,9.432881211068889e-05,-0.00014868923684119295,0.0,0.0,0.0,0.0
1609043644859764281,564,1609043644859446106,-0.00030952627491842577,0.00021356899069857604,4.930571161487762e-05,0.0,0.0,0.0,0.0
1609043644904917980,565,1609043644904490052,-0.0003192042088500102,9.937659144299005e-05,-0.00022793039611457289,0.0,0.0,0.0,0.0
1609043644954126769,566,1609043644953802882,-0.00031881792696353273,0.00015574225014702847,-0.00019620268787079453,0.0,0.0,0.0,0.0
1609043645003199930,567,1609043645002495108,-0.00021455922474089562,0.0003741509327799264,-4.782119127710871e-05,0.0,0.0,0.0,0.0
1609043645054171067,568,1609043645053707896,-0.00031152628952924033,0.000325134718385911,-0.00011309902613909628,0.0,0.0,0.0,0.0
1609043645103585028,569,1609043645103243886,-0.00036800740108233754,0.0002812947729680104,-0.00025627104362691,0.0,0.0,0.0,0.0
1609043645152937270,570,1609043645152384100,-0.0002973951188494084,0.0004161004963716408,-8.887803008228445e-05,0.0,0.0,0.0,0.0
1609043645204062157,571,1609043645203732071,-0.0002388779972335442,0.00027772756844335333,-5.483691994889739e-05,0.0,0.0,0.0,0.0
1609043645254534988,572,1609043645254176913,-0.00016588894766300655,0.00021769984336117432,-4.532469722207111e-06,0.0,0.0,0.0,0.0
1609043645304880664,573,1609043645304503975,-0.0005132300961285807,0.00031676330519836426,-0.0001764340013341581,0.0,0.0,0.0,0.0
1609043645353601538,574,1609043645353042899,-0.0003830782000875388,0.0004041146623663394,-0.00015534640608905192,0.0,0.0,0.0,0.0
1609043645402573777,575,1609043645402051983,-0.00013135170372535754,0.00027781566421936077,-3.8865611589500304e-05,0.0,0.0,0.0,0.0
1609043645455952326,576,1609043645455103932,-0.0002334866820170589,0.00012765282017568325,-0.0001521389796383943,0.0,0.0,0.0,0.0
1609043645505131765,577,1609043645504839955,-0.0003716435990455125,0.00027860247666566806,-0.0002505593489825486,0.0,0.0,0.0,0.0
1609043645553491582,578,1609043645553135930,-0.0003914967092697452,0.00045306184180304854,-0.00011030534612288534,0.0,0.0,0.0,0.0
1609043645602568329,579,1609043645602315007,-0.0001866295559551645,0.00032394060722751306,-0.0001325680682349173,0.0,0.0,0.0,0.0
1609043645654732557,580,1609043645654450951,-0.0002212261018250672,0.0002096060228744534,-0.0001293789008389723,0.0,0.0,0.0,0.0
1609043645705115802,581,1609043645704807101,-0.0004272393606825631,0.000294132120274071,-0.00013054058799255586,0.0,0.0,0.0,0.0
1609043645754805048,582,1609043645754504977,-4.962259341212416e-05,0.00017993664325821612,-2.7846267327547025e-05,0.0,0.0,0.0,0.0
1609043645803470795,583,1609043645803026972,-0.000212797570497969,5.7351875557998255e-05,-3.2769918778541296e-06,0.0,0.0,0.0,0.0
1609043645854080932,584,1609043645853494940,-0.0002494634428060749,0.00025693374059798657,-4.567979911485054e-05,0.0,0.0,0.0,0.0
1609043645906111050,585,1609043645905464945,-0.00037857055918166793,0.0004400003115243578,-0.0001436595800470286,0.0,0.0,0.0,0.0
1609043645954586236,586,1609043645953918992,-8.817881315437148e-05,0.0003544721090253944,-8.09124850817966e-05,0.0,0.0,0.0,0.0
1609043646003282709,587,1609043646002955018,-0.0003050648914069143,0.0005303047278903961,-0.00023843245297250348,0.0,0.0,0.0,0.0
1609043646055596359,588,1609043646055235920,-0.00034663475220853,0.0005489081940783791,-0.00014466098588350462,0.0,0.0,0.0,0.0
1609043646104098955,589,1609043646103652058,-0.0003934742635394173,0.00045101167692962463,-0.00010753687714348814,0.0,0.0,0.0,0.0
1609043646153760702,590,1609043646152920065,-0.00016510666157998344,0.00016338678613259106,-3.7411813609722344e-05,0.0,0.0,0.0,0.0
1609043646204036932,591,1609043646203299103,-0.00036661561427564493,0.00042974125971539934,5.7271540558900824e-05,0.0,0.0,0.0,0.0
1609043646254905073,592,1609043646254341898,-0.00030988856214264615,0.0003765546799812114,-8.672192137559875e-05,0.0,0.0,0.0,0.0
1609043646303361368,593,1609043646302686987,-0.0003056716676503868,0.00034180287032015144,-0.00011518406422261762,0.0,0.0,0.0,0.0
1609043646355783593,594,1609043646354595957,-0.00031258929099564625,0.0003627851523226866,-8.926616870574833e-05,0.0,0.0,0.0,0.0
1609043646404014159,595,1609043646403640090,-0.0004323893333726403,0.00046360313334403713,-2.2534583287381338e-05,0.0,0.0,0.0,0.0
1609043646455970012,596,1609043646455534993,-6.635181451386529e-05,0.00011340448902075195,-3.278785625404623e-05,0.0,0.0,0.0,0.0
1609043646502925387,597,1609043646502567111,-0.0003680234917347036,0.00028157186038235693,-0.000256079133350795,0.0,0.0,0.0,0.0
1609043646554463303,598,1609043646554210005,-0.00032052287567907456,0.00042937093085093636,-0.00026575090887703823,0.0,0.0,0.0,0.0
1609043646603217581,599,1609043646602772055,-0.00011202492880713066,0.0004998988711868435,-0.00018014772741281604,0.0,0.0,0.0,0.0
1609043646654400766,600,1609043646654145060,-0.00018193224806495323,0.000322253830118413,-0.00014292450565100978,0.0,0.0,0.0,0.0
1609043646704011001,601,1609043646703588067,-0.0002498212105983555,0.0005678860202547042,-9.63960511786155e-05,0.0,0.0,0.0,0.0
1609043646759005958,602,1609043646758335887,-0.0001810574747587168,0.0005171336864986387,-3.230299532930303e-05,0.0,0.0,0.0,0.0
1609043646801996883,603,1609043646801652966,-0.00035711615964828525,0.00044699636554135225,-0.00018248542225052233,0.0,0.0,0.0,0.0
1609043646854443510,604,1609043646854064045,-0.0001157039608798982,0.000344035351183436,-3.1943016500335375e-05,0.0,0.0,0.0,0.0
1609043646905938588,605,1609043646905717907,-0.00024162490008450277,0.00035748605117369436,-3.3604561284761303e-06,0.0,0.0,0.0,0.0
1609043646954076040,606,1609043646953619061,-0.00016217096137793874,0.00021898704149414527,-1.1217786264339225e-05,0.0,0.0,0.0,0.0
1609043647003937839,607,1609043647003537951,-0.0001392726303528491,0.0003718131833068128,3.115750560667152e-05,0.0,0.0,0.0,0.0
1609043647054298699,608,1609043647053917943,-0.0002789804036353871,0.0002964973193630982,-0.00019462857608409934,0.0,0.0,0.0,0.0
1609043647105629957,609,1609043647104069052,-0.00035626901478025275,0.0004370147897869714,4.07956809596044e-05,0.0,0.0,0.0,0.0
1609043647154141956,610,1609043647153682051,2.0837591872435723e-05,0.00029455509555731396,-0.00010251653197101973,0.0,0.0,0.0,0.0
1609043647204544490,611,1609043647204000054,-8.73960265650453e-05,0.00040283743868840816,-5.4588586436921105e-05,0.0,0.0,0.0,0.0
1609043647254174426,612,1609043647253322897,-7.700614197503342e-05,0.0004673232324048371,-3.816146421442568e-05,0.0,0.0,0.0,0.0
1609043647304985993,613,1609043647304187117,7.283228293886168e-05,0.00047550916725214165,-0.00010204730088858582,0.0,0.0,0.0,0.0
1609043647354802784,614,1609043647354209958,9.051987129993222e-05,0.0003042244451822995,-0.0002361445321792388,0.0,0.0,0.0,0.0
1609043647405252465,615,1609043647404371081,-0.00026252423012351755,0.0004722271528176947,-0.00012617716683038793,0.0,0.0,0.0,0.0
1609043647456960924,616,1609043647456337033,-0.00023402518353776713,0.0005522208821346908,9.374427340880231e-05,0.0,0.0,0.0,0.0
1609043647506244144,617,1609043647504683075,-0.00024180952833319225,0.0004590967562059234,5.559819495992713e-05,0.0,0.0,0.0,0.0
1609043647552815038,618,1609043647552407084,-0.0003142856742499589,0.00036138404772145805,-8.66851455523232e-05,0.0,0.0,0.0,0.0
1609043647602129136,619,1609043647601863919,-0.0001629833621663579,0.0005441004456780973,-5.286052628150628e-05,0.0,0.0,0.0,0.0
1609043647655557726,620,1609043647655230103,-0.00015338301353295947,0.0005849760669462967,-4.8469671128259506e-05,0.0,0.0,0.0,0.0
1609043647703787402,621,1609043647703469096,-0.00015782036784983688,0.0005737820124611659,-4.605980176641822e-05,0.0,0.0,0.0,0.0
1609043647754986280,622,1609043647754370986,-0.00024412771886161977,0.0003559239635606559,7.387917371204367e-07,0.0,0.0,0.0,0.0
1609043647804687768,623,1609043647803957043,-0.00018876638634424125,0.00038244024812250643,0.00013616067523969377,0.0,0.0,0.0,0.0
1609043647855975824,624,1609043647855572043,-0.00028888550902905763,0.00042033209730441,0.0001272916897434584,0.0,0.0,0.0,0.0
1609043647906212522,625,1609043647905875025,-0.00042379793899272045,0.0004032698133045187,0.00015624405844683054,0.0,0.0,0.0,0.0
1609043647955474707,626,1609043647955201922,-0.0004203240273490394,0.0003728738796748843,0.0001317772853521859,0.0,0.0,0.0,0.0
1609043648006003032,627,1609043648005574999,-0.00030747030938726994,0.00037247477666824125,0.00013682432206607587,0.0,0.0,0.0,0.0
1609043648054551369,628,1609043648054317055,-0.00047257441431725056,0.00030882106474017235,0.0001992278390954283,0.0,0.0,0.0,0.0
1609043648103862737,629,1609043648103606997,-0.00028977406176267095,0.0003990941439848683,0.00011682068247509392,0.0,0.0,0.0,0.0
1609043648152351304,630,1609043648151989041,-0.0002221591845312787,0.0002781117761045948,0.00014271423587608467,0.0,0.0,0.0,0.0
1609043648204375760,631,1609043648203661023,-0.00027726264256600075,0.0004129892947144498,9.98381495751488e-05,0.0,0.0,0.0,0.0
1609043648256264347,632,1609043648255363045,-0.00010117133446385651,0.0001947981126750875,-0.00014702459557014436,0.0,0.0,0.0,0.0
1609043648304658421,633,1609043648304083882,-0.00013994144874729386,0.0005012962844155311,0.00010715544090622586,0.0,0.0,0.0,0.0
1609043648353488077,634,1609043648352789937,-0.0003179996179518696,0.00039304206000778663,0.00016971870316417892,0.0,0.0,0.0,0.0
1609043648404317582,635,1609043648403869925,-0.00023884043691779766,0.0005230650948977456,8.65520334851766e-05,0.0,0.0,0.0,0.0
1609043648458952669,636,1609043648458586989,-0.00023354694587851554,0.00023545381088041495,-8.986174718472739e-05,0.0,0.0,0.0,0.0
1609043648504632730,637,1609043648504020987,-0.00023992027266928062,0.000532629515872074,9.422431949701604e-05,0.0,0.0,0.0,0.0
1609043648720397528,639,1609043648719360886,-0.0005288835337182718,0.001039097836949665,4.062380026503831e-05,0.0,0.0,0.0,0.0
1609043648952303007,641,1609043648951988993,-0.0007187886768420526,0.0005079476181570897,-0.00011700350905030632,0.0,0.0,0.0,0.0
1609043648998298901,642,1609043648997987090,-0.0007560193795832504,0.0004180936312625505,-9.443649117457653e-05,0.0,0.0,0.0,0.0
1609043649063215561,643,1609043649062882004,-0.000680875657238289,0.00027613544970961357,-9.567754320727317e-05,0.0,0.0,0.0,0.0
1609043649108398095,644,1609043649108051119,-0.0004858735173129958,0.00037177506613517153,3.1364223502805544e-05,0.0,0.0,0.0,0.0
1609043649158731300,645,1609043649158501921,-0.0005506577886720265,0.0004719694291051013,-1.217070197512271e-05,0.0,0.0,0.0,0.0
1609043649208517339,646,1609043649208236037,-0.0005086047441231756,2.8213690274725423e-05,-0.00012131978778562313,0.0,0.0,0.0,0.0
1609043649256929443,647,1609043649256522952,-0.0006048391697071054,-0.0005430626015474616,-0.0002584421185289898,0.0,0.0,0.0,0.0
1609043649309795872,648,1609043649309538899,-0.0005331898322040729,-5.9858568631554476e-05,-0.00012298560429080396,0.0,0.0,0.0,0.0
1609043649359225176,649,1609043649358561097,-0.0003559130689119172,3.0537413834963445e-05,-0.0001942879149527954,0.0,0.0,0.0,0.0
1609043649408467319,650,1609043649408020077,-0.0003739668178575073,-4.811862271836276e-05,-0.00020357263080406085,0.0,0.0,0.0,0.0
1609043649454685303,651,1609043649454361020,-0.0004810395623913166,-5.619119897382063e-05,-0.00022505298633568316,0.0,0.0,0.0,0.0
1609043649505086966,652,1609043649504710970,-0.00047941230534220836,6.0578966321500616e-05,-0.00016097723072405756,0.0,0.0,0.0,0.0
1609043649554464468,653,1609043649553947983,-0.00036409631082179317,-4.459055226924136e-05,-0.0002212568604029741,0.0,0.0,0.0,0.0
1609043649603788020,654,1609043649603375969,-0.0005227515908465818,-1.899722711407037e-05,-0.00012027887043508656,0.0,0.0,0.0,0.0
1609043649655156136,655,1609043649654835043,-0.00044528598407111986,0.00024436081586465264,-0.00012318624527551947,0.0,0.0,0.0,0.0
1609043649703212132,656,1609043649702931939,-0.00048672056012932785,0.00011823622890716479,-0.00011313320363370849,0.0,0.0,0.0,0.0
1609043649753806767,657,1609043649753507910,-0.0002889855397754104,-9.957260420989655e-05,-0.00017228099596344748,0.0,0.0,0.0,0.0
1609043649802389215,658,1609043649801800070,-0.0004209624947364432,9.160540282948659e-05,-0.0002598541700216117,0.0,0.0,0.0,0.0
1609043649853098925,659,1609043649852565108,-0.000429133327788378,-0.00016462687371010531,-0.00016054031893553145,0.0,0.0,0.0,0.0
1609043649914931296,660,1609043649914325057,-0.0003725074633251779,-1.1134244104482605e-07,-0.00017880837098616098,0.0,0.0,0.0,0.0
1609043649999461795,661,1609043649999018965,-0.0005206195865881114,4.407812658868693e-06,0.00011968688311725373,0.0,0.0,0.0,0.0
1609043650050843582,662,1609043650050462065,-0.0005099403256529911,-4.6722471644500274e-05,6.887138646405333e-05,0.0,0.0,0.0,0.0
1609043650117791773,663,1609043650117358027,-0.0004687411557071641,-0.000223833125390982,0.00011517856881582134,0.0,0.0,0.0,0.0
1609043650159582866,664,1609043650159262000,-0.000704583944770576,0.00015353243781568437,0.00011172516554580625,0.0,0.0,0.0,0.0
1609043650203952658,665,1609043650203343926,-0.0004982399492057255,-0.0001242810759514157,7.784588529347047e-07,0.0,0.0,0.0,0.0
1609043650253775770,666,1609043650252995072,-0.0005390780781802107,8.067248248444514e-05,-3.0195223747142563e-05,0.0,0.0,0.0,0.0
1609043650304562151,667,1609043650303886948,-0.0006273675957544356,0.00016205308532590834,-3.7622027186046125e-05,0.0,0.0,0.0,0.0
1609043650352733093,668,1609043650352330981,-0.0004429946675479357,0.00010322251249483827,2.158647904515476e-05,0.0,0.0,0.0,0.0
1609043650403149249,669,1609043650402571974,-0.0004903328864998002,0.00026014564762988357,0.00020663859301883747,0.0,0.0,0.0,0.0
1609043650457462801,670,1609043650457216082,-0.00046883938862762875,0.00015463149598815562,0.00010285991109704185,0.0,0.0,0.0,0.0
1609043650503815648,671,1609043650503351985,-0.0005122503292653846,2.3278293046047338e-05,0.00011384753245025081,0.0,0.0,0.0,0.0
1609043650553096425,672,1609043650552598057,-0.0006611041092661196,5.51213279464946e-06,0.00017024768129836332,0.0,0.0,0.0,0.0
1609043650603447562,673,1609043650602726994,-0.0006954142157979959,1.504926454209965e-05,1.3558215695042009e-05,0.0,0.0,0.0,0.0
1609043650652351395,674,1609043650652021943,-0.0005007706214854579,-0.00020647046792632295,-4.1553718725495514e-05,0.0,0.0,0.0,0.0
1609043650705223739,675,1609043650704584895,-0.00046781484022773157,8.289127528193774e-05,5.9448234384973375e-05,0.0,0.0,0.0,0.0
1609043650755359922,676,1609043650755027113,-0.000508529461708207,-4.027168220588351e-05,6.977222127879656e-05,0.0,0.0,0.0,0.0
1609043650803955754,677,1609043650803396044,-0.0005620630949216832,9.093076650223963e-05,2.163791719134167e-05,0.0,0.0,0.0,0.0
1609043650854223833,678,1609043650853885947,-0.0006142698758893061,7.401611094337568e-05,0.00011618194778151292,0.0,0.0,0.0,0.0
1609043650904791881,679,1609043650904551087,-0.0005128548769306462,-3.81520011867309e-05,7.963552971368415e-05,0.0,0.0,0.0,0.0
1609043650957100272,680,1609043650956461964,-0.00044226669916014316,-0.00013710149433165952,0.00011229603202167482,0.0,0.0,0.0,0.0
1609043651003353651,681,1609043651002686081,-0.0004999471527398214,-8.422449451117586e-05,2.7284617072353967e-05,0.0,0.0,0.0,0.0
1609043651056188760,682,1609043651055675087,-0.00048625054948558954,2.9425790284420827e-05,6.545075036612502e-05,0.0,0.0,0.0,0.0
1609043651103254749,683,1609043651103020964,-0.0005840783975195052,2.8357889320318463e-05,2.9540490688262366e-05,0.0,0.0,0.0,0.0
1609043651152569961,684,1609043651152264891,-0.0003803645629290031,9.1740237930793e-05,0.00012057700578260722,0.0,0.0,0.0,0.0
1609043651202693507,685,1609043651202364979,-0.0002882959086463188,5.992950742417236e-05,0.00014903537981325599,0.0,0.0,0.0,0.0
1609043651254080961,686,1609043651253844080,-0.00031016653907300906,-1.1098367885153948e-05,0.0001517736779881318,0.0,0.0,0.0,0.0
1609043651305438817,687,1609043651304052887,-0.0004106870143125718,7.21557530738437e-05,-6.086849931996596e-05,0.0,0.0,0.0,0.0
1609043651353431650,688,1609043651352521000,-0.0004650505779153491,0.00010353597201095965,6.582944185495876e-05,0.0,0.0,0.0,0.0
1609043651404854100,689,1609043651404502926,-0.0003367810660463988,0.0002250096396849699,0.00011035056891195438,0.0,0.0,0.0,0.0
1609043651457137918,690,1609043651456569968,-0.0004142212072899554,0.0001715533768020805,3.5034037111358884e-06,0.0,0.0,0.0,0.0
1609043651506584134,691,1609043651506228982,-0.0004668448772910949,0.00011299290722277533,7.486680146762126e-05,0.0,0.0,0.0,0.0
1609043651553715677,692,1609043651553388892,-0.00041745173780682876,-5.6217061406016455e-05,0.00010935795504707357,0.0,0.0,0.0,0.0
1609043651603134288,693,1609043651602519093,-0.000518294214387538,-7.97711859554795e-05,6.650523946305498e-05,0.0,0.0,0.0,0.0
1609043651655357349,694,1609043651655026970,-0.0004383320594634199,-0.00010779830289209258,0.00012133111241752204,0.0,0.0,0.0,0.0
1609043651726635566,695,1609043651726306973,-0.0005894048932901796,-2.10618889848746e-05,1.1686980721847817e-05,0.0,0.0,0.0,0.0
1609043651769008838,696,1609043651768775998,-0.00043317750679250366,6.124835793031025e-05,0.00020850345229206368,0.0,0.0,0.0,0.0
1609043651857195560,697,1609043651856891928,-0.0004218882071675978,-6.314921044037192e-05,0.00011422400203109362,0.0,0.0,0.0,0.0
1609043651907477167,698,1609043651907214938,-0.0006286351634052778,-9.81011061007564e-06,9.654736376596418e-05,0.0,0.0,0.0,0.0
1609043651948333005,699,1609043651948077021,-0.00047147997762309046,8.099801413941066e-05,6.567864735451678e-05,0.0,0.0,0.0,0.0
1609043651999008700,700,1609043651998587904,-0.0004168071056476208,-6.778119456107845e-05,0.00010140247848156037,0.0,0.0,0.0,0.0
1609043652050662061,701,1609043652049837885,-0.0005921656753677951,-1.1943014666115914e-05,2.2460118058731382e-05,0.0,0.0,0.0,0.0
1609043652114439650,702,1609043652113920985,-0.0005953962369211752,1.0270211703300447e-06,3.6392288077280455e-05,0.0,0.0,0.0,0.0
1609043652158414909,703,1609043652157920895,-0.0002426387799374652,-0.00011402480150835004,0.00018825470273675649,0.0,0.0,0.0,0.0
1609043652204106176,704,1609043652203728018,-0.00048191935063002234,-4.1472242704898576e-05,0.00024665104738197385,0.0,0.0,0.0,0.0
1609043652254724495,705,1609043652254019080,-0.0005732170416763438,-2.797735890602837e-05,0.0002060918824131619,0.0,0.0,0.0,0.0
1609043652304781290,706,1609043652304257927,-0.0004948051685573773,-5.327217696482478e-05,0.00026559042195373195,0.0,0.0,0.0,0.0
1609043652353699554,707,1609043652353328047,-0.0006306286541715167,-0.00011926236271264656,3.742200908796178e-05,0.0,0.0,0.0,0.0
1609043652402222365,708,1609043652401931105,-0.00037424373569194813,-7.379746594438075e-05,0.00024363344527777997,0.0,0.0,0.0,0.0
1609043652459612097,709,1609043652457825957,-0.00043663551751649265,3.818580511349978e-05,0.00020211407118608804,0.0,0.0,0.0,0.0
1609043652503270281,710,1609043652502889929,-0.0006272502014823544,0.00013340022969288157,0.00017635428385354146,0.0,0.0,0.0,0.0
1609043652552928621,711,1609043652552249966,-0.0004365579015299659,1.6652869470945575e-05,0.00018954331980225447,0.0,0.0,0.0,0.0
1609043652605375419,712,1609043652604857979,-0.0003834764600370022,-0.00020488281522190732,0.0001864971317182551,0.0,0.0,0.0,0.0
1609043652653795982,713,1609043652652705012,-0.0006185846882083013,-9.407894544288808e-05,2.7881157697251524e-05,0.0,0.0,0.0,0.0
1609043652706276731,714,1609043652705683051,-0.0004899632778574414,-4.224090526960822e-05,0.00026227786767840655,0.0,0.0,0.0,0.0
1609043652754258854,715,1609043652753114996,-0.00044611737745015034,-0.00012477561785395608,0.0001270955802326057,0.0,0.0,0.0,0.0
1609043652804873321,716,1609043652804196892,-0.0005424624582239801,-0.0001930434965800032,4.9477720835966466e-05,0.0,0.0,0.0,0.0
1609043652854923428,717,1609043652854637919,-0.000600524720105966,-3.161015791519617e-05,2.7819782726368203e-05,0.0,0.0,0.0,0.0
1609043652907216874,718,1609043652906878052,-0.00041866378616362,-7.024517791265339e-05,0.00010369099096152468,0.0,0.0,0.0,0.0
1609043652955643898,719,1609043652955344019,-0.0005665622972301776,-0.00018772812433631714,-0.0001300416739162813,0.0,0.0,0.0,0.0
1609043653003940280,720,1609043653003237067,-0.0005312543157991456,-0.00016192499296785456,4.502857683164052e-05,0.0,0.0,0.0,0.0
1609043653055692744,721,1609043653055003939,-0.00054105520290193,-0.0001785335307626923,5.503237576753861e-05,0.0,0.0,0.0,0.0
1609043653103085698,722,1609043653102260886,-0.0004022827607634838,5.772168714557324e-06,0.00011479599244168526,0.0,0.0,0.0,0.0
1609043653152155904,723,1609043653151819048,-0.000513371411408059,-3.8700989973605715e-05,8.035090515967624e-05,0.0,0.0,0.0,0.0
1609043653203615765,724,1609043653203285990,-0.00039363258360580744,5.673125343186314e-05,0.00012689742779059543,0.0,0.0,0.0,0.0
1609043653256327799,725,1609043653255760012,-0.00044837296001176696,-7.188778466193924e-05,0.00016209576582504326,0.0,0.0,0.0,0.0
1609043653303271979,726,1609043653303022919,-0.0006286478421131392,-9.773312499028464e-05,4.587803608480101e-05,0.0,0.0,0.0,0.0
1609043653354162072,727,1609043653353490887,-0.0005113396082698785,-4.120098453874732e-05,7.485039962418227e-05,0.0,0.0,0.0,0.0
1609043653403815435,728,1609043653403425036,-0.00050153575216072,-3.0822080589132383e-05,6.124894380121759e-05,0.0,0.0,0.0,0.0
1609043653454586643,729,1609043653454121886,-0.0006009250518914655,-5.383576506901022e-05,1.5804734283975108e-05,0.0,0.0,0.0,0.0
1609043653504838279,730,1609043653504603920,-0.0005123963573439028,2.883351292304326e-05,0.00011734233235749514,0.0,0.0,0.0,0.0
1609043653553283188,731,1609043653553011952,-0.0005861925273045188,-9.77822059056166e-06,1.1775397810609434e-05,0.0,0.0,0.0,0.0
1609043653603835215,732,1609043653603406964,-0.0006021214082707615,1.7280133544517184e-05,5.919885727223573e-05,0.0,0.0,0.0,0.0
1609043653654765990,733,1609043653654373942,-0.0005067072888422786,-8.875720713419355e-05,3.817624696367261e-05,0.0,0.0,0.0,0.0
1609043653705310883,734,1609043653704877911,-0.00034175305890826735,-8.700428493213508e-05,0.00017110978852308278,0.0,0.0,0.0,0.0
1609043653755763703,735,1609043653755338011,-0.0005972714964457282,-0.00010782420100241552,-2.2622564445740068e-05,0.0,0.0,0.0,0.0
1609043653803590262,736,1609043653802954970,-0.0005101136017202634,-9.028317245096673e-05,4.410138946298048e-05,0.0,0.0,0.0,0.0
1609043653854785454,737,1609043653854162989,-0.0005591986160062845,-9.927352831518022e-05,-9.375242900411251e-05,0.0,0.0,0.0,0.0
1609043653905975551,738,1609043653905649004,-0.00038213490894278834,-8.711817098827623e-05,2.098682254114692e-05,0.0,0.0,0.0,0.0
1609043653953145270,739,1609043653952793894,-0.00055091513388561,8.84262680678205e-05,-2.07702721155556e-06,0.0,0.0,0.0,0.0
1609043654005009138,740,1609043654004638968,-0.00036233632951621075,7.552112873021599e-05,7.520925672110934e-05,0.0,0.0,0.0,0.0
1609043654061423236,741,1609043654060996113,-0.00037630562212598306,8.02101349783868e-05,0.00010582007325865561,0.0,0.0,0.0,0.0
1609043654103439006,742,1609043654102572022,-0.00046492970907507924,0.00011018041335653095,6.941910172741927e-05,0.0,0.0,0.0,0.0
1609043654152454851,743,1609043654152026949,-0.00047562198382777865,0.000269095647698947,0.000182410162347324,0.0,0.0,0.0,0.0
1609043654204078825,744,1609043654202808915,-0.0002878637944405682,6.331145642057834e-05,0.0001501221241326789,0.0,0.0,0.0,0.0
1609043654256615236,745,1609043654256011067,-0.0005976220444168234,1.2231222612513193e-05,4.729907297651437e-05,0.0,0.0,0.0,0.0
1609043654305998591,746,1609043654305424033,-0.0004470806237435454,-5.51611128152274e-05,0.0001691582956109272,0.0,0.0,0.0,0.0
1609043654353692343,747,1609043654353370009,-0.0005052619746379605,-1.363237510787485e-05,7.8604314996511e-05,0.0,0.0,0.0,0.0
1609043654403151242,748,1609043654402842103,-0.0004770043824500192,7.097222179730522e-05,7.093429958082709e-05,0.0,0.0,0.0,0.0
1609043654455024152,749,1609043654454701958,-0.000602591164099664,-3.0955494938922357e-05,3.232550704446169e-05,0.0,0.0,0.0,0.0
1609043654503195011,750,1609043654502903042,-0.0003580899656654424,-0.00018310112634800646,0.00014833969401095715,0.0,0.0,0.0,0.0
1609043654553725170,751,1609043654553401051,-0.0007084131070307365,-0.000133770319211024,-4.6278934094701185e-05,0.0,0.0,0.0,0.0
1609043654607710148,752,1609043654607281027,-0.0005847226367308167,-3.3159388722836525e-05,-4.642187692027733e-06,0.0,0.0,0.0,0.0
1609043654654960854,753,1609043654654419003,-0.0005945079321421076,-2.9092694468602076e-05,1.725121201978652e-05,0.0,0.0,0.0,0.0
1609043654704187094,754,1609043654703591881,-0.00043149605713921346,2.1268321491518805e-05,0.00018209214208830815,0.0,0.0,0.0,0.0
1609043654753572827,755,1609043654753087101,-0.0005058147722429851,-3.174166782926591e-05,6.926717296451557e-05,0.0,0.0,0.0,0.0
1609043654804945444,756,1609043654804260073,-0.0003362899538714714,-7.87530904613476e-05,0.00016495330150334553,0.0,0.0,0.0,0.0
1609043654861341451,757,1609043654860626994,-0.0005076449145633433,1.272065545343537e-05,9.855960915139406e-05,0.0,0.0,0.0,0.0
1609043654906108217,758,1609043654905488072,-0.000565953660622398,0.00014171266764861912,5.869070167108248e-05,0.0,0.0,0.0,0.0
1609043654953275688,759,1609043654952817021,-0.0006445701165986861,1.065204747519033e-05,0.00014017999806803516,0.0,0.0,0.0,0.0
1609043655002692444,760,1609043655002439080,-0.00043082374905623055,-5.783109541113163e-05,0.0001351414051917743,0.0,0.0,0.0,0.0
1609043655055362951,761,1609043655054667054,-0.0005416462669316502,-0.00010995781256895043,9.575214917134645e-05,0.0,0.0,0.0,0.0
1609043655105038511,762,1609043655104780970,-0.0004391210728336148,-9.149048423751083e-05,0.00013231012054149005,0.0,0.0,0.0,0.0
1609043655152335158,763,1609043655152046023,-0.0003880692893787341,-0.00023171492993157017,0.00018020185631506536,0.0,0.0,0.0,0.0
1609043655203879748,764,1609043655203368006,-0.0006284053214749008,-0.0001597081802238165,0.00024039249583474032,0.0,0.0,0.0,0.0
1609043655254585253,765,1609043655254176913,-0.0006107740845315845,-0.0001779304447548924,0.00019466247891841704,0.0,0.0,0.0,0.0
1609043655306690121,766,1609043655305847941,-0.00039972532346155276,-0.00032725333596062,0.00014840347485822747,0.0,0.0,0.0,0.0
1609043655355206311,767,1609043655354909001,-0.0007030261936264992,-0.00029261182063677893,-0.00014862262000114868,0.0,0.0,0.0,0.0
1609043655403731987,768,1609043655403384982,-0.0005511000312523606,-0.0001927203154235002,6.691985441342752e-05,0.0,0.0,0.0,0.0
1609043655454533193,769,1609043655454242049,-0.0006414244830423854,-0.00015947271195315693,3.580533010527631e-05,0.0,0.0,0.0,0.0
1609043655504353990,770,1609043655503746090,-0.00046678805892597097,-0.00019472484458304962,0.00012805974001928178,0.0,0.0,0.0,0.0
1609043655561078925,771,1609043655560747920,-0.0007443976667751429,-2.5075910643934662e-05,8.828045467090817e-05,0.0,0.0,0.0,0.0
1609043655603126589,772,1609043655602788029,-0.00039312506471134157,-0.00019347797611679596,0.00021234855657503715,0.0,0.0,0.0,0.0
1609043655653832207,773,1609043655653355895,-0.0003629768962838398,-0.00034264729028699037,6.611354809216152e-05,0.0,0.0,0.0,0.0
1609043655702846112,774,1609043655702537118,-0.0005286583067558581,-1.6505498823704556e-05,0.00012368806396700904,0.0,0.0,0.0,0.0
1609043655753199190,775,1609043655752784071,-0.000631790962163592,-7.216380118535426e-05,6.6899943883314e-05,0.0,0.0,0.0,0.0
1609043655803238951,776,1609043655803010045,-0.0004033105671759074,-6.154708670536024e-05,0.00030876597537421446,0.0,0.0,0.0,0.0
1609043655856186593,777,1609043655855727969,-0.0007394869701258244,-0.00012201971686742752,2.2574327299906827e-05,0.0,0.0,0.0,0.0
1609043655907082951,778,1609043655906371890,-0.0005212851823195308,-3.732968339953402e-05,9.695140732368657e-05,0.0,0.0,0.0,0.0
1609043655961139568,779,1609043655960450945,-0.0005400018919985428,-0.0001361571944631379,7.736114689116391e-05,0.0,0.0,0.0,0.0
1609043656003445453,780,1609043656002715884,-0.0003858282387447787,-0.00023834816907530865,0.00017190022610691358,0.0,0.0,0.0,0.0
1609043656054530445,781,1609043656054246960,-0.0006111444532592714,-3.281629500939687e-05,4.834003908271711e-05,0.0,0.0,0.0,0.0
1609043656111453993,782,1609043656111146031,-0.00044961138083721153,-0.00012549820009866153,0.00013365914659146938,0.0,0.0,0.0,0.0
1609043656161980722,783,1609043656161556063,-0.0003889811638231322,-0.0002169656858619362,0.0001905275803331108,0.0,0.0,0.0,0.0
1609043656209336414,784,1609043656208544074,-0.0006343417311249766,-0.00013752502975350467,3.431008807019964e-05,0.0,0.0,0.0,0.0
1609043656260834103,785,1609043656259649096,-0.0006290261754635651,4.165917896870042e-06,0.00010538688264105645,0.0,0.0,0.0,0.0
1609043656304636070,786,1609043656303688107,-0.00044689147939891427,-0.00019528456885531398,8.798841663626433e-05,0.0,0.0,0.0,0.0
1609043656353727116,787,1609043656353152094,-0.0007388366094147614,-0.00010484697193646753,3.117641649552638e-05,0.0,0.0,0.0,0.0
1609043656411766833,788,1609043656410852967,-0.00023465275331702173,-0.00011477701354856151,0.00017186686458536826,0.0,0.0,0.0,0.0
1609043656462313591,789,1609043656462021885,-0.0005932722239911925,-0.0001414274059907683,-4.99867361725137e-05,0.0,0.0,0.0,0.0
1609043656509164847,790,1609043656508899031,-0.0005152886871577778,-8.3377775755622e-05,5.842144273060512e-05,0.0,0.0,0.0,0.0
1609043656558704175,791,1609043656558444081,-0.0005378075901951718,0.00011956220550501939,0.0002204217570866973,0.0,0.0,0.0,0.0
1609043656603742988,792,1609043656603386937,-0.0003355001503031474,-0.00013888386814819853,0.00012870530639830235,0.0,0.0,0.0,0.0
1609043656655041192,793,1609043656654321013,-0.0006957320325717831,4.049725137278415e-05,2.8866034762486947e-05,0.0,0.0,0.0,0.0
1609043656706642331,794,1609043656705163060,-0.0006319516566186678,0.0001917314521833191,0.0002193805848733632,0.0,0.0,0.0,0.0
1609043656753547198,795,1609043656753150998,-0.0005268866635681491,-4.150793394330776e-06,0.00012727227341358116,0.0,0.0,0.0,0.0
1609043656802733860,796,1609043656802402077,-0.0005241169958338787,1.1166360387449004e-06,0.00012477624583162594,0.0,0.0,0.0,0.0
1609043656853379658,797,1609043656853049098,-0.0004953771932463269,6.024365829127021e-05,0.0001014527862892578,0.0,0.0,0.0,0.0
1609043656906865997,798,1609043656906055985,-0.00046441008516850957,-4.8427242578696905e-05,-2.3069621430948928e-05,0.0,0.0,0.0,0.0
1609043656956353897,799,1609043656955891905,-0.0007435606046399812,0.00020839441298292627,-9.507512164219634e-06,0.0,0.0,0.0,0.0
1609043657006920057,800,1609043657006615935,-0.0005698215664793338,0.00014310954444063384,6.722328726738169e-05,0.0,0.0,0.0,0.0
1609043657054937146,801,1609043657054457961,-0.0005345326263856975,5.647104953965254e-05,0.00017750104809444167,0.0,0.0,0.0,0.0
1609043657104142681,802,1609043657103690920,-0.0005887415227512349,-0.0001720673227456615,-7.670390348479827e-05,0.0,0.0,0.0,0.0
1609043657151129725,803,1609043657150747118,-0.0005979434558405217,-9.038992799048629e-05,-1.122801896791259e-05,0.0,0.0,0.0,0.0
1609043657203420356,804,1609043657202941952,-0.00045740380160097516,-3.530492796244289e-05,-2.950034456894457e-05,0.0,0.0,0.0,0.0
1609043657256232264,805,1609043657255775033,-0.0006507449045294322,0.00017263001478617923,1.517872228085082e-05,0.0,0.0,0.0,0.0
1609043657304244270,806,1609043657303494034,-0.0006754826977690698,-8.845043594085666e-05,-8.593564005465737e-05,0.0,0.0,0.0,0.0
1609043657354817929,807,1609043657354323922,-0.0004963382536899985,-6.554021151039535e-05,3.0847855772009325e-05,0.0,0.0,0.0,0.0
1609043657405081208,808,1609043657404666958,-0.0004693089483538415,-0.00013788763279798388,0.00016586681777575052,0.0,0.0,0.0,0.0
1609043657454544323,809,1609043657454224883,-0.0006112721718167791,2.4305022847670443e-06,6.891786853735482e-05,0.0,0.0,0.0,0.0
1609043657504283396,810,1609043657503517924,-0.0006514852295183005,-0.00016135146953644153,5.482110007903884e-05,0.0,0.0,0.0,0.0
1609043657556564590,811,1609043657556213913,-0.0005072428493484438,-0.00020133682151879384,-2.566398167225259e-05,0.0,0.0,0.0,0.0
1609043657604085240,812,1609043657603606043,-0.0006142148915451173,-1.3062492421056504e-06,7.26421842376368e-05,0.0,0.0,0.0,0.0
1609043657653141023,813,1609043657652581034,-0.0006194716871981143,6.093525499828445e-05,0.00011903169027682736,0.0,0.0,0.0,0.0
1609043657720426707,814,1609043657719754038,-0.0005617758133702466,-0.00019382417606728097,8.761108613875024e-05,0.0,0.0,0.0,0.0
1609043657759380350,815,1609043657758946000,-0.0006634783239682918,0.00011906376031234345,9.731197406992464e-06,0.0,0.0,0.0,0.0
1609043657806324346,816,1609043657804465113,-0.0005243501583613863,-3.634708734345793e-05,0.00010364105411042601,0.0,0.0,0.0,0.0
1609043657857019789,817,1609043657856519042,-0.0006524776334977389,-0.00015853654808672957,5.842669701294767e-05,0.0,0.0,0.0,0.0
1609043657906725131,818,1609043657905513106,-0.0006026908401359776,-0.0002685106356778988,0.00012628796507740958,0.0,0.0,0.0,0.0
1609043657953653868,819,1609043657952822028,-0.000746206489218082,-4.519750457099292e-05,8.029233267414781e-05,0.0,0.0,0.0,0.0
1609043658004304289,820,1609043658003639040,-0.0004999944620749375,-0.00019770059913604143,-3.804788478056764e-05,0.0,0.0,0.0,0.0
1609043658056185823,821,1609043658055428086,-0.0008686942632110117,0.00010651633507663405,-4.8993438909405995e-05,0.0,0.0,0.0,0.0
1609043658104807351,822,1609043658104399977,-0.0007045785573112084,1.260614103237856e-05,3.04577587115773e-05,0.0,0.0,0.0,0.0
1609043658152984638,823,1609043658152668057,-0.0007732030924678668,-0.00017522421958915402,5.925522220273649e-05,0.0,0.0,0.0,0.0
1609043658203438091,824,1609043658203037081,-0.0006502997406130362,-0.00017421556547958517,4.503570329639217e-05,0.0,0.0,0.0,0.0
1609043658255300307,825,1609043658254897891,-0.0007477950583840709,-6.79215099541608e-05,7.036373087743186e-05,0.0,0.0,0.0,0.0
1609043658304212314,826,1609043658303688107,-0.0007326832507210668,-0.00014004501175080009,-1.4107992214462683e-06,0.0,0.0,0.0,0.0
1609043658360670990,827,1609043658359818993,-0.0006548802044825663,8.867220319785929e-06,-7.09833252692249e-05,0.0,0.0,0.0,0.0
1609043658403214712,828,1609043658402264891,-0.0007566251961712567,-3.36715008764088e-05,-0.00012297906554969984,0.0,0.0,0.0,0.0
1609043658461395157,829,1609043658461112080,-0.0006733143513457662,-3.0298908900050492e-05,-5.6738802747702266e-05,0.0,0.0,0.0,0.0
1609043658508846888,830,1609043658508426009,-0.0006786260397610988,-0.00012268471980547702,-9.939448944251694e-05,0.0,0.0,0.0,0.0
1609043658561231659,831,1609043658560926018,-0.0006070032190343966,-2.5740157850506762e-05,4.41468007927881e-05,0.0,0.0,0.0,0.0
1609043658604449424,832,1609043658604028998,-0.0007664350573648449,-0.00011259093509075058,-0.00014888404122892496,0.0,0.0,0.0,0.0
1609043658654702011,833,1609043658654430924,-0.0006355959709125614,2.867572450426792e-05,-9.808717696380143e-05,0.0,0.0,0.0,0.0
1609043658711506816,834,1609043658711228905,-0.0006314123363004853,1.270624991533964e-05,-0.00011565265216972875,0.0,0.0,0.0,0.0
1609043658760162083,835,1609043658759676037,-0.0005071565554786162,-0.00015564435312498404,5.08436748702934e-07,0.0,0.0,0.0,0.0
1609043658809051853,836,1609043658808600007,-0.0006712661441312662,-0.00015247579247557042,-0.00013127421977543463,0.0,0.0,0.0,0.0
1609043658857844658,837,1609043658856463013,-0.000580635788427486,-2.1437467779605868e-05,-6.048091936605715e-06,0.0,0.0,0.0,0.0
1609043658911769701,838,1609043658910958109,-0.0005496497358095098,-2.6087672187813382e-05,-7.063161072551338e-05,0.0,0.0,0.0,0.0
1609043658954106002,839,1609043658953508912,-0.0006698483189317983,-0.00016089070519420545,-0.0001389584080015993,0.0,0.0,0.0,0.0
1609043659004372871,840,1609043659003895102,-0.0007153127894312661,-0.0002744644677381558,-0.00011361417643129812,0.0,0.0,0.0,0.0
1609043659053867781,841,1609043659053347884,-0.000625126113853014,-0.0001573886642525224,4.446690439863232e-06,0.0,0.0,0.0,0.0
1609043659111708398,842,1609043659111321030,-0.0008945754958311625,-0.00021236901963739285,-0.00018114952454162392,0.0,0.0,0.0,0.0
1609043659160411575,843,1609043659160141049,-0.0008084901236848907,-7.315524717022015e-05,-4.213085425419649e-05,0.0,0.0,0.0,0.0
1609043659210334299,844,1609043659209648905,-0.000720070873601486,1.5081405656758307e-05,6.283503931392431e-05,0.0,0.0,0.0,0.0
1609043659259290286,845,1609043659258942900,-0.0008361512936900795,-5.652648064113919e-05,2.271754132188164e-05,0.0,0.0,0.0,0.0
1609043659309741350,846,1609043659309104977,-0.0007692655958457806,-7.55370293763491e-05,-0.00012186520880241858,0.0,0.0,0.0,0.0
1609043659354056555,847,1609043659353556929,-0.0006973687027667097,2.0211785614066002e-05,2.0439441856368035e-05,0.0,0.0,0.0,0.0
1609043659410867760,848,1609043659410207091,-0.0008434300179516185,-0.00011039360535214371,-0.00022453010387657457,0.0,0.0,0.0,0.0
1609043659461946370,849,1609043659461725054,-0.0007936854605645749,4.443564741407613e-05,-0.00023463692626535249,0.0,0.0,0.0,0.0
1609043659509125739,850,1609043659508781968,-0.0006251383254820553,-1.0786444955002139e-05,-0.0001417318107233001,0.0,0.0,0.0,0.0
1609043659559896351,851,1609043659559440909,-0.0006656654265491113,-0.00013765178539237866,-0.00013391599707901491,0.0,0.0,0.0,0.0
1609043659609344831,852,1609043659609077988,-0.0007746125630099243,3.407587904824538e-05,-4.798309574383097e-05,0.0,0.0,0.0,0.0
1609043659654860848,853,1609043659654444991,-0.0006329709123207294,8.310890488161249e-05,0.00015878526941115467,0.0,0.0,0.0,0.0
1609043659706843575,854,1609043659706171093,-0.0009079587653673116,-0.00010929712870577646,-9.498544934594122e-05,0.0,0.0,0.0,0.0
1609043659753886823,855,1609043659753248034,-0.0008241200287848471,-0.00012777116507578512,-4.239600088418172e-05,0.0,0.0,0.0,0.0
1609043659803880325,856,1609043659803254900,-0.0007238959588704574,-0.00010145850461285022,3.2821797990578716e-06,0.0,0.0,0.0,0.0
1609043659855116440,857,1609043659854352055,-0.0006489571186207854,-0.00016876903544904565,4.54937695995028e-05,0.0,0.0,0.0,0.0
1609043659905144433,858,1609043659904759942,-0.0008898293491554909,-9.2105899156536e-05,-0.00012129175643593726,0.0,0.0,0.0,0.0
1609043659955459449,859,1609043659954990922,-0.0005382220682506045,-9.880018548713565e-05,9.534464272142884e-05,0.0,0.0,0.0,0.0
1609043660003621017,860,1609043660003284035,-0.0006202776589212533,-0.00013803398988443405,5.919991895808607e-06,0.0,0.0,0.0,0.0
1609043660054085587,861,1609043660053849040,-0.0007371098287869415,-0.00012837284580946573,1.4162308906051635e-05,0.0,0.0,0.0,0.0
1609043660104288847,862,1609043660104015885,-0.0008512075176625444,-0.0002107935848769671,-3.614954747632737e-05,0.0,0.0,0.0,0.0
1609043660154656931,863,1609043660153835116,-0.0006400096929617405,-0.00012154329115965368,5.4847989764184035e-05,0.0,0.0,0.0,0.0
1609043660205179057,864,1609043660204692898,-0.0009096354026176812,-8.115333692870763e-05,-7.540903243352659e-05,0.0,0.0,0.0,0.0
1609043660255214244,865,1609043660254636107,-0.0009126602790132665,-7.818296800721214e-05,-6.765340038228373e-05,0.0,0.0,0.0,0.0
1609043660307134704,866,1609043660305807887,-0.000609058870111312,-1.7538951926354684e-06,6.208355598147364e-05,0.0,0.0,0.0,0.0
1609043660353641245,867,1609043660353056965,-0.0006808546622565359,-0.00013922808313004964,-0.00010448063405910091,0.0,0.0,0.0,0.0
1609043660402446420,868,1609043660402077971,-0.0008069170006272941,-4.1031091418730625e-05,-2.675158187770421e-05,0.0,0.0,0.0,0.0
1609043660458923357,869,1609043660458327113,-0.0006690701896268081,1.3391980536070491e-05,0.00019070563259049322,0.0,0.0,0.0,0.0
1609043660503857038,870,1609043660503588019,-0.0008259650401214458,-6.548433187880676e-05,-2.797173529245356e-06,0.0,0.0,0.0,0.0
1609043660557207419,871,1609043660556799946,-0.0007742216592667717,5.200404019056748e-05,-3.842696928302303e-05,0.0,0.0,0.0,0.0
1609043660603028229,872,1609043660602593003,-0.0006935621745505216,2.5068270650407953e-05,1.5635062132091093e-05,0.0,0.0,0.0,0.0
1609043660654886206,873,1609043660654147921,-0.0006958676445947276,2.2533363715382393e-05,1.877926339055591e-05,0.0,0.0,0.0,0.0
1609043660701739096,874,1609043660701309023,-0.0007779501363600616,4.167452250669612e-05,-3.693417866834636e-05,0.0,0.0,0.0,0.0
1609043660754717781,875,1609043660754305897,-0.0006038101942138496,-1.5419251313986138e-05,4.371873863107112e-05,0.0,0.0,0.0,0.0
1609043660805015160,876,1609043660804460106,-0.0008605035034321418,5.442564650337545e-05,-9.539128391189422e-05,0.0,0.0,0.0,0.0
1609043660855380067,877,1609043660854820071,-0.0006283905644473009,-1.6183139743830566e-05,-0.00013834628593123455,0.0,0.0,0.0,0.0
1609043660908377044,878,1609043660907929955,-0.0006295617622527061,-1.67787786011786e-05,-0.00013634996926903398,0.0,0.0,0.0,0.0
1609043660953711011,879,1609043660953033028,-0.0006689537049346939,-0.00015530908642880092,-0.00013752745306483405,0.0,0.0,0.0,0.0
1609043661004508996,880,1609043661003799019,-0.0008662638533145639,6.918564830371565e-05,-7.5373126973588e-05,0.0,0.0,0.0,0.0
1609043661057649137,881,1609043661056536971,-0.0004828417524329609,0.00012311979794255024,0.00011266381076957543,0.0,0.0,0.0,0.0
1609043661104890997,882,1609043661104614077,-0.0005815450309007986,-4.7269642037051085e-05,-1.9125914816342515e-05,0.0,0.0,0.0,0.0
1609043661154278988,883,1609043661153871117,-0.0006920862613988277,2.2629668221085808e-05,1.1280479046860137e-05,0.0,0.0,0.0,0.0
1609043661203553690,884,1609043661203204928,-0.0007748651377887938,5.0041966085601075e-05,-3.8272750636281216e-05,0.0,0.0,0.0,0.0
1609043661255546913,885,1609043661254911004,-0.0006360725332470452,-0.00010092354822077709,5.887130304493837e-05,0.0,0.0,0.0,0.0
1609043661305023121,886,1609043661303879080,-0.0008221276157378554,-0.00011047775321060271,-3.640549530636861e-05,0.0,0.0,0.0,0.0
1609043661355289512,887,1609043661354343949,-0.0008673147595779085,6.507944538647337e-05,-7.564122985215249e-05,0.0,0.0,0.0,0.0
1609043661402846644,888,1609043661402432976,-0.000670195904131532,-0.00012573381930280902,-0.00011799376750332158,0.0,0.0,0.0,0.0
1609043661454632999,889,1609043661454166947,-0.0007981896165709657,-1.992655378479924e-05,-3.2018445088155545e-05,0.0,0.0,0.0,0.0
1609043661503427623,890,1609043661503027020,-0.0009363226558463111,7.64706727753861e-05,6.878912038743579e-05,0.0,0.0,0.0,0.0
1609043661552860799,891,1609043661552523909,-0.0006162476058051425,5.927059157428971e-05,0.0001116308798660981,0.0,0.0,0.0,0.0
1609043661603377428,892,1609043661602865992,-0.0009573085161846961,8.872722517772047e-05,-0.00011295139131917153,0.0,0.0,0.0,0.0
1609043661654754181,893,1609043661654228983,-0.0008663830846202814,6.55936320885786e-05,-7.720602504157625e-05,0.0,0.0,0.0,0.0
1609043661705080024,894,1609043661704520045,-0.0006970100891550146,1.4104886922439164e-05,1.6201882861111017e-05,0.0,0.0,0.0,0.0
1609043661753805759,895,1609043661752939997,-0.0006957206703432917,1.734072569270495e-05,1.5491656409238885e-05,0.0,0.0,0.0,0.0
1609043661806224633,896,1609043661805342970,-0.0009121062011381298,8.497039023147579e-05,2.531069448963308e-05,0.0,0.0,0.0,0.0
1609043661857224312,897,1609043661856200038,-0.0005819122878882865,-1.894181827033492e-05,0.00022867289446359962,0.0,0.0,0.0,0.0
1609043661906849195,898,1609043661906195937,-0.0007074720857254135,1.7783161071704967e-05,3.9223340547067664e-05,0.0,0.0,0.0,0.0
1609043661953883694,899,1609043661952966033,-0.000889578282095016,-9.151883343605505e-05,0.0001092772433572975,0.0,0.0,0.0,0.0
1609043662004035878,900,1609043662003624020,-0.0008066699521869225,5.388211483747796e-05,2.7480062943396888e-05,0.0,0.0,0.0,0.0
1609043662054257513,901,1609043662053817091,-0.0006399661948428559,-1.4051899910327847e-06,-0.00010670057573669567,0.0,0.0,0.0,0.0
1609043662104871175,902,1609043662104552088,-0.0009538921507612486,8.707799251617132e-05,-0.00012072740187463182,0.0,0.0,0.0,0.0
1609043662157454466,903,1609043662156864939,-0.0004280688695423862,-9.775808865164493e-05,0.00010661669480427349,0.0,0.0,0.0,0.0
1609043662204691130,904,1609043662204469023,-0.0005708380458351314,-2.3530937157900667e-05,-2.6828596588757136e-05,0.0,0.0,0.0,0.0
1609043662254472848,905,1609043662253934918,-0.0007805751999612198,3.86660839648556e-05,-3.342453594079586e-05,0.0,0.0,0.0,0.0
1609043662305108662,906,1609043662304636059,-0.0007801527273620934,3.54895841141456e-05,-3.610004928233934e-05,0.0,0.0,0.0,0.0
1609043662353550269,907,1609043662353231011,-0.0006439218387761514,-1.1898765723827864e-06,-9.86740669350894e-05,0.0,0.0,0.0,0.0
1609043662403684244,908,1609043662403326092,-0.0009146798468471218,7.782761927010995e-05,2.6333841294245985e-05,0.0,0.0,0.0,0.0
1609043662456215306,909,1609043662455940066,-0.0003950587839653963,7.399569695820674e-05,0.0001397011548540661,0.0,0.0,0.0,0.0
1609043662504746793,910,1609043662504295884,-0.0006069936840269463,-7.549329740896837e-06,5.461625216263144e-05,0.0,0.0,0.0,0.0
1609043662552386129,911,1609043662552095948,-0.000734780384831879,-0.00010107313535101525,2.524891597843748e-05,0.0,0.0,0.0,0.0
1609043662603111419,912,1609043662602840958,-0.0008697832204589417,5.999842553094936e-05,-7.363945411320572e-05,0.0,0.0,0.0,0.0
1609043662655268924,913,1609043662654969035,-0.0006035312072611987,-5.035624104365866e-06,4.9148402714749295e-05,0.0,0.0,0.0,0.0
1609043662705600282,914,1609043662705361901,-0.0007451217601648352,-5.153881986252884e-05,7.44690065026532e-05,0.0,0.0,0.0,0.0
1609043662752973506,915,1609043662752594052,-0.0008477499571633018,5.7458598300641484e-05,0.00011161107911838997,0.0,0.0,0.0,0.0
1609043662805563601,916,1609043662805215893,-0.0007602329270497421,3.794363583864424e-05,0.00015625208298075677,0.0,0.0,0.0,0.0
1609043662855047767,917,1609043662854601918,-0.0006077630632930209,-1.0875083738426383e-05,5.4235718495831975e-05,0.0,0.0,0.0,0.0
1609043662905837215,918,1609043662905472098,-0.0007076295741192951,1.6109195167146595e-05,3.857278442254142e-05,0.0,0.0,0.0,0.0
1609043662955376772,919,1609043662954964934,-0.0005546056966352353,-4.083523324283078e-05,0.0001614968637859704,0.0,0.0,0.0,0.0
1609043663006368017,920,1609043663006099043,-0.000636253013151844,1.0047884035913057e-06,0.00011800180497800739,0.0,0.0,0.0,0.0
1609043663055424920,921,1609043663054901896,-0.0006954399071013029,6.770901411101704e-06,8.836384290944466e-06,0.0,0.0,0.0,0.0
1609043663105190436,922,1609043663104423104,-0.0006905205912239865,-2.2707703520197242e-05,-1.798801500640934e-05,0.0,0.0,0.0,0.0
1609043663152806780,923,1609043663152468024,-0.00048055575305738785,-0.00014077135931600537,-4.4057865851598876e-05,0.0,0.0,0.0,0.0
1609043663207475848,924,1609043663207116900,-0.0006279197661882563,5.450997649703027e-06,-0.00012681311052453736,0.0,0.0,0.0,0.0
1609043663255116269,925,1609043663254684983,-0.0005668151473088301,0.00013619015864563266,5.7227506161439123e-05,0.0,0.0,0.0,0.0
1609043663305065987,926,1609043663304446993,-0.0005544534894745823,8.420397226416299e-05,2.5572095410097972e-06,0.0,0.0,0.0,0.0
1609043663353874481,927,1609043663353353081,-0.00047352435321812436,8.092244424950934e-05,6.971923823329007e-05,0.0,0.0,0.0,0.0
1609043663405193895,928,1609043663404377995,-0.0005686956134844934,0.00013185365923185088,5.84838349126926e-05,0.0,0.0,0.0,0.0
1609043663455779838,929,1609043663454824982,-0.0005023489289044392,-4.222058502811876e-05,5.630131480849343e-05,0.0,0.0,0.0,0.0
1609043663505319967,930,1609043663504925070,-0.0006187225855747158,0.0001523886658283402,0.00017026666546549052,0.0,0.0,0.0,0.0
1609043663556865752,931,1609043663556310950,-0.0006320240878352479,0.0001603468697553012,0.00020142888034690998,0.0,0.0,0.0,0.0
1609043663604845827,932,1609043663604521094,-0.0005823433928533461,6.703387344053624e-05,4.8374394092220996e-05,0.0,0.0,0.0,0.0
1609043663654332556,933,1609043663653952895,-0.0005626785976247106,0.0001398469391578061,5.1072143543606785e-05,0.0,0.0,0.0,0.0
1609043663704712592,934,1609043663704382954,-0.0005665561704013555,0.00013816669935984294,5.784979146383762e-05,0.0,0.0,0.0,0.0
1609043663753336797,935,1609043663752926884,-0.0005975733131045047,-0.0001444391623195429,-4.313072672346152e-05,0.0,0.0,0.0,0.0
1609043663804921628,936,1609043663804390965,-0.0006061942003618981,-3.1438659391369583e-06,5.555918742672361e-05,0.0,0.0,0.0,0.0
1609043663856435677,937,1609043663855767069,-0.0006914411525080766,1.7827327873476406e-05,7.2227576648487e-06,0.0,0.0,0.0,0.0
1609043663906960580,938,1609043663906348048,-0.0006403910669590118,-0.00011858240748807702,5.731705674349996e-05,0.0,0.0,0.0,0.0
1609043663953988587,939,1609043663953743992,-0.0006063061137950854,-1.0048735441969825e-05,5.180153597983406e-05,0.0,0.0,0.0,0.0
1609043664003151259,940,1609043664002847014,-0.0004330772747671574,-6.313393800283507e-05,0.00013658589020515421,0.0,0.0,0.0,0.0
1609043664054991908,941,1609043664054725943,-0.000497686176554879,-0.0001995451115597291,-4.3722727241402026e-05,0.0,0.0,0.0,0.0
1609043664106934588,942,1609043664105147896,-0.0004350196192746125,-6.723041145306752e-05,0.00013810428179361622,0.0,0.0,0.0,0.0
1609043664154691918,943,1609043664154233990,-0.0004836313870164588,9.569652346641533e-05,9.842924776215511e-05,0.0,0.0,0.0,0.0
1609043664204590267,944,1609043664204045115,-0.0006294702317646284,-8.145209984178337e-05,5.690823760495789e-05,0.0,0.0,0.0,0.0
1609043664254691036,945,1609043664254340945,-0.0006059370693307642,-5.831971465752872e-06,5.3495584898755055e-05,0.0,0.0,0.0,0.0
1609043664304410963,946,1609043664304065047,-0.00046737527570783755,-0.00017788731277512682,0.0001389409320911028,0.0,0.0,0.0,0.0
1609043664357475427,947,1609043664357180892,-0.0007212036581343284,-0.0002142806875866654,-6.714611683555916e-05,0.0,0.0,0.0,0.0
1609043664403002955,948,1609043664402622996,-0.0005130894000018316,-6.665012066342513e-05,6.367259974027206e-05,0.0,0.0,0.0,0.0
1609043664459338337,949,1609043664458782969,-0.0005834849873807002,-0.00017788417865816086,-9.055890643772102e-05,0.0,0.0,0.0,0.0
1609043664503773794,950,1609043664503303109,-0.00040443065220685526,2.9847284247708217e-05,0.0001329683656408065,0.0,0.0,0.0,0.0
1609043664553377918,951,1609043664552897988,-0.0005702092739063858,-0.00033174114892631223,-0.0002057875664398523,0.0,0.0,0.0,0.0
1609043664606978146,952,1609043664606739102,-0.00025922481869855574,-0.0001026323262749429,0.00022795832369304492,0.0,0.0,0.0,0.0
1609043664655447833,953,1609043664655084906,-0.00043416873609913864,-5.7613442690396255e-05,0.00014194939177158972,0.0,0.0,0.0,0.0
1609043664705655587,954,1609043664705328999,-0.0005201156692749009,-3.2008507318437296e-05,9.768309355351334e-05,0.0,0.0,0.0,0.0
1609043664754058998,955,1609043664753717957,-0.000584567783629808,-1.4515481502996863e-05,0.00023653018695490857,0.0,0.0,0.0,0.0
1609043664802189471,956,1609043664801842032,-0.0003536660901524158,-0.00010118468539843661,0.00018673304208149943,0.0,0.0,0.0,0.0
1609043664855496267,957,1609043664854641972,-0.0007400617776802676,-0.00013420220508564285,1.669856858121932e-05,0.0,0.0,0.0,0.0
1609043664907282406,958,1609043664906123934,-0.0007401543038803027,-0.00013833462238999061,1.4500778204862286e-05,0.0,0.0,0.0,0.0
1609043664953564449,959,1609043664953282891,-0.0005104535813060807,-0.00011670510598627004,2.9546354031850797e-05,0.0,0.0,0.0,0.0
1609043665005238885,960,1609043665004957972,-0.0003929714404797835,7.076169447906011e-05,0.00013366644464340993,0.0,0.0,0.0,0.0
1609043665055285316,961,1609043665054544983,-0.000746095427686555,-9.648745529133862e-05,5.049776739518563e-05,0.0,0.0,0.0,0.0
1609043665109171145,962,1609043665108310042,-0.0007026811522408138,-5.38459093135657e-06,1.6294052437970663e-05,0.0,0.0,0.0,0.0
1609043665152553078,963,1609043665152242003,-0.0003464076587214038,-8.366556229866262e-05,0.00018233362027508804,0.0,0.0,0.0,0.0
1609043665203195209,964,1609043665202894984,-0.0005682223630465444,0.0001396645614644143,6.204210411375755e-05,0.0,0.0,0.0,0.0
1609043665254832819,965,1609043665254524050,-0.0005606523133572239,-0.0001578854673773833,0.0001060878680121391,0.0,0.0,0.0,0.0
1609043665304371255,966,1609043665303978978,-0.00043392521367735526,-6.0753884856268314e-05,0.000139652167584714,0.0,0.0,0.0,0.0
1609043665356006189,967,1609043665355525075,-0.0007150659662684689,-0.000301597163375078,-0.00012975078055532663,0.0,0.0,0.0,0.0
1609043665402792709,968,1609043665402497111,-0.0004386521225896445,-6.471951131992171e-05,0.00014680890618024023,0.0,0.0,0.0,0.0
1609043665455388780,969,1609043665454783021,-0.0005232673778508001,-3.65125828611923e-05,0.00010138249182389814,0.0,0.0,0.0,0.0
1609043665503976709,970,1609043665503620921,-0.0004317594717093698,-5.4898517717560935e-05,0.00013870163019369386,0.0,0.0,0.0,0.0
1609043665553645801,971,1609043665552959023,-0.0006178442987234689,-0.00027644954940164723,-7.874681740283052e-05,0.0,0.0,0.0,0.0
1609043665605425937,972,1609043665604719935,-0.0003472021831925076,-8.503418667160645e-05,0.00018313176737372316,0.0,0.0,0.0,0.0
1609043665655858519,973,1609043665655453978,-0.0007296493468089693,-0.00010386930483008427,1.338609503243049e-05,0.0,0.0,0.0,0.0
