%time,field.header.seq,field.header.stamp,field.pose.position.x,field.pose.position.y,field.pose.position.z,field.pose.orientation.x,field.pose.orientation.y,field.pose.orientation.z,field.pose.orientation.w
1624182037515404731,2,1624182037515160894,-0.0010315309191355482,0.001505618648593554,0.0009559814815496281,0.0,0.0,0.0,1.0
1624182037571459208,3,1624182037571122026,-0.0010247451575651212,0.0014867314504272144,0.0008887535681445513,0.0,0.0,0.0,1.0
1624182037616916957,4,1624182037616480922,-0.0007150228270802472,0.0015477541413702056,0.0009539119314432298,0.0,0.0,0.0,1.0
1624182037668995882,5,1624182037668053960,-0.0010107945124673279,0.0015243273845726435,0.0010433650183045984,0.0,0.0,0.0,1.0
1624182037717622881,6,1624182037717189884,-0.0010033318549176329,0.00157243827095499,0.001233353431729256,0.0,0.0,0.0,1.0
1624182037771345467,7,1624182037770830011,-0.001327515830325865,0.0016309838604229299,0.0012122080917364997,0.0,0.0,0.0,1.0
1624182037818602811,8,1624182037817518091,-0.0010318622241811681,0.001485530618424491,0.0008787637667246884,0.0,0.0,0.0,1.0
1624182037871202918,9,1624182037870644903,-0.0010074716790313687,0.0016022559788098079,0.0009412979510869945,0.0,0.0,0.0,1.0
1624182037928595853,10,1624182037927521085,-0.0010081360219373892,0.0015020138639556535,0.0009598838395099563,0.0,0.0,0.0,1.0
1624182037973026283,11,1624182037972586011,-0.0010401733131857327,0.0014090295429696198,0.0009825230371873772,0.0,0.0,0.0,1.0
1624182038019642071,12,1624182038019222116,-0.0010214416809048998,0.001517851013204563,0.0010104890056368276,0.0,0.0,0.0,1.0
1624182038071507908,13,1624182038071231937,-0.0010333880363759818,0.001506129040990345,0.0009565308807459871,0.0,0.0,0.0,1.0
1624182038116889050,14,1624182038116484975,-0.001018699436372117,0.0015017103439731727,0.0009507225475857695,0.0,0.0,0.0,1.0
1624182038170076011,15,1624182038169830894,-0.0010256958339596167,0.0015091382005039122,0.0009738847834306341,0.0,0.0,0.0,1.0
1624182038219196162,16,1624182038218889093,-0.0013970142842936184,0.0015826914440140172,0.0009745532316571826,0.0,0.0,0.0,1.0
1624182038274581409,17,1624182038274324035,-0.0010097467677496752,0.0015021654495512848,0.0009592450201445502,0.0,0.0,0.0,1.0
1624182038316481032,18,1624182038315857982,-0.0009201683028550178,0.0013844738389252598,0.0009793033724321276,0.0,0.0,0.0,1.0
1624182038369993771,19,1624182038369634008,-0.0010279096825343004,0.0015280325301318953,0.0010446020551277968,0.0,0.0,0.0,1.0
1624182038418510491,20,1624182038417958116,-0.001007083031026923,0.0017013022708169956,0.001321090418564097,0.0,0.0,0.0,1.0
1624182038469077108,21,1624182038468457078,-0.001177079092940403,0.0015977853839785894,0.001198913659493428,0.0,0.0,0.0,1.0
1624182038519289914,22,1624182038518864011,-0.0010436738923544908,0.0014334635051227451,0.0006703277054818102,0.0,0.0,0.0,1.0
1624182038571977364,23,1624182038571395969,-0.0009814595323405229,0.0016790102165487042,0.0012550790425649438,0.0,0.0,0.0,1.0
1624182038615690524,24,1624182038615075922,-0.0010092230029385973,0.001602691846073867,0.0009416419119041564,0.0,0.0,0.0,1.0
1624182038670176348,25,1624182038669735050,-0.001046854119067575,0.001433971480537366,0.0010730293879319674,0.0,0.0,0.0,1.0
1624182038716789573,26,1624182038715989923,-0.0009787655769741832,0.0017006202855327501,0.0013399190317322507,0.0,0.0,0.0,1.0
1624182038770248419,27,1624182038769964075,-0.0010102032358645374,0.0016098871381018398,0.0013716377408456992,0.0,0.0,0.0,1.0
1624182038818162656,28,1624182038817945098,-0.0010049848569906317,0.0015976083417399423,0.0009253735528673701,0.0,0.0,0.0,1.0
1624182038870569573,29,1624182038870252943,-0.0009926935606472398,0.001701376582445846,0.0013322706986826915,0.0,0.0,0.0,1.0
1624182038929406004,30,1624182038929122066,-0.001033477453802334,0.001507328976572353,0.0009610607131591564,0.0,0.0,0.0,1.0
1624182038986972454,31,1624182038986329889,-0.0010141674422357028,0.001503380520148312,0.0009605533185599313,0.0,0.0,0.0,1.0
1624182039027492516,32,1624182039026315069,-0.0010204332393186633,0.0015060258056109888,0.0009659443866247841,0.0,0.0,0.0,1.0
1624182039070616653,33,1624182039070103025,-0.0010062170372293622,0.0016547332094205558,0.0011433148027535367,0.0,0.0,0.0,1.0
1624182039119250214,34,1624182039118724918,-0.0010175466688906454,0.0016074782821533518,0.0009536786145041276,0.0,0.0,0.0,1.0
1624182039171554289,35,1624182039170909023,-0.0009489551725891943,0.001511889273729139,0.0010425318964166763,0.0,0.0,0.0,1.0
1624182039217302004,36,1624182039216811990,-0.0012088420646705345,0.001636327444998642,0.0009193706264518653,0.0,0.0,0.0,1.0
1624182039269741803,37,1624182039269296979,-0.0010181071922943374,0.001512961491812348,0.0013974489928223477,0.0,0.0,0.0,1.0
1624182039318698311,38,1624182039318233108,-0.0006059642239506502,0.0014316028887151333,0.0013977931966735468,0.0,0.0,0.0,1.0
1624182039368814610,39,1624182039368270969,-0.0009203476690800017,0.0015664429845401173,0.0012732169011222538,0.0,0.0,0.0,1.0
1624182039417284957,40,1624182039416500902,-0.0013025432683662075,0.0016323022579172175,0.001236168085416267,0.0,0.0,0.0,1.0
1624182039470664690,41,1624182039470242118,-0.0011042649671253457,0.0015204704980078532,0.0009578138729509078,0.0,0.0,0.0,1.0
1624182039517620530,42,1624182039517133092,-0.0013208822119850083,0.0015348866638760228,0.0008490341689260106,0.0,0.0,0.0,1.0
1624182039572707291,43,1624182039571714973,-0.0010403321373360086,0.0014625516751038958,0.0007843076380886771,0.0,0.0,0.0,1.0
1624182039618531254,44,1624182039617731904,-0.0010290371380961005,0.0016061718638411548,0.0009399727930556878,0.0,0.0,0.0,1.0
1624182039671531648,45,1624182039671127891,-0.0010009019540575537,0.0016024062107362624,0.00094684799833189,0.0,0.0,0.0,1.0
1624182039716375478,46,1624182039715842103,-0.0010126862384822743,0.0016009393010563144,0.0009323047827649589,0.0,0.0,0.0,1.0
1624182039770069532,47,1624182039769802904,-0.0010403839512491686,0.0015087103853375083,0.0009611241375786506,0.0,0.0,0.0,1.0
1624182039818097390,48,1624182039817828989,-0.001360603528610227,0.0015893147298129406,0.0006243361382409773,0.0,0.0,0.0,1.0
1624182039868611009,49,1624182039868347024,-0.0010311584635473992,0.0015077612755476366,0.0009644729422042531,0.0,0.0,0.0,1.0
1624182039919037394,50,1624182039918752050,-0.0010288397106705816,0.0016076954954087341,0.0009459600565975279,0.0,0.0,0.0,1.0
1624182039971472311,51,1624182039970668888,-0.0010678782846298418,0.0014350852699180905,0.0006582147022378138,0.0,0.0,0.0,1.0
1624182040016637010,52,1624182040016040897,-0.0010175873376283562,0.0015059248906936773,0.0009677125800813258,0.0,0.0,0.0,1.0
1624182040070760644,53,1624182040069976902,-0.0010175649201755732,0.001581089896717458,0.0008525582052349989,0.0,0.0,0.0,1.0
1624182040118955566,54,1624182040118280029,-0.0007332974500968703,0.0015447636154704014,0.000928616443548691,0.0,0.0,0.0,1.0
1624182040171411195,55,1624182040170875883,-0.0010245403184399038,0.0015202624134644793,0.0006142192674012392,0.0,0.0,0.0,1.0
1624182040224058817,56,1624182040223646974,-0.0010213499126621173,0.001503478949075543,0.0009554920570664649,0.0,0.0,0.0,1.0
1624182040278218443,57,1624182040277480936,-0.0014285320692124515,0.0016879625136425602,0.0009508691679336323,0.0,0.0,0.0,1.0
1624182040323651157,58,1624182040323191976,-0.0010327329928259132,0.00151142749302835,0.0009773278186528955,0.0,0.0,0.0,1.0
1624182040374446435,59,1624182040373627996,-0.0009972877339805564,0.0016084335715049747,0.0013758478036365318,0.0,0.0,0.0,1.0
1624182040423928392,60,1624182040423681116,-0.0006239532920062629,0.001425102105258702,0.0009560949416886899,0.0,0.0,0.0,1.0
1624182040474985238,61,1624182040474758958,-0.0009625923910334677,0.0018041640424826255,0.001748903668527646,0.0,0.0,0.0,1.0
1624182040522801862,62,1624182040522540903,-0.0009805107079046138,0.0018076273676115306,0.001748606039896572,0.0,0.0,0.0,1.0
1624182040576675659,63,1624182040576314067,-0.0011078688564793993,0.0017305864733998533,0.0017601575085919308,0.0,0.0,0.0,1.0
1624182040624714586,64,1624182040624221897,-0.0009824557901083608,0.0017094798628249919,0.0017742476775417515,0.0,0.0,0.0,1.0
1624182040677775271,65,1624182040677383041,-0.0009582467332620581,0.0018059322154613255,0.0017589692282413694,0.0,0.0,0.0,1.0
1624182040724640998,66,1624182040724186038,-0.0009646086166412715,0.001799906189489775,0.0017310624234596617,0.0,0.0,0.0,1.0
1624182040776410745,67,1624182040775595045,-0.001246911987891508,0.0018574019289872012,0.0017376055923179479,0.0,0.0,0.0,1.0
1624182040826451137,68,1624182040825666046,-0.0009476891909798724,0.0018845246371483881,0.0020681037355885223,0.0,0.0,0.0,1.0
1624182040881216384,69,1624182040880786037,-0.0005944441511473997,0.001726510793446323,0.0017301315762985325,0.0,0.0,0.0,1.0
1624182040930580947,70,1624182040930035924,-0.0009598658102731861,0.0017977329722498325,0.0017263267234746138,0.0,0.0,0.0,1.0
1624182040976471944,71,1624182040975890016,-0.0009504166318947682,0.001802851519869364,0.0017530941112653409,0.0,0.0,0.0,1.0
1624182041023443613,72,1624182041022995090,-0.0009293565117332037,0.0019011793075378591,0.0021458013911015428,0.0,0.0,0.0,1.0
1624182041076426500,73,1624182041075528001,-0.0009470488985243719,0.001901004006185758,0.0021317326546430593,0.0,0.0,0.0,1.0
1624182041123383052,74,1624182041122847890,-0.0010961913651499344,0.0019285217563265178,0.0017210559311564566,0.0,0.0,0.0,1.0
1624182041175704493,75,1624182041175189113,-0.0009873410069758393,0.0017086936843497824,0.0017675362139790707,0.0,0.0,0.0,1.0
1624182041223582085,76,1624182041222575998,-0.0009833619249093317,0.001677216425377992,0.001246765582553877,0.0,0.0,0.0,1.0
1624182041277621259,77,1624182041277186012,-0.0010573713325356948,0.0014920136362661651,0.0008842884963549125,0.0,0.0,0.0,1.0
1624182041327200103,78,1624182041326439952,-0.0010547002536895889,0.0014074261015366574,0.0005622186720053435,0.0,0.0,0.0,1.0
1624182041378161278,79,1624182041377620077,-0.0010509577969060047,0.0013939299731191568,0.0005133431390476062,0.0,0.0,0.0,1.0
1624182041476150935,80,1624182041475552892,-0.0013884449792840314,0.0013681143817620978,0.00015890741774171602,0.0,0.0,0.0,1.0
1624182041526460350,81,1624182041525726890,-0.0010495536910184455,0.001373113126987846,0.0004346486949202699,0.0,0.0,0.0,1.0
1624182041576651874,82,1624182041576159095,-0.001035728526630919,0.001117800384236034,-0.00012992164156244712,0.0,0.0,0.0,1.0
1624182041676176635,83,1624182041675685977,-0.0010547671627136879,0.0013013756276905042,0.00015584897611375936,0.0,0.0,0.0,1.0
1624182041724154270,84,1624182041723609066,-0.0007834304303742101,0.0012241224339959444,0.0004684617371033539,0.0,0.0,0.0,1.0
1624182041775721336,85,1624182041775008058,-0.0010504488345759455,0.001397820346141998,0.0001254803437795715,0.0,0.0,0.0,1.0
1624182041824621046,86,1624182041824194049,-0.0009564105746449059,0.001281608550243618,0.0001545851833100187,0.0,0.0,0.0,1.0
1624182041875826718,87,1624182041875317907,-0.0010674321265469189,0.0013056111966989192,0.0001624876430739164,0.0,0.0,0.0,1.0
1624182041923128551,88,1624182041922092056,-0.0014895986603278288,0.0014105514110269723,0.0002449119706682268,0.0,0.0,0.0,1.0
1624182041986803755,89,1624182041986095046,-0.0011279139291673346,0.0011152392276017054,-0.00020953077004648435,0.0,0.0,0.0,1.0
1624182042029109670,90,1624182042028272962,-0.0011456396066478192,0.000980610729129694,-0.000738741769112039,0.0,0.0,0.0,1.0
1624182042080266841,91,1624182042079845046,-0.0011832400698494894,0.0007187069337533103,-0.0013674620693819861,0.0,0.0,0.0,1.0
1624182042124676068,92,1624182042124291992,-0.0012195079227694805,0.0006240924124085723,-0.0017573884240995596,0.0,0.0,0.0,1.0
1624182042176591124,93,1624182042176363086,-0.001222912241019003,0.0007190846737330503,-0.0013960501674574743,0.0,0.0,0.0,1.0
1624182042226677318,94,1624182042226404047,-0.00121189849755865,0.0007140511771694946,-0.0014069953376107946,0.0,0.0,0.0,1.0
1624182042280260594,95,1624182042279877042,-0.0012478501691930433,0.0005767282286797126,-0.0019602952287307573,0.0,0.0,0.0,1.0
1624182042326697514,96,1624182042325960969,-0.0008366245147044538,0.0004396723479658249,-0.0021740174965785286,0.0,0.0,0.0,1.0
1624182042376416627,97,1624182042375727987,-0.0010644325832345203,0.0004054474453596413,-0.00207448945871036,0.0,0.0,0.0,1.0
1624182042428199829,98,1624182042427606916,-0.0011287782765521115,0.0005211100677797731,-0.002083218816526511,0.0,0.0,0.0,1.0
1624182042479690844,99,1624182042479281044,-0.0012182830218989693,0.000611061108429567,-0.0018063835432293729,0.0,0.0,0.0,1.0
1624182042526615850,100,1624182042525985097,-0.0012042447995099792,0.0007825716181741882,-0.0015418169214100885,0.0,0.0,0.0,1.0
1624182042579975082,101,1624182042579500055,-0.0012352206967989332,0.0006190190157440156,-0.0017887201185189383,0.0,0.0,0.0,1.0
1624182042675898326,102,1624182042675669050,-0.001213583812386787,0.0007088977755529413,-0.0018311307590721526,0.0,0.0,0.0,1.0
1624182042720989717,103,1624182042720723962,-0.0011634102615971642,0.0007013588761992651,-0.001418910227855008,0.0,0.0,0.0,1.0
1624182042775762838,104,1624182042775388097,-0.0012370553038181242,0.0006616483904053894,-0.0016267968511982644,0.0,0.0,0.0,1.0
1624182042823391347,105,1624182042822943067,-0.0012141945253461017,0.0006461122845848877,-0.0016690081706940418,0.0,0.0,0.0,1.0
1624182042875083673,106,1624182042874244070,-0.001199029005420016,0.0007317117821230568,-0.0013295935138657455,0.0,0.0,0.0,1.0
1624182042924205654,107,1624182042923571920,-0.0011264076733823458,0.0010020017206215925,-0.0010453600772208915,0.0,0.0,0.0,1.0
1624182042977068275,108,1624182042976163959,-0.0011621751489201415,0.00101619371923789,-0.0006149363484588832,0.0,0.0,0.0,1.0
1624182043023511661,109,1624182043023192024,-0.0011084176051099348,0.0012492289249621535,-8.456231934061975e-05,0.0,0.0,0.0,1.0
1624182043077027569,110,1624182043076737022,-0.0014789992846999667,0.0010775968718235163,-0.0006195590381139482,0.0,0.0,0.0,1.0
1624182043124952556,111,1624182043124718046,-0.0011613942053827486,0.0011174620772180788,-0.0006295026632834322,0.0,0.0,0.0,1.0
1624182043180625179,112,1624182043180265998,-0.0011129143153993937,0.0011474170747760581,-0.0004780340003378569,0.0,0.0,0.0,1.0
1624182043226094417,113,1624182043225072956,-0.0011539140793956904,0.0010219420958037517,-0.0005866586470979485,0.0,0.0,0.0,1.0
1624182043278959073,114,1624182043278412914,-0.000962766536304116,0.0010738778221366374,-0.0006460975054487506,0.0,0.0,0.0,1.0
1624182043324849034,115,1624182043324236965,-0.0011164371076120005,0.0008901788909270181,-0.0010630888249671955,0.0,0.0,0.0,1.0
1624182043375092330,116,1624182043374560928,-0.0013118472224959987,0.0008657679236421245,-0.001304552669971315,0.0,0.0,0.0,1.0
1624182043424546004,117,1624182043424075937,-0.0011962014712025848,0.0008271017401284553,-0.0013651312053504228,0.0,0.0,0.0,1.0
1624182043475270302,118,1624182043474871969,-0.001197269697286174,0.0008111383081086387,-0.0014270965066636165,0.0,0.0,0.0,1.0
1624182043522318136,119,1624182043522075033,-0.0011774936829169746,0.0007043105699722219,-0.0018213813844951687,0.0,0.0,0.0,1.0
1624182043575554529,120,1624182043575305080,-0.001017763438539987,0.0006723230910665734,-0.0018229963247726744,0.0,0.0,0.0,1.0
1624182043625497041,121,1624182043625249004,-0.0012293008073811507,0.0006125692316345521,-0.0018089472194908751,0.0,0.0,0.0,1.0
1624182043674917538,122,1624182043674444055,-0.0010401275228559825,0.0006730897749775977,-0.0018369905504371786,0.0,0.0,0.0,1.0
1624182043726061388,123,1624182043725705957,-0.0009673459396708495,0.0004868645655733417,-0.002092194776039946,0.0,0.0,0.0,1.0
1624182043777848685,124,1624182043777401065,-0.0011083438050718541,0.0005569842602426434,-0.001930317342559107,0.0,0.0,0.0,1.0
1624182043875636063,125,1624182043875229930,-0.0012094560579498648,0.0007148929579443575,-0.001401921312908172,0.0,0.0,0.0,1.0
1624182043975279567,127,1624182043974666929,-0.0011557927330159146,0.0010245819751162344,-0.0005779671167438494,0.0,0.0,0.0,1.0
1624182044024377599,128,1624182044023902988,-0.001183064463248229,0.0009123380722257934,-0.0010286382043460662,0.0,0.0,0.0,1.0
1624182044076020252,129,1624182044075585937,-0.0011780788852320256,0.0008979329156773019,-0.0010800513005335688,0.0,0.0,0.0,1.0
1624182044124294048,130,1624182044123710966,-0.0012226113469750999,0.0007181752172300548,-0.0013993065255952786,0.0,0.0,0.0,1.0
1624182044177516060,131,1624182044177088117,-0.0011405514953821694,0.0008993141326527621,-0.0014494719396758171,0.0,0.0,0.0,1.0
1624182044281073124,132,1624182044280516958,-0.000949557829699188,0.0010638998393233123,-0.00027118586686825097,0.0,0.0,0.0,1.0
1624182044327598217,133,1624182044326733922,-0.0010987866123741696,0.0009450122619227841,-0.0008396521182767458,0.0,0.0,0.0,1.0
1624182044377298412,134,1624182044376797056,-0.0008649436022096779,0.000440840104374729,-0.002190983602428531,0.0,0.0,0.0,1.0
1624182044476214329,135,1624182044475710010,-0.0009793544313652092,-7.404163136470743e-05,-0.004653014010262524,0.0,0.0,0.0,1.0
1624182044525295489,136,1624182044524854993,-0.0015816074028407456,1.3229153523752757e-05,-0.003968484194565747,0.0,0.0,0.0,1.0
1624182044577070552,137,1624182044576680040,-0.0015104142034942925,0.0008932126975196297,-0.001349740913855868,0.0,0.0,0.0,1.0
1624182044625280546,138,1624182044624655103,-0.0008065861036357092,0.0013742999934720501,0.00022000704046831743,0.0,0.0,0.0,1.0
1624182044676789896,139,1624182044676306104,-0.0005156688207534899,0.0015781405824100148,0.0012212884826929837,0.0,0.0,0.0,1.0
1624182044725902164,140,1624182044724603986,-0.0009584119529790769,0.0016955366407955808,0.001335852312138286,0.0,0.0,0.0,1.0
1624182044780096627,141,1624182044779497003,-0.000510345681277613,0.0015020748372762682,0.0009338725991128172,0.0,0.0,0.0,1.0
1624182044876256104,142,1624182044876010990,-0.0005771171304331801,0.0013806003116769716,0.00041789249832291375,0.0,0.0,0.0,1.0
1624182044926746139,143,1624182044926133966,-0.0005193567724290915,0.0013399135299323461,0.0007088980491829489,0.0,0.0,0.0,1.0
1624182044979225586,144,1624182044978652095,-0.0006640201120262645,0.0014396433001593323,0.0005783088647888235,0.0,0.0,0.0,1.0
1624182045075446217,145,1624182045074404096,-0.000672029460019985,0.0014345697733233465,0.0009559672375729633,0.0,0.0,0.0,1.0
1624182045157023557,146,1624182045156390047,-0.0010250636921682599,0.0012211243026740703,-0.00012912891565619589,0.0,0.0,0.0,1.0
1624182045201057563,147,1624182045200200891,-0.0007656875313841738,0.0012606959468257628,0.0002188689655220344,0.0,0.0,0.0,1.0
1624182045251737369,148,1624182045251113986,-0.0012083454835192242,0.0010696251787294386,-0.0008483211414187508,0.0,0.0,0.0,1.0
1624182045307091457,149,1624182045306897974,-0.000724323004078542,0.001151378117697277,0.00023450586676787566,0.0,0.0,0.0,1.0
1624182045345657017,150,1624182045345194911,-0.000424930629606024,0.0012810686497459756,0.0005549370518984631,0.0,0.0,0.0,1.0
1624182045385801304,151,1624182045385504102,0.00016216983635786164,0.0015705401677905684,0.0008991028146283497,0.0,0.0,0.0,1.0
1624182045433527140,152,1624182045433261013,-0.0006735435017617419,0.0013708967420598128,0.0007108601729832742,0.0,0.0,0.0,1.0
1624182045480284002,153,1624182045479959106,-0.0011592545422445255,0.0010178239881497575,-0.0006064792482511905,0.0,0.0,0.0,1.0
1624182045528243890,154,1624182045527963018,-0.0013682203655207559,0.0009921704875068826,-0.0008629712175221016,0.0,0.0,0.0,1.0
1624182045578090627,155,1624182045577600097,-0.0011633177457497368,0.0011139669875319669,-0.0006443493473717865,0.0,0.0,0.0,1.0
1624182045625231948,156,1624182045624679899,-0.0008876643350959057,0.0012274291069616083,-9.424294091786578e-07,0.0,0.0,0.0,1.0
1624182045675654158,157,1624182045675196981,-0.0015293342678432964,0.0013948238798775492,0.00015456943596703354,0.0,0.0,0.0,1.0
1624182045724951767,158,1624182045724341964,-0.0015367799521754932,0.0012585405227127922,2.9935140112513636e-05,0.0,0.0,0.0,1.0
1624182045776527884,159,1624182045775782918,-0.0015732265160295356,0.0011907079704087664,-0.0006606836430300689,0.0,0.0,0.0,1.0
1624182045824497397,160,1624182045823870992,-0.0015752353051539103,0.0012025183904142978,-0.0006169565063416371,0.0,0.0,0.0,1.0
1624182045873699530,161,1624182045873247957,-0.001158858393182527,0.0011597066892363728,-6.259263798469306e-05,0.0,0.0,0.0,1.0
1624182045924562086,162,1624182045924071884,-0.0011158733855154424,0.0012923570295697573,7.502960636429634e-05,0.0,0.0,0.0,1.0
1624182045977392319,163,1624182045976734972,-0.0014226523926481605,0.0013014279205663115,-0.000122488595408754,0.0,0.0,0.0,1.0
1624182046024710931,164,1624182046024341917,-0.0011326428807478806,0.0012189448410708792,0.00018421609950891593,0.0,0.0,0.0,1.0
1624182046078119121,165,1624182046077866888,-0.0011774608781252027,0.0012196618828284045,-0.0002501165985258069,0.0,0.0,0.0,1.0
1624182046126407927,166,1624182046125938987,-0.0011421034087106818,0.0012165314003595995,-0.0002353401928836263,0.0,0.0,0.0,1.0
1624182046169485151,167,1624182046168950891,-0.0011573846772989782,0.001134789058937713,-0.0005600839271551195,0.0,0.0,0.0,1.0
1624182046257514344,168,1624182046256940937,-0.0011395085323329113,0.001307677571617205,-0.0002873136583581015,0.0,0.0,0.0,1.0
1624182046300937964,169,1624182046300355052,-0.001141199717494601,0.0012098744900868041,-0.00026016034340514693,0.0,0.0,0.0,1.0
1624182046347008310,170,1624182046346769905,-0.001130134422055562,0.0012062710035252167,-0.00026558838903767423,0.0,0.0,0.0,1.0
1624182046393913166,171,1624182046393555021,-0.001092632366635371,0.0013100440792186419,0.00016039127576661372,0.0,0.0,0.0,1.0
1624182046442880947,172,1624182046442479944,-0.0011276872908183577,0.001315423572691543,0.00015446032050547842,0.0,0.0,0.0,1.0
1624182046484160724,173,1624182046483888006,-0.0008407124000768817,0.0011551202273949457,-0.00024242872071056354,0.0,0.0,0.0,1.0
1624182046530099115,174,1624182046529816007,-0.0011379766269783431,0.0013090226042322683,-0.00028100064368175026,0.0,0.0,0.0,1.0
1624182046580323761,175,1624182046579384899,-0.0011554868235634785,0.001218527028868266,-0.00023782737278921218,0.0,0.0,0.0,1.0
1624182046628940510,176,1624182046628520107,-0.0011378094077372225,0.0012124143077016925,-0.00024786274462229585,0.0,0.0,0.0,1.0
1624182046675378781,177,1624182046674815988,-0.0011575624121178407,0.0012192457601258866,-0.00023664520963961877,0.0,0.0,0.0,1.0
1624182046724457402,178,1624182046724026060,-0.0007792401049755426,0.0010746041124320982,-0.0005043617670601463,0.0,0.0,0.0,1.0
1624182046777349397,179,1624182046776906108,-0.0007302152100692183,0.0011301709760118683,-0.0002543534180574625,0.0,0.0,0.0,1.0
1624182046875187391,180,1624182046874763107,-0.0011147917903144844,0.0011067574702110505,-0.00023209143374458563,0.0,0.0,0.0,1.0
1624182046925499732,181,1624182046925052976,-0.001139337644644911,0.0012088277806014958,-0.0002627607313172575,0.0,0.0,0.0,1.0
1624182046977007709,182,1624182046976452922,-0.001169459157381425,0.0011168037008246756,-0.00023499194046294747,0.0,0.0,0.0,1.0
1624182047025707795,183,1624182047025308942,-0.000770074130514331,0.001137065208695276,-0.0002581188548163027,0.0,0.0,0.0,1.0
1624182047078100619,184,1624182047077777004,-0.0011431233151597553,0.0012101376729560798,-0.0002606084304694889,0.0,0.0,0.0,1.0
1624182047125963748,185,1624182047125649070,-0.0011515498745211517,0.0012161053324462046,-0.00024412475454127502,0.0,0.0,0.0,1.0
1624182047177197541,186,1624182047176874971,-0.0011205222556327499,0.0013300817445269786,-0.00018710221817741512,0.0,0.0,0.0,1.0
1624182047225767676,187,1624182047225148057,-0.0015093793010692025,0.0014880790175766379,0.0001238196284703008,0.0,0.0,0.0,1.0
1624182047279313264,188,1624182047278683996,-0.0010988068597725942,0.0014060518064979988,0.00012040384138245486,0.0,0.0,0.0,1.0
1624182047324849097,189,1624182047324404096,-0.0013533304475004115,0.0013965012058179127,-0.00010889568096317248,0.0,0.0,0.0,1.0
1624182047377125665,190,1624182047376690959,-0.0010335091601518798,0.0012792332008757512,8.710944068468507e-05,0.0,0.0,0.0,1.0
1624182047422640935,191,1624182047422207927,-0.0008291337849186675,0.0010444070636594915,-0.0006578286510325881,0.0,0.0,0.0,1.0
1624182047477681136,192,1624182047476959085,-0.0007608773705669591,0.0011031502767764323,-0.00038109197620528334,0.0,0.0,0.0,1.0
1624182047525098423,193,1624182047524792051,-0.0011173016357588494,0.0013077727188601784,-0.0002701356735279603,0.0,0.0,0.0,1.0
1624182047578517304,194,1624182047578163003,-0.0012912911474813882,0.001280237663081607,-0.00010421799467508208,0.0,0.0,0.0,1.0
1624182047625383325,195,1624182047625074005,-0.0011601199287269992,0.0012150272148119257,-0.00025474392552027325,0.0,0.0,0.0,1.0
1624182047678436107,196,1624182047677826976,-0.001153190574314067,0.0012157751514223492,-0.0002466319833231978,0.0,0.0,0.0,1.0
1624182047725534036,197,1624182047725045061,-0.0011696320393639326,0.0011124501003223486,-0.0006549414569114731,0.0,0.0,0.0,1.0
1624182047778235852,198,1624182047777793025,-0.0008196981702894846,0.0011413037996135245,-0.0006825910435885874,0.0,0.0,0.0,1.0
1624182047877175995,199,1624182047876582956,-0.0008673915278905042,0.0011574617113865315,-0.0002536577551275343,0.0,0.0,0.0,1.0
1624182047922904893,200,1624182047922432041,-0.0011582131646719063,0.001196968211274907,-0.00032248888465602477,0.0,0.0,0.0,1.0
1624182047975490531,201,1624182047975197887,-0.0012828881056066166,0.00113545000999693,-0.0006525718301055861,0.0,0.0,0.0,1.0
1624182048023552404,202,1624182048023221111,-0.000775424639641642,0.001129698130171164,-0.0002903950993129456,0.0,0.0,0.0,1.0
1624182048074879870,203,1624182048074533081,-0.0011485669047033298,0.001254699498986156,-9.400136165993445e-05,0.0,0.0,0.0,1.0
1624182048118542851,204,1624182048118301963,-0.0011447120698448998,0.001308076770669686,-0.00028972395968551723,0.0,0.0,0.0,1.0
1624182048228919373,205,1624182048228447055,-0.0011492137962250126,0.001172856984567261,-0.0004080511248432117,0.0,0.0,0.0,1.0
1624182048290904709,206,1624182048290268039,-0.001147585212265767,0.0012154745945736067,-0.00024353952059996686,0.0,0.0,0.0,1.0
1624182048372937760,207,1624182048372460937,-0.001156701213631095,0.0011135979623304593,-0.00023761456501958378,0.0,0.0,0.0,1.0
1624182048422666384,208,1624182048422355031,-0.0011310628533465206,0.001308607757550817,-0.0002773554230017794,0.0,0.0,0.0,1.0
1624182048470493559,209,1624182048470147943,-0.0011067639600241819,0.0013041419002775,-0.00027606791235967876,0.0,0.0,0.0,1.0
1624182048516727245,210,1624182048516209936,-0.0011523029265845253,0.0011154949847878015,-0.000227016515022882,0.0,0.0,0.0,1.0
1624182048573243495,211,1624182048572953081,-0.000867805333200522,0.0010877399759010586,-0.0005210912224917763,0.0,0.0,0.0,1.0
1624182048620781755,212,1624182048620272016,-0.0007606677920648508,0.0012253067460505918,-0.00031606368239422977,0.0,0.0,0.0,1.0
1624182048669066986,213,1624182048668453073,-0.0011841455543617485,0.0011158596178120206,-0.00065286732356995,0.0,0.0,0.0,1.0
1624182048721680774,214,1624182048721145963,-0.0012127596571644972,0.0010231103823343801,-0.0006267355040243672,0.0,0.0,0.0,1.0
1624182048773431361,215,1624182048772919034,-0.0011603513944464794,0.0011175077746656825,-0.0002253987133471469,0.0,0.0,0.0,1.0
1624182048820057759,216,1624182048819189882,-0.0011525551899467246,0.0012067784554119498,-0.0006837583658807489,0.0,0.0,0.0,1.0
1624182048872701382,217,1624182048871895885,-0.00113827862242033,0.0012098083802811743,-0.0002582019852361839,0.0,0.0,0.0,1.0
1624182048917741820,218,1624182048917473888,-0.0011619617141604976,0.0010559234671063678,-0.0004625620775478012,0.0,0.0,0.0,1.0
1624182048968898609,219,1624182048968613004,-0.0011353805778071546,0.001210508952794953,-0.0002533237198960592,0.0,0.0,0.0,1.0
1624182049018869873,220,1624182049018569087,-0.0007532621957579977,0.001029214234790743,-0.0006585904870419768,0.0,0.0,0.0,1.0
1624182049071350600,221,1624182049070983982,-0.0007622963341873401,0.0010307154541351338,-0.0006596790737489755,0.0,0.0,0.0,1.0
1624182049117397916,222,1624182049117055034,-0.001176742029201705,0.0010206504159668839,-0.000608890694653752,0.0,0.0,0.0,1.0
1624182049172505442,223,1624182049172036981,-0.0011334303821968206,0.0012332026602734913,-0.000568042416624337,0.0,0.0,0.0,1.0
1624182049220988081,224,1624182049220143890,-0.0012207129682337836,0.001121925226584608,-0.0006573144450463531,0.0,0.0,0.0,1.0
1624182049275294002,225,1624182049274727916,-0.0011285978350770165,0.0013083264994975252,-0.000276566662702038,0.0,0.0,0.0,1.0
1624182049317493851,226,1624182049317046976,-0.0011849237994283612,0.0010478732752972064,-0.0005107890773281554,0.0,0.0,0.0,1.0
1624182049377888712,227,1624182049377456045,-0.0008119149069898413,0.0011516215973870203,-0.00023402906915137578,0.0,0.0,0.0,1.0
1624182049484571569,228,1624182049484047985,-0.0007671168334582035,0.0010327439935053917,-0.0006555571222222056,0.0,0.0,0.0,1.0
1624182049522549217,229,1624182049522102928,-0.0007596937994094333,0.0010302377457946932,-0.0006595388005372627,0.0,0.0,0.0,1.0
1624182049571881245,230,1624182049570973968,-0.0007296046105693677,0.0011308561530540828,-0.0002512660156526181,0.0,0.0,0.0,1.0
1624182049617886367,231,1624182049617287015,-0.0009266271129035886,0.0012140912155018668,-0.00048468683400315626,0.0,0.0,0.0,1.0
1624182049673209740,232,1624182049672627067,-0.0011696740841671271,0.00111350887698336,-0.0006509169200619169,0.0,0.0,0.0,1.0
1624182049719493272,233,1624182049718896007,-0.0007577047008453519,0.0010760775244307297,-0.000482411573155872,0.0,0.0,0.0,1.0
1624182049771982451,234,1624182049769332027,-0.0011384101708244998,0.0012273056702269969,-0.00019126482617792817,0.0,0.0,0.0,1.0
1624182049818691115,235,1624182049818425035,-0.0007266149477800354,0.0011319848200628257,-0.00024467818843021405,0.0,0.0,0.0,1.0
1624182049873261240,236,1624182049872955894,-0.0011086485178566363,0.001206452716360218,-0.00024862460701768896,0.0,0.0,0.0,1.0
1624182049917960527,237,1624182049917593097,-0.0007415154482259823,0.0011327500827746917,-0.00025302813328664797,0.0,0.0,0.0,1.0
1624182049973751619,238,1624182049973266935,-0.0007666531419090461,0.0010329872682177665,-0.0006542740176840312,0.0,0.0,0.0,1.0
1624182050022032539,239,1624182050021539068,-0.0007659473094463465,0.0010336494802913876,-0.0006512025552005696,0.0,0.0,0.0,1.0
1624182050069487831,240,1624182050068950986,-0.000767846212738732,0.0010541774341845667,-0.0005739938047568671,0.0,0.0,0.0,1.0
1624182050120922267,241,1624182050120263910,-0.0008702250495389308,0.0011571984537113167,-0.0002568117360546296,0.0,0.0,0.0,1.0
1624182050171959247,242,1624182050171726083,-0.0007558601337223081,0.001028362012107209,-0.0006638224856132524,0.0,0.0,0.0,1.0
1624182050219151961,243,1624182050218844032,-0.0011551115901511366,0.0011095745700231419,-0.0006549645259177339,0.0,0.0,0.0,1.0
1624182050272588057,244,1624182050272168016,-0.0007805917973655596,0.0011411519211605992,-0.00025042500522687305,0.0,0.0,0.0,1.0
1624182050342377674,245,1624182050341945028,-0.0011483782648156193,0.0011796949405606938,-0.0003812207197277928,0.0,0.0,0.0,1.0
1624182050454433088,246,1624182050453792905,-0.0011218404204100807,0.0013079370747846042,-0.00027294242427089443,0.0,0.0,0.0,1.0
1624182050528975489,247,1624182050528338050,-0.0011723883178547112,0.0011146364976184486,-0.0006486517764265898,0.0,0.0,0.0,1.0
1624182050573079347,248,1624182050572640991,-0.0011785660631176142,0.0011104367733878462,-0.0006694189384148785,0.0,0.0,0.0,1.0
1624182050619021171,249,1624182050618419027,-0.0008579499540246616,0.0011255837665657964,-0.0003686414403709648,0.0,0.0,0.0,1.0
1624182050671397227,250,1624182050670885896,-0.0011620580480666831,0.0011101224890808226,-0.0006581245999868202,0.0,0.0,0.0,1.0
1624182050716637486,251,1624182050716389989,-0.0011779585099702672,0.001111735098788813,-0.0006639848311387198,0.0,0.0,0.0,1.0
1624182050769978086,252,1624182050769697999,-0.0011706338402746042,0.0011104938148491783,-0.0006631948221489381,0.0,0.0,0.0,1.0
1624182050819498324,253,1624182050818796014,-0.0011978591614933976,0.0009457212335064469,-0.0009119443523601944,0.0,0.0,0.0,1.0
1624182050869150607,254,1624182050868934011,-0.0008619406105481175,0.0009349266927074495,-0.0006989713310545653,0.0,0.0,0.0,1.0
1624182050917901367,255,1624182050917313909,-0.0007522195519413799,0.0010309985761978169,-0.000650964933459619,0.0,0.0,0.0,1.0
1624182050973289612,256,1624182050972710943,-0.0007527807015321741,0.0010276019390857982,-0.0006644029273985552,0.0,0.0,0.0,1.0
1624182051019319080,257,1624182051018641090,-0.0007587681325276208,0.0011284640044095795,-0.0006856507236570053,0.0,0.0,0.0,1.0
1624182051071395857,258,1624182051070807075,-0.0007778910871820699,0.0009358022873584559,-0.0006319805128569556,0.0,0.0,0.0,1.0
1624182051126143995,259,1624182051125566101,-0.0009606585883830121,0.0010280181093094143,-0.00041706200675406535,0.0,0.0,0.0,1.0
1624182051177838938,260,1624182051177380895,-0.0009135221250744507,0.0011025666080968222,-0.0004989008593625499,0.0,0.0,0.0,1.0
1624182051217254036,261,1624182051216573095,-0.0011495321500660793,0.0012076325865564286,-0.0006781972508669298,0.0,0.0,0.0,1.0
1624182051277629125,262,1624182051277088022,-0.0011798153059316974,0.0011113056098110974,-0.0006670360838114675,0.0,0.0,0.0,1.0
1624182051317591166,263,1624182051316316938,-0.0011504876633807726,0.0011064683560562116,-0.0006633641668436496,0.0,0.0,0.0,1.0
1624182051370453270,264,1624182051369687891,-0.0010427803902075539,0.00129101302889012,-0.000277924149308717,0.0,0.0,0.0,1.0
1624182051419329493,265,1624182051418919897,-0.0008770954598276148,0.0010546554611892134,-0.0006548782565971578,0.0,0.0,0.0,1.0
1624182051472068608,266,1624182051471404886,-0.0007192927985215647,0.001201009835426703,-0.0003778242801999454,0.0,0.0,0.0,1.0
1624182051518238357,267,1624182051517525053,-0.0011629116154381336,0.0011106171532446751,-0.0006568756973308609,0.0,0.0,0.0,1.0
1624182051572802901,268,1624182051572265958,-0.001147593251289436,0.0012077476329750425,-0.00027314959821111984,0.0,0.0,0.0,1.0
1624182051618281744,269,1624182051617741918,-0.0008991419006179058,0.001161210956411196,-0.0002633328939154467,0.0,0.0,0.0,1.0
1624182051670647820,270,1624182051670180892,-0.00115313698574937,0.0012122815217026073,-0.00025997641355246515,0.0,0.0,0.0,1.0
1624182051725495253,271,1624182051725003099,-0.0008312284849125717,0.0009454691827386341,-0.0006353282338480426,0.0,0.0,0.0,1.0
1624182051773719984,272,1624182051772837018,-0.0009929416542036051,0.0011851214120497389,-0.00024274500254506393,0.0,0.0,0.0,1.0
1624182051819088491,273,1624182051818642950,-0.000752111409610734,0.0010329466939538179,-0.0006434194608644361,0.0,0.0,0.0,1.0
1624182051872089484,274,1624182051871821022,-0.0007577363842301565,0.0010327802996243918,-0.0006483157954804142,0.0,0.0,0.0,1.0
1624182051952633550,275,1624182051952438926,-0.0007306456891456037,0.0011277647633960441,-0.00026389816804339716,0.0,0.0,0.0,1.0
1624182052008269786,276,1624182052007960891,-0.0011602823508383153,0.0011183521472730718,-0.00022211142676553663,0.0,0.0,0.0,1.0
1624182052088450452,277,1624182052087799882,-0.0011273292509486055,0.0013091019767443868,-0.00027263512709652105,0.0,0.0,0.0,1.0
1624182052151177992,278,1624182052150729990,-0.0011529482114838174,0.0012174936065321162,-0.00023986463180492024,0.0,0.0,0.0,1.0
1624182052227687306,279,1624182052227446889,-0.0011735562281955936,0.0011117952677750509,-0.0006604212923875252,0.0,0.0,0.0,1.0
1624182052278904990,280,1624182052278519964,-0.0007660428500457783,0.001033832505186183,-0.0006505736906383675,0.0,0.0,0.0,1.0
1624182052321594610,281,1624182052321244096,-0.0008361320669791894,0.0010463261388622414,-0.0006557749208049302,0.0,0.0,0.0,1.0
1624182052373618787,282,1624182052373335933,-0.0011775264654261264,0.00101223123328964,-0.0006417400523659467,0.0,0.0,0.0,1.0
1624182052424908454,283,1624182052424640035,-0.0011380112916867802,0.0012132375833289188,-0.00024486141244040027,0.0,0.0,0.0,1.0
1624182052470746110,284,1624182052470524883,-0.0011089137160524842,0.001407306870873981,-0.0002855865252300305,0.0,0.0,0.0,1.0
1624182052519827366,285,1624182052519327974,-0.0011357402063367772,0.0012109708342222802,-0.0002518264170809914,0.0,0.0,0.0,1.0
1624182052571515860,286,1624182052570730066,-0.001174404373159632,0.0011164260167788598,-0.0006433221759998276,0.0,0.0,0.0,1.0
1624182052618308452,287,1624182052617615079,-0.0007635216895778285,0.001162429699547829,-0.0005591206967956452,0.0,0.0,0.0,1.0
1624182052672727022,288,1624182052672154045,-0.0008081676598976628,0.0011373625736723625,-0.0006889605224280615,0.0,0.0,0.0,1.0
1624182052717529949,289,1624182052717109060,-0.0010516005761473934,0.0010874749721097032,-0.0006612623563810871,0.0,0.0,0.0,1.0
1624182052769866084,290,1624182052769365882,-0.0011559406671040051,0.0011110688063808993,-0.0006498675351416239,0.0,0.0,0.0,1.0
1624182052818441247,291,1624182052818170881,-0.0011615655751029408,0.0011079647127871795,-0.0006660185795155371,0.0,0.0,0.0,1.0
1624182052870897792,292,1624182052870564079,-0.0011513367271618336,0.0012161302879576397,-0.0002438677634124531,0.0,0.0,0.0,1.0
1624182052925194785,293,1624182052924956893,-0.0010031784333932592,0.0011204768976540436,-0.0004981640072116988,0.0,0.0,0.0,1.0
1624182052977728882,294,1624182052977343893,-0.0011740082002233976,0.0011107733151902721,-0.0006646787737523141,0.0,0.0,0.0,1.0
1624182053022125852,295,1624182053021411037,-0.0011456204431397055,0.001201181180022104,-0.0002968136822723011,0.0,0.0,0.0,1.0
1624182053071015463,296,1624182053070418930,-0.0011830449534500076,0.0011088652557873502,-0.0006788307257039605,0.0,0.0,0.0,1.0
1624182053123765310,297,1624182053123318052,-0.0011625275142250757,0.0011393762289344522,-0.0005464032704445287,0.0,0.0,0.0,1.0
1624182053177454281,298,1624182053176819896,-0.0011570747815312643,0.0012094897568886154,-0.0006767927076865021,0.0,0.0,0.0,1.0
1624182053217827639,299,1624182053217010116,-0.0011890723524174973,0.001009667980724771,-0.0010634331705574596,0.0,0.0,0.0,1.0
1624182053271798088,300,1624182053271211957,-0.0011911653725746874,0.0010064894573815764,-0.0010771950532699748,0.0,0.0,0.0,1.0
1624182053318827112,301,1624182053318271017,-0.0011695926386892097,0.001115834658435233,-0.0006419447545873425,0.0,0.0,0.0,1.0
1624182053369624308,302,1624182053368997907,-0.0011900990048161475,0.0010202749608652084,-0.000620441877003941,0.0,0.0,0.0,1.0
1624182053421173807,303,1624182053420753097,-0.0009962144265500683,0.0011785147584078004,-0.0006736736968235846,0.0,0.0,0.0,1.0
1624182053478685481,304,1624182053477938985,-0.0011741970995444717,0.001108520851062167,-0.0006734513921529128,0.0,0.0,0.0,1.0
1624182053525620666,305,1624182053525383090,-0.001167324463267505,0.0011114191805745577,-0.0006571440059559563,0.0,0.0,0.0,1.0
1624182053578921216,306,1624182053578576898,-0.0013474159329689428,0.0012445344673324144,-0.0006866386944217595,0.0,0.0,0.0,1.0
1624182053619298949,307,1624182053618971920,-0.0011566524337922601,0.0011124011881520346,-0.0006453018205121452,0.0,0.0,0.0,1.0
1624182053673379383,308,1624182053672664022,-0.0011776283786275599,0.001073256163977021,-0.0008111541998125915,0.0,0.0,0.0,1.0
1624182053718440219,309,1624182053717409944,-0.0011857689889893663,0.0010129797680065167,-0.0006451127958904124,0.0,0.0,0.0,1.0
1624182053771914475,310,1624182053771663999,-0.0011858993757414282,0.0010539565736280565,-0.00089135580093469,0.0,0.0,0.0,1.0
1624182053824044199,311,1624182053823840951,-0.001174441859120634,0.0011158063759921788,-0.0006457245164313008,0.0,0.0,0.0,1.0
1624182053868732524,312,1624182053868517971,-0.0011859425433158322,0.0010172253973905754,-0.0006289784111039864,0.0,0.0,0.0,1.0
1624182053919678824,313,1624182053918659067,-0.0007358116274644999,0.001123458713209402,-0.0006874458177748011,0.0,0.0,0.0,1.0
1624182053971460562,314,1624182053971083974,-0.000792110986822081,0.0009298540778672759,-0.0010686666854979876,0.0,0.0,0.0,1.0
1624182054019274266,315,1624182054018680906,-0.001167169132259005,0.0010818864838029185,-0.0007701712941532435,0.0,0.0,0.0,1.0
1624182054072069359,316,1624182054071216917,-0.0011490151073303423,0.001313606779717702,-0.0006749344106466992,0.0,0.0,0.0,1.0
1624182054122229548,317,1624182054121608114,-0.0011822866754300776,0.001117297636596959,-0.0006459506269571591,0.0,0.0,0.0,1.0
1624182054172469236,318,1624182054171882963,-0.0011406254473058652,0.001247311929546413,-0.0005194343534000723,0.0,0.0,0.0,1.0
1624182054221743508,319,1624182054221026039,-0.0011535923540577642,0.0012084970209116364,-0.0006779594740145001,0.0,0.0,0.0,1.0
1624182054272445048,320,1624182054271878099,-0.001158536932507559,0.0011127723461186179,-0.0006453066244418437,0.0,0.0,0.0,1.0
1624182054316872516,321,1624182054316569900,-0.0011949850209020951,0.0010190355334316337,-0.0006288896176585013,0.0,0.0,0.0,1.0
1624182054374581053,322,1624182054374228096,-0.0011589301127514773,0.0011071592819007492,-0.0006671089902958727,0.0,0.0,0.0,1.0
1624182054418732503,323,1624182054418468093,-0.0011609406888055673,0.0011107265078180717,-0.0006549645259177339,0.0,0.0,0.0,1.0
1624182054468159242,324,1624182054467686033,-0.0011411567263621691,0.0012071275576772678,-0.0006737909691167943,0.0,0.0,0.0,1.0
1624182054524484582,325,1624182054524009084,-0.0011847478426716407,0.0011146660792746843,-0.0006578959901979431,0.0,0.0,0.0,1.0
1624182054577168514,326,1624182054576713895,-0.0011555640076039708,0.0012690427844290753,-0.00044748890749346515,0.0,0.0,0.0,1.0
1624182054617380057,327,1624182054616696929,-0.0011622436013567494,0.0011821001342013915,-0.00038250361575009606,0.0,0.0,0.0,1.0
1624182054677353508,328,1624182054676314926,-0.0011793217809099588,0.0011113791068737555,-0.000666380849597914,0.0,0.0,0.0,1.0
1624182054726327747,329,1624182054725715970,-0.0011585957595343643,0.0011919944151941309,-0.0003418343888839104,0.0,0.0,0.0,1.0
1624182054779709643,330,1624182054778296089,-0.0011553111137345695,0.0012067083844158333,-0.0006861133644733286,0.0,0.0,0.0,1.0
1624182054823959708,331,1624182054823428964,-0.001162589914201817,0.0011098166293095346,-0.0006596990879046416,0.0,0.0,0.0,1.0
1624182054877989890,332,1624182054877765035,-0.0007588549631236674,0.0010346861291736786,-0.00023872202396901798,0.0,0.0,0.0,1.0
1624182054923893761,333,1624182054923685884,-0.000755397588818596,0.0010999383925991424,-0.0003892484825058773,0.0,0.0,0.0,1.0
1624182054976431695,334,1624182054976168012,-0.0011528134882610175,0.0012103534811558347,-0.0006702573409747004,0.0,0.0,0.0,1.0
1624182055022713343,335,1624182055022250986,-0.0011613711492373113,0.001113478522825062,-0.0006447469530037608,0.0,0.0,0.0,1.0
1624182055075382986,336,1624182055074853992,-0.0011668317163184838,0.001112644647378147,-0.0006520759512085306,0.0,0.0,0.0,1.0
1624182055123471261,337,1624182055122999048,-0.0011793311177825672,0.0011530143027584927,-0.0005068752537624732,0.0,0.0,0.0,1.0
1624182055177595279,338,1624182055176908111,-0.0011579146678286634,0.0012047994578097132,-0.0006953979925761189,0.0,0.0,0.0,1.0
1624182055218535940,339,1624182055218108987,-0.001175175015532659,0.001108716716885283,-0.0006734413858211497,0.0,0.0,0.0,1.0
1624182055280110800,340,1624182055279084062,-0.001196835057953649,0.0010146554644734351,-0.0006470711494266368,0.0,0.0,0.0,1.0
1624182055325124397,341,1624182055324793910,-0.0011642108690921305,0.001055777624401344,-0.00046482371105938114,0.0,0.0,0.0,1.0
1624182055378314100,342,1624182055378053045,-0.0011490554381907714,0.0012155361461054781,-0.0002444168492772292,0.0,0.0,0.0,1.0
1624182055426459577,343,1624182055426138019,-0.0011537440070696903,0.0012275555505993907,-0.000605057407078391,0.0,0.0,0.0,1.0
1624182055478143171,344,1624182055477841949,-0.0008524551988102758,0.001221853826109509,-0.0003987885247163092,0.0,0.0,0.0,1.0
1624182055528888226,345,1624182055528380966,-0.0011393324939490412,0.0012051975846816276,-0.0006798039027700042,0.0,0.0,0.0,1.0
1624182055578291107,346,1624182055577662086,-0.0008152182956564502,0.0011617855138865707,-0.0006007298841055331,0.0,0.0,0.0,1.0
1624182055675869983,347,1624182055675395107,-0.0007579280993468274,0.0010411904738703015,-0.0006162400134890333,0.0,0.0,0.0,1.0
1624182055725154505,348,1624182055724628067,-0.0008875690091372235,0.0010556171808957515,-0.0006591235257999983,0.0,0.0,0.0,1.0
1624182055773462297,349,1624182055772971010,-0.0011359318182257994,0.0013065444117046354,-0.00028894706056803443,0.0,0.0,0.0,1.0
1624182055819280012,350,1624182055818640089,-0.0009435858680717502,0.0011768819822464138,-0.00023694335719426363,0.0,0.0,0.0,1.0
1624182055869671284,351,1624182055868928050,-0.001158026344683094,0.0012154186272255174,-0.00025165921369918465,0.0,0.0,0.0,1.0
1624182055918772907,352,1624182055918308115,-0.001191402677932274,0.0011124464368776898,-0.0006714382973243005,0.0,0.0,0.0,1.0
1624182055972763410,353,1624182055972328042,-0.0011517165582972666,0.0013040674845115063,-0.0007135265342057551,0.0,0.0,0.0,1.0
1624182056018770142,354,1624182056017980909,-0.0011572991033972357,0.0011125744929358916,-0.0006451274600252077,0.0,0.0,0.0,1.0
1624182056072298923,355,1624182056071854925,-0.0011996935274964926,0.0010156841182151766,-0.0010484259523266815,0.0,0.0,0.0,1.0
1624182056126072589,356,1624182056125640964,-0.0011444393751389725,0.0012059770110681711,-0.0006806842621536191,0.0,0.0,0.0,1.0
1624182056177860220,357,1624182056177240943,-0.000771018774003096,0.0010318167541072398,-0.0006620638226451092,0.0,0.0,0.0,1.0
1624182056284408358,358,1624182056283847904,-0.000788138991993037,0.0011300725482215057,-0.0002985871912457583,0.0,0.0,0.0,1.0
1624182056324849100,359,1624182056324159002,-0.0008807386552689422,0.001051083885386106,-0.0006713199647840895,0.0,0.0,0.0,1.0
1624182056374229095,360,1624182056373690938,-0.0008213522883124824,0.00116325921464977,-0.0005997280799334703,0.0,0.0,0.0,1.0
1624182056419659873,361,1624182056418547010,-0.0011930236935313587,0.001043946070808488,-0.0009351012426499494,0.0,0.0,0.0,1.0
1624182056471567567,362,1624182056471296882,-0.0011534047023360472,0.0011930183070489875,-0.000333981334460276,0.0,0.0,0.0,1.0
1624182056518238598,363,1624182056517973041,-0.001163540929383089,0.0011077433580339857,-0.0006683621949861163,0.0,0.0,0.0,1.0
1624182056582516833,364,1624182056582249021,-0.0011836037554076029,0.0011147141202627608,-0.00065684573430147,0.0,0.0,0.0,1.0
1624182056629240994,365,1624182056628328895,-0.0011915199895611295,0.0010940145076574481,-0.0007421430653735683,0.0,0.0,0.0,1.0
1624182056675985237,366,1624182056675458049,-0.0011755694413295714,0.001079959529761254,-0.0007839137095508875,0.0,0.0,0.0,1.0
1624182056720623501,367,1624182056720131015,-0.001118851982482738,0.0011949453872830418,-0.00030043745792340815,0.0,0.0,0.0,1.0
1624182056771351972,368,1624182056770567989,-0.0007468556864296261,0.0011277852767079821,-0.0006792317739154896,0.0,0.0,0.0,1.0
1624182056817844988,369,1624182056817576026,-0.0007945462768930156,0.001039263299958293,-0.000651348141335717,0.0,0.0,0.0,1.0
1624182056871337104,370,1624182056870922899,-0.0011973432331160438,0.001018810329696862,-0.0006315378457451004,0.0,0.0,0.0,1.0
1624182056918825846,371,1624182056918583965,-0.0011792728794262075,0.0011129098645596969,-0.0006604792125983749,0.0,0.0,0.0,1.0
1624182056969318788,372,1624182056968942975,-0.0011771913204938755,0.0010510529253906498,-0.0008958871831517001,0.0,0.0,0.0,1.0
1624182057020313850,373,1624182057019599056,-0.0011771981157835398,0.001099963354022293,-0.0007085087889286967,0.0,0.0,0.0,1.0
1624182057072481052,374,1624182057071858024,-0.00116377170661508,0.0011067911221971372,-0.0006721851081721297,0.0,0.0,0.0,1.0
1624182057116896925,375,1624182057116450881,-0.000873552634175212,0.0010532845892612386,-0.0006574479510348397,0.0,0.0,0.0,1.0
1624182057171652865,376,1624182057170992946,-0.0008263145896307833,0.0011424063261529227,-0.0006833765369940181,0.0,0.0,0.0,1.0
1624182057221676387,377,1624182057221145009,-0.0007515824395341042,0.0011347237141308142,-0.0002530888262377573,0.0,0.0,0.0,1.0
1624182057275413268,378,1624182057275093889,-0.001034140603906053,0.0011840242267453505,-0.0006812805323939131,0.0,0.0,0.0,1.0
1624182057319000034,379,1624182057318616008,-0.00114114184157188,0.0012244149854723219,-0.000607548244790479,0.0,0.0,0.0,1.0
1624182057419076127,381,1624182057418778038,-0.0011583973243887158,0.0012409106547011106,-0.0005574143882327576,0.0,0.0,0.0,1.0
1624182057471905211,382,1624182057471293067,-0.0011210355078219436,0.0014056508149451474,-0.00030110905174041136,0.0,0.0,0.0,1.0
1624182057519901269,383,1624182057519114112,-0.0007150505034587695,0.0012265092639154318,-0.0002769176410453156,0.0,0.0,0.0,1.0
1624182057571219144,384,1624182057570813989,-0.0011431116174662748,0.0012029670863284991,-0.00028807192641622237,0.0,0.0,0.0,1.0
1624182057617277514,385,1624182057616661882,-0.0014310936185211176,0.001237517008235045,-0.00037373911519011926,0.0,0.0,0.0,1.0
1624182057671703698,386,1624182057671219921,-0.0011224747856886097,0.0013026666506448237,-0.00029361507940706133,0.0,0.0,0.0,1.0
1624182057720554266,387,1624182057719807004,-0.0011583734697069303,0.0012089872235492294,-0.0006797012584520701,0.0,0.0,0.0,1.0
1624182057768901243,388,1624182057768656110,-0.0010893248045249493,0.0012979081276398574,-0.0002867474241234902,0.0,0.0,0.0,1.0
1624182057817937775,389,1624182057817613935,-0.000748937512980774,0.001133024302589547,-0.0002575971123022214,0.0,0.0,0.0,1.0
1624182057870183972,390,1624182057869931077,-0.0011326645926601486,0.0013069501457039223,-0.0002849188844997741,0.0,0.0,0.0,1.0
1624182057917125160,391,1624182057916903114,-0.0011826122258753458,0.0011640355251074652,-0.0004671347516236324,0.0,0.0,0.0,1.0
1624182057972075005,392,1624182057971714115,-0.0011256255954776861,0.0013079016642905117,-0.0002759439526442975,0.0,0.0,0.0,1.0
1624182058020966944,393,1624182058020392036,-0.0011326363328407751,0.0012464688918498723,-0.0005166155034181941,0.0,0.0,0.0,1.0
1624182058073631916,394,1624182058073006963,-0.0011503217378958652,0.0011484951311331315,-0.000502225640357068,0.0,0.0,0.0,1.0
1624182058118088302,395,1624182058117668008,-0.0011373228342108632,0.0013068443950032815,-0.000288850922920858,0.0,0.0,0.0,1.0
1624182058170558808,396,1624182058170121049,-0.0011674905406380276,0.0011121019972506474,-0.000654653748192402,0.0,0.0,0.0,1.0
1624182058219655738,397,1624182058219206905,-0.0011207123638996563,0.0013087301862242384,-0.0002690497238120315,0.0,0.0,0.0,1.0
1624182058271353142,398,1624182058271008110,-0.0011308289469980082,0.0012116345334334255,-0.0002455651591688479,0.0,0.0,0.0,1.0
1624182058319494535,399,1624182058319134092,-0.001148114972465919,0.0012257883075790232,-0.000607566239199997,0.0,0.0,0.0,1.0
1624182058369400459,400,1624182058369134998,-0.001490274808702452,0.0011705205890848447,-0.0006752228886988121,0.0,0.0,0.0,1.0
1624182058417818504,401,1624182058417387104,-0.0011572934308787808,0.001209765295584475,-0.0006759026096005982,0.0,0.0,0.0,1.0
1624182058471965467,402,1624182058471406078,-0.0008218921525440237,0.0011302887503461534,-0.0003233147749099885,0.0,0.0,0.0,1.0
1624182058518528039,403,1624182058518030023,-0.0011519399020016863,0.0012443646437532152,-0.0005392924090479312,0.0,0.0,0.0,1.0
1624182058572183805,404,1624182058571749067,-0.001116240699957416,0.0011985858820935391,-0.0006876514433571401,0.0,0.0,0.0,1.0
1624182058622790330,405,1624182058622068977,-0.0011630021631390264,0.001105509499211621,-0.0010796440704119448,0.0,0.0,0.0,1.0
1624182058671582057,406,1624182058671012020,-0.0011620230218341021,0.0011093042911625162,-0.000661232747841467,0.0,0.0,0.0,1.0
1624182058718140513,407,1624182058717693901,-0.0011612714808961755,0.0011078451453840898,-0.0006662540015298646,0.0,0.0,0.0,1.0
1624182058771514264,408,1624182058771197891,-0.0011492032333535462,0.0012060626381753536,-0.0006839629856933982,0.0,0.0,0.0,1.0
1624182058817876274,409,1624182058817375040,-0.0011846214176784997,0.0010935393855788789,-0.0007387403695773287,0.0,0.0,0.0,1.0
1624182058869727260,410,1624182058869454002,-0.0011729897598797834,0.0011138492754980689,-0.0006521231297114127,0.0,0.0,0.0,1.0
1624182058920179990,411,1624182058919884061,-0.0011679723641009332,0.0011789393158778694,-0.0008020874197889327,0.0,0.0,0.0,1.0
1624182058972567404,412,1624182058972225999,-0.0015541870309334627,0.0013801402242279437,-0.00032365056447503093,0.0,0.0,0.0,1.0
1624182059018977272,413,1624182059018374061,-0.0011784633647948795,0.00116266896407069,-0.0004692291681074323,0.0,0.0,0.0,1.0
1624182059072786365,414,1624182059072342967,-0.0011736144842871,0.0011086884782116613,-0.0006723680769979978,0.0,0.0,0.0,1.0
1624182059120829449,415,1624182059120613908,-0.001152718058847313,0.0012101464841407505,-0.0002678391127197699,0.0,0.0,0.0,1.0
1624182059174430845,416,1624182059174074029,-0.001152222009977777,0.001159862810368395,-0.0004601123254346362,0.0,0.0,0.0,1.0
1624182059217942062,417,1624182059217724895,-0.0015063863827435853,0.001161163823098832,-0.0007232683442488508,0.0,0.0,0.0,1.0
1624182059271530854,418,1624182059271134948,-0.0015082568536399776,0.001097593595318358,-0.0009682316640393651,0.0,0.0,0.0,1.0
1624182059317214544,419,1624182059316677904,-0.0014519945800657297,0.0011693532449044142,-0.0006507133019120204,0.0,0.0,0.0,1.0
1624182059416185655,420,1624182059415505027,-0.0011602164129271841,0.001128491197960102,-0.000586356243918118,0.0,0.0,0.0,1.0
1624182059494363500,421,1624182059493871068,-0.001074491994586424,0.0012144490254968332,-0.0005952680761041051,0.0,0.0,0.0,1.0
1624182059537341756,422,1624182059537093019,-0.0011616938863880932,0.0012169147420308946,-0.00024870400309850993,0.0,0.0,0.0,1.0
1624182059579995775,423,1624182059579608058,-0.0009783530440472532,0.0012746978253517227,-0.00029165184956525536,0.0,0.0,0.0,1.0
1624182059629018328,424,1624182059628640985,-0.0011161293466557254,0.0011972675931701815,-0.0006926177418975499,0.0,0.0,0.0,1.0
1624182059675704088,425,1624182059675428962,-0.000973502359329359,0.001178834921120142,-0.00025211200647845544,0.0,0.0,0.0,1.0
1624182059721745030,426,1624182059721504068,-0.0011474665705009102,0.0012108390239973232,-0.0002612097701195637,0.0,0.0,0.0,1.0
1624182059772106588,427,1624182059771858072,-0.000722856016636797,0.0012270721057348055,-0.00028067116508267986,0.0,0.0,0.0,1.0
1624182059818986498,428,1624182059818761920,-0.0011393789372959873,0.0012110692907754128,-0.0002542041891402391,0.0,0.0,0.0,1.0
1624182059874021316,429,1624182059873685932,-0.0011323004173391382,0.0012634919326046656,-0.0004511421378339264,0.0,0.0,0.0,1.0
1624182059920409721,430,1624182059920064067,-0.0011375265478363872,0.0012049791135950727,-0.00027613473231724583,0.0,0.0,0.0,1.0
1624182059971419437,431,1624182059970851993,-0.0011544419298843422,0.001210324331736956,-0.0006716019317316579,0.0,0.0,0.0,1.0
1624182060019990739,432,1624182060019174909,-0.0011493761574001837,0.0013109775449038352,-0.00028214164723650015,0.0,0.0,0.0,1.0
1624182060072289395,433,1624182060071647024,-0.00113978001832038,0.001199481008256953,-0.0002989055297888399,0.0,0.0,0.0,1.0
1624182060118416756,434,1624182060117648935,-0.0008984803969269706,0.0011554109249800604,-0.0006881921395383017,0.0,0.0,0.0,1.0
1624182060174016696,435,1624182060173544025,-0.0011512837459122238,0.0012004167609802607,-0.0003040301961370062,0.0,0.0,0.0,1.0
1624182060223477757,436,1624182060222997999,-0.0007362693922914332,0.0011340582633465601,-0.0002440441248126035,0.0,0.0,0.0,1.0
1624182060275228852,437,1624182060274581050,-0.0007415228119498352,0.0011318120725718472,-0.00025662746595145336,0.0,0.0,0.0,1.0
1624182060318541103,438,1624182060318089103,-0.0007390860982923186,0.0011315589462128628,-0.0006588915550054253,0.0,0.0,0.0,1.0
1624182060372545751,439,1624182060371974086,-0.0007306518750738178,0.0012265994237168343,-0.0002883847308403631,0.0,0.0,0.0,1.0
1624182060417124584,440,1624182060416673040,-0.0007334058243486652,0.0012256504601282359,-0.0002941055907683676,0.0,0.0,0.0,1.0
1624182060499951993,441,1624182060499368047,-0.0011083377482918877,0.0012002929100844995,-0.0006751280678187754,0.0,0.0,0.0,1.0
1624182060545682629,442,1624182060545029020,-0.0010500746361685742,0.0012904066672945191,-0.0002857699777436551,0.0,0.0,0.0,1.0
1624182060608870977,443,1624182060608095026,-0.0011494850630242581,0.0012068781146581387,-0.0006810521218376664,0.0,0.0,0.0,1.0
1624182060691863022,444,1624182060691342926,-0.0011582339629967464,0.0012400837505310847,-0.0005604587458130084,0.0,0.0,0.0,1.0
1624182060775085175,445,1624182060774582958,-0.0011250918810219446,0.001254516424069152,-0.00048007159402274624,0.0,0.0,0.0,1.0
1624182060841156129,446,1624182060840698099,-0.0007262275992161449,0.0012244720593344027,-0.00029318538399891736,0.0,0.0,0.0,1.0
1624182061619265408,447,1624182061618697977,-0.0002532918153974606,0.0007081915194930843,-0.004331583814384032,0.0,0.0,0.0,1.0
1624182061678716630,448,1624182061677851057,-0.0011170450643476215,0.0014008071301532254,-0.00031664519036667116,0.0,0.0,0.0,1.0
1624182061774667465,449,1624182061774238920,-0.0011193706243375345,0.0013072354386167717,-0.0002737606235854173,0.0,0.0,0.0,1.0
1624182061818025606,450,1624182061817603921,-0.0011376208656201925,0.0012308667065781265,-0.0005801646181815556,0.0,0.0,0.0,1.0
1624182061859504259,451,1624182061858882045,-0.0007991712727744016,0.0010454557610728443,-0.0006311254072315364,0.0,0.0,0.0,1.0
1624182061904784449,452,1624182061903879022,-0.001126074956573575,0.001271695008426832,-1.1857070585818974e-05,0.0,0.0,0.0,1.0
1624182061954940706,453,1624182061953204011,-0.0011252421220433462,0.0013056768218575598,-0.0002841775630919585,0.0,0.0,0.0,1.0
1624182062011821492,454,1624182062011377906,-0.0010085210949455359,0.001085578750348759,-0.00023277162170742827,0.0,0.0,0.0,1.0
1624182062088308847,455,1624182062087881898,-0.0011891204926541832,0.0011135442663317008,-0.0006655044448820036,0.0,0.0,0.0,1.0
1624182062134941089,456,1624182062134607887,-0.001172207516447088,0.0011124395191473013,-0.00025379309823847507,0.0,0.0,0.0,1.0
1624182062180760327,457,1624182062180507040,-0.0010010337834955862,0.001305787656974644,-0.0005928517541704537,0.0,0.0,0.0,1.0
1624182062229476957,458,1624182062228618955,-0.0011230479442474461,0.0013044203325307535,-0.00028733022652360773,0.0,0.0,0.0,1.0
1624182062278412363,459,1624182062278045988,-0.0011438976232511777,0.001211275695823133,-0.000256834620135038,0.0,0.0,0.0,1.0
1624182062323754099,460,1624182062323186969,-0.0011374690827778977,0.001233067287216727,-0.0005716188275783907,0.0,0.0,0.0,1.0
1624182062372270925,461,1624182062371328926,-0.0011594613376928464,0.001303203279690024,-0.00072270111746775,0.0,0.0,0.0,1.0
1624182062419813871,462,1624182062419262027,-0.001199812931190536,0.0011156478793736824,-0.0006655404813002974,0.0,0.0,0.0,1.0
1624182062471676691,463,1624182062471023893,-0.0011437291825586726,0.0012155175015777786,-0.00024045562478036686,0.0,0.0,0.0,1.0
1624182062518391733,464,1624182062517743921,-0.0011578327007555345,0.0012130427523970866,-0.0002606151938451262,0.0,0.0,0.0,1.0
1624182062571016082,465,1624182062570427989,-0.0011113412986105686,0.0011969139141001506,-0.0006903476536308517,0.0,0.0,0.0,1.0
1624182062619006877,466,1624182062618553972,-0.0011265396244652948,0.0013080643827834137,-0.00027601257251319566,0.0,0.0,0.0,1.0
1624182062669617481,467,1624182062669014072,-0.0011072192833125882,0.0012023296576444409,-0.0002633389976942624,0.0,0.0,0.0,1.0
1624182062719066297,468,1624182062718771076,-0.0010602366351122328,0.0010227175797581367,-0.0005127626384613393,0.0,0.0,0.0,1.0
1624182062773452146,469,1624182062773224925,-0.001135019386310887,0.001311941158519403,-0.00026757989382986125,0.0,0.0,0.0,1.0
1624182062819368277,470,1624182062819099044,-0.001136807100920123,0.0012790462320708684,-0.0003949621055490127,0.0,0.0,0.0,1.0
1624182062870772896,471,1624182062870412921,-0.0011347453460075485,0.001309933760921922,-0.00027506327494108973,0.0,0.0,0.0,1.0
1624182062972500596,473,1624182062971787071,-0.0011579697577417392,0.00113728173630534,-0.00014783616526869992,0.0,0.0,0.0,1.0
1624182063018257433,474,1624182063017422056,-0.0011578355490655667,0.0012138093608200506,-0.00025768027472139465,0.0,0.0,0.0,1.0
