%time,field.header.seq,field.header.stamp,field.pose.position.x,field.pose.position.y,field.pose.position.z,field.pose.orientation.x,field.pose.orientation.y,field.pose.orientation.z,field.pose.orientation.w
1609055161772554177,1408,1609055161771800994,-0.0002129980446241575,0.0004433511029873216,0.005751943946390448,0.0,0.0,0.0,1.0
1609055161826162787,1409,1609055161825618982,-0.00010110899754067759,0.000579927656517043,0.005777830177680521,0.0,0.0,0.0,1.0
1609055161871379571,1410,1609055161870771884,-0.00026571710504086354,0.0006243101361391723,0.00562776836155976,0.0,0.0,0.0,1.0
1609055161926078909,1411,1609055161925839900,-0.00010111775736731943,0.0005990695540134539,0.005960174512647853,0.0,0.0,0.0,1.0
1609055161972926941,1412,1609055161972537040,-0.0003821438551590006,0.0004549137912803758,0.007282603686273426,0.0,0.0,0.0,1.0
1609055162027148556,1413,1609055162026913881,-0.0005442128892276799,0.0004952641200404173,0.008078734390799092,0.0,0.0,0.0,1.0
1609055162071707886,1414,1609055162071383953,-0.0007278943081772127,0.000603957126806165,0.008589853001718772,0.0,0.0,0.0,1.0
1609055162126426798,1415,1609055162126074075,-0.0007762813814196079,0.000626756141791418,0.008930041065521088,0.0,0.0,0.0,1.0
1609055162176279237,1416,1609055162175967931,-0.0005187374547865886,0.00044038374360155785,0.00749114636348569,0.0,0.0,0.0,1.0
1609055162224763493,1417,1609055162223965883,-0.00022605309579759592,0.0006630589462233161,0.006887013768967165,0.0,0.0,0.0,1.0
1609055162274457847,1418,1609055162273426055,-0.0005189047226821231,0.0005085358413481345,0.006158862084284955,0.0,0.0,0.0,1.0
1609055162327322863,1419,1609055162325767040,-0.0001859060040310112,0.0006003374937293415,0.006187580805013582,0.0,0.0,0.0,1.0
1609055162375091646,1420,1609055162374504089,-0.00043318089642241375,0.0008143082386382616,0.007863038631054309,0.0,0.0,0.0,1.0
1609055162426938216,1421,1609055162426486015,-0.0008387086481498329,0.0011558044787705057,0.011156584444931283,0.0,0.0,0.0,1.0
1609055162473420953,1422,1609055162472940921,-0.0005892663636934969,0.0011969667231923609,0.010914973223302482,0.0,0.0,0.0,1.0
1609055162526969657,1423,1609055162526171922,-0.0011042790644495426,0.001170460910429938,0.011971339496091637,0.0,0.0,0.0,1.0
1609055162572755368,1424,1609055162572316884,-0.0008236876152452055,0.0011916159376639257,0.011459783168211501,0.0,0.0,0.0,1.0
1609055162625959755,1425,1609055162625437974,-0.0009501216667189283,0.001302727045676022,0.011848706989661117,0.0,0.0,0.0,1.0
1609055162674101761,1426,1609055162673861026,-0.0002694915349152893,0.0014814431071101808,0.011822403920842994,0.0,0.0,0.0,1.0
1609055162725039029,1427,1609055162724740028,-0.00022717456829468574,0.0015862171129583658,0.011721980212493932,0.0,0.0,0.0,1.0
1609055162774436483,1428,1609055162774164915,-8.804176051313561e-05,0.0014714992432374174,0.011266417083527713,0.0,0.0,0.0,1.0
1609055162823362003,1429,1609055162822983980,-0.0003304413159916919,0.001763058775267723,0.011686937699026068,0.0,0.0,0.0,1.0
1609055162874525563,1430,1609055162874090909,-0.0003384021994037312,0.0016916152921382377,0.012017792028172991,0.0,0.0,0.0,1.0
1609055162926041304,1431,1609055162925708055,-0.00012960604660250397,0.001814215312421652,0.011664150872246815,0.0,0.0,0.0,1.0
1609055162975712481,1432,1609055162975071907,2.5233691964388072e-05,0.0017732654079694044,0.011871905419839734,0.0,0.0,0.0,1.0
1609055163026806768,1433,1609055163026032924,-0.0004189533841056914,0.0016403972948353385,0.011734253581193066,0.0,0.0,0.0,1.0
1609055163074020057,1434,1609055163073262929,-0.00016243333091026102,0.001817108501363407,0.011775171889938818,0.0,0.0,0.0,1.0
1609055163132668970,1435,1609055163132020950,-0.0003340000343818872,0.001901459491108426,0.012023702476974485,0.0,0.0,0.0,1.0
1609055163176851651,1436,1609055163176297903,-0.00016167926958843282,0.0019412007588499591,0.011964565482338152,0.0,0.0,0.0,1.0
1609055163224733534,1437,1609055163223916053,-0.00014149147480679858,0.0019493447296241584,0.011990893143409842,0.0,0.0,0.0,1.0
1609055163272269464,1438,1609055163271766901,-0.00016805912326134376,0.0019711352710984897,0.011274459062873277,0.0,0.0,0.0,1.0
1609055163327231970,1439,1609055163325434923,0.00016407923497041565,0.002081091989964534,0.01147849469619544,0.0,0.0,0.0,1.0
1609055163380678267,1440,1609055163379823923,0.00022870089920701275,0.0023289079020543113,0.011693343052990635,0.0,0.0,0.0,1.0
1609055163430000308,1441,1609055163429549932,-5.5699816321919116e-05,0.0023609756552289696,0.011730214663701943,0.0,0.0,0.0,1.0
1609055163472818621,1442,1609055163472450971,0.00011084649640480393,0.0022491328703750924,0.011232386272725492,0.0,0.0,0.0,1.0
1609055163525117651,1443,1609055163524684906,-2.384345472705718e-05,0.0023304543851523363,0.01135828178245113,0.0,0.0,0.0,1.0
1609055163574423002,1444,1609055163573478937,0.00022689936327324745,0.002523679623102737,0.01157133576772651,0.0,0.0,0.0,1.0
1609055163626416267,1445,1609055163625802040,0.0001261835069712447,0.0025780365763736768,0.011353827599966948,0.0,0.0,0.0,1.0
1609055163669337441,1446,1609055163668715000,0.0003400317714365997,0.002248502785882067,0.00568799096835626,0.0,0.0,0.0,1.0
1609055163719071066,1447,1609055163718709945,0.0002819903664743606,0.0024509043599749702,0.00677247552464344,0.0,0.0,0.0,1.0
1609055163768296504,1448,1609055163767532110,7.705962576665115e-05,0.002372291485620792,0.00753509966306698,0.0,0.0,0.0,1.0
1609055163817387323,1449,1609055163817043066,-9.57490470163691e-05,0.0020598161481402144,0.007970281052954498,0.0,0.0,0.0,1.0
1609055163869252036,1450,1609055163868911981,-0.0009284219178731234,0.001247229859004051,0.00630815011409247,0.0,0.0,0.0,1.0
1609055163919269660,1451,1609055163918495893,-0.0017655297646612667,-0.0002770224119146292,0.006796861210819571,0.0,0.0,0.0,1.0
1609055163969956324,1452,1609055163969249963,-0.0021232222803924117,-0.0009880565457720536,0.0058870363458130015,0.0,0.0,0.0,1.0
1609055164018458520,1453,1609055164018028020,-0.002511608737560067,-0.0017867047871860109,0.005211654996970516,0.0,0.0,0.0,1.0
1609055164067673581,1454,1609055164067142963,-0.0024551287976244396,-0.0017151180311074654,0.006740850436904644,0.0,0.0,0.0,1.0
1609055164124502201,1455,1609055164124062061,-0.0026906113204567816,-0.0016835383971240958,0.00664891676367052,0.0,0.0,0.0,1.0
1609055164166922307,1456,1609055164166399002,-0.002524459922209843,-0.0009918778888149404,0.006869802318895779,0.0,0.0,0.0,1.0
1609055164218333996,1457,1609055164217529058,-0.002102068560663639,-0.0008221111232913358,0.007414042844630764,0.0,0.0,0.0,1.0
1609055164268043411,1458,1609055164267257928,-0.0021294940438636445,-0.0001776090314322687,0.00767749736120571,0.0,0.0,0.0,1.0
1609055164322233323,1459,1609055164321590900,-0.0018965782906796846,0.00023194885578448066,0.008014476162407469,0.0,0.0,0.0,1.0
1609055164369350951,1460,1609055164369072914,-0.001826323748844061,0.00048662091629125825,0.0072890522651345435,0.0,0.0,0.0,1.0
1609055164417024424,1461,1609055164416491985,-0.0016556154949611823,0.0006208564915013426,0.008134287909344451,0.0,0.0,0.0,1.0
1609055164468849147,1462,1609055164468535900,-0.0014319844647836533,0.0008493293317286543,0.008751886922804708,0.0,0.0,0.0,1.0
1609055164518746783,1463,1609055164518395900,-0.0014209926357793279,0.000889973384040843,0.009111262846714041,0.0,0.0,0.0,1.0
1609055164569749818,1464,1609055164569422960,-0.0007107652850280033,0.0013736186558901409,0.0099329533333945,0.0,0.0,0.0,1.0
1609055164618244733,1465,1609055164617685079,-8.550650693095463e-05,0.002434550771567956,0.009532607910982982,0.0,0.0,0.0,1.0
1609055164667734351,1466,1609055164667293071,-0.00031726314352553686,0.0034262974292715853,0.00965919055856368,0.0,0.0,0.0,1.0
1609055164718193463,1467,1609055164717880010,-4.907145724786233e-05,0.0048451708269965366,0.0096119378055608,0.0,0.0,0.0,1.0
1609055164767029165,1468,1609055164766736984,-0.0007344043145778301,0.006733696228472752,0.009523641019644202,0.0,0.0,0.0,1.0
1609055164821821698,1469,1609055164821127891,-0.00016852605230965878,0.009259625995895249,0.008365398219306819,0.0,0.0,0.0,1.0
1609055164869153456,1470,1609055164868484973,0.0003642030754740233,0.016155099095399805,0.013246899988891059,0.0,0.0,0.0,1.0
1609055164921171981,1471,1609055164920645952,0.0012737072860602439,0.020206670664933313,0.013860661638759986,0.0,0.0,0.0,1.0
1609055164967613290,1472,1609055164967175006,0.002494461519393809,0.024340497188781285,0.015461056271920626,0.0,0.0,0.0,1.0
1609055165018003790,1473,1609055165017117977,0.0035726977655876624,0.02821049341079629,0.012922541872124604,0.0,0.0,0.0,1.0
1609055165069944672,1474,1609055165069375991,0.005581652884853128,0.03210808326811332,0.009276057910903468,0.0,0.0,0.0,1.0
1609055165119866797,1475,1609055165119402885,0.009855859562918567,0.03653171403505695,0.00787030349343798,0.0,0.0,0.0,1.0
1609055165168604758,1476,1609055165168226957,0.011685879717720837,0.03630597091114396,0.008013679470809443,0.0,0.0,0.0,1.0
1609055165222790206,1477,1609055165222382068,0.012911319778268648,0.035503358103227356,0.01708964909148314,0.0,0.0,0.0,1.0
1609055165275685734,1478,1609055165275429964,0.014244551704951647,0.03301171431531458,0.017717559105903113,0.0,0.0,0.0,1.0
1609055165326371598,1479,1609055165326024055,0.012352556564422912,0.025315346179304754,0.016577018529381427,0.0,0.0,0.0,1.0
1609055165372983804,1480,1609055165372649908,0.012351850741573855,0.02252474534495974,0.015756529049379964,0.0,0.0,0.0,1.0
1609055165427965684,1481,1609055165427653074,0.011703044452413991,0.02029284517907115,0.01595930479590546,0.0,0.0,0.0,1.0
1609055165471003775,1482,1609055165470710992,0.010320787879575022,0.01802471412055695,0.01569579084229744,0.0,0.0,0.0,1.0
1609055165521648593,1483,1609055165521398067,0.010059572015084228,0.01620650439531346,0.010923047473910152,0.0,0.0,0.0,1.0
1609055165568444803,1484,1609055165568147897,0.009487355441972767,0.01549276537662081,0.011522008261605876,0.0,0.0,0.0,1.0
1609055165616996535,1485,1609055165616328001,0.009329233646280244,0.015895503465394256,0.011796479621649425,0.0,0.0,0.0,1.0
1609055165668406860,1486,1609055165668061017,0.009512467854207785,0.01740078762290409,0.012790331579295433,0.0,0.0,0.0,1.0
1609055165735418044,1487,1609055165735162019,0.009467843080315674,0.021909200271480245,0.013243255302282542,0.0,0.0,0.0,1.0
1609055165777659907,1488,1609055165777194023,0.009208992034501762,0.02509436217627581,0.014517407641317703,0.0,0.0,0.0,1.0
1609055165833394731,1489,1609055165832822084,0.008923889983183386,0.029005660639754183,0.017825399384046037,0.0,0.0,0.0,1.0
1609055165876612796,1490,1609055165876351118,0.008464025981346879,0.03349080082632838,0.021100089132413125,0.0,0.0,0.0,1.0
1609055165921073537,1491,1609055165920639991,0.008021763635980506,0.03880357286796965,0.025283342622755,0.0,0.0,0.0,1.0
1609055165968373189,1492,1609055165967994928,0.007464554758900732,0.045283420566050836,0.027992413650215653,0.0,0.0,0.0,1.0
1609055166022743606,1493,1609055166022439002,0.007067668247568548,0.05335834240923276,0.037598794701620086,0.0,0.0,0.0,1.0
1609055166069238826,1494,1609055166068830966,0.006565381790490932,0.07161702027003258,0.05439324498209519,0.0,0.0,0.0,1.0
1609055166121067284,1495,1609055166120656013,0.006137352687453301,0.08133694184073903,0.06394263999590954,0.0,0.0,0.0,1.0
1609055166167530784,1496,1609055166167114019,0.005159334195571574,0.09117107759730203,0.07602094752875654,0.0,0.0,0.0,1.0
1609055166217293542,1497,1609055166216790914,0.004253162097864305,0.10206668834324972,0.08613931259317731,0.0,0.0,0.0,1.0
1609055166270796313,1498,1609055166270279884,0.003025212870642946,0.11350919932649361,0.0973658594763025,0.0,0.0,0.0,1.0
1609055166317937817,1499,1609055166317511081,-0.0010212041034876052,0.1377030543404203,0.12358229607895588,0.0,0.0,0.0,1.0
1609055166368780299,1500,1609055166368424892,-0.003603802515268484,0.1509284171615093,0.1355048482234631,0.0,0.0,0.0,1.0
1609055166418345758,1501,1609055166418057918,-0.006976686503442409,0.1656379289811838,0.14775293978210513,0.0,0.0,0.0,1.0
1609055166474203899,1502,1609055166473848104,-0.012680883147726973,0.17974498686641027,0.1642723197852769,0.0,0.0,0.0,1.0
1609055166526251376,1503,1609055166525928974,-0.01999356131836194,0.2104765309155212,0.19002762608341506,0.0,0.0,0.0,1.0
1609055166573445777,1504,1609055166573168039,-0.028539019731493198,0.224097229643327,0.20113935657880955,0.0,0.0,0.0,1.0
1609055166625433083,1505,1609055166625103950,-0.03359806933493559,0.2398126805782681,0.21353177968609227,0.0,0.0,0.0,1.0
1609055166671643947,1506,1609055166671196937,-0.042756829531416685,0.2552203502181314,0.2254770640902235,0.0,0.0,0.0,1.0
1609055166726231427,1507,1609055166725730895,-0.050915585594093926,0.26995671326479,0.2374367897650016,0.0,0.0,0.0,1.0
1609055166769586735,1508,1609055166768920898,-0.07169559605107523,0.29914913082757266,0.25704291315933947,0.0,0.0,0.0,1.0
1609055166818965624,1509,1609055166818176031,-0.08330822323836173,0.31192851529912247,0.26808957870742045,0.0,0.0,0.0,1.0
1609055166872361401,1510,1609055166871879100,-0.09397174194556612,0.3268286310566211,0.2853611681478885,0.0,0.0,0.0,1.0
1609055166925364280,1511,1609055166924720048,-0.1092312046457451,0.33889834071673874,0.29808588077348386,0.0,0.0,0.0,1.0
1609055166977109289,1512,1609055166976691007,-0.12159279608705731,0.3513965314063441,0.3105268219245856,0.0,0.0,0.0,1.0
1609055167025382717,1513,1609055167024938106,-0.15091413626034011,0.373231111768348,0.335974017572922,0.0,0.0,0.0,1.0
1609055167074042007,1514,1609055167073731899,-0.16648924969244305,0.3824626189934719,0.34734926755542084,0.0,0.0,0.0,1.0
1609055167134776743,1515,1609055167134360074,-0.18145016505814837,0.3915466500959539,0.36088032451292573,0.0,0.0,0.0,1.0
1609055167178570629,1516,1609055167178284883,-0.1978991861018855,0.39940539851053103,0.37452565610840605,0.0,0.0,0.0,1.0
1609055167226890707,1517,1609055167225986957,-0.21483582115686062,0.4061883560831845,0.3881452081444259,0.0,0.0,0.0,1.0
1609055167273439175,1518,1609055167272978067,-0.2512409035638754,0.4174354142634442,0.4169161726100885,0.0,0.0,0.0,1.0
1609055167325550259,1519,1609055167325146913,-0.2693822509564825,0.4218518111590015,0.4322053421048748,0.0,0.0,0.0,1.0
1609055167373365074,1520,1609055167373003959,-0.2870424665801501,0.4248476690745875,0.4476839776422521,0.0,0.0,0.0,1.0
1609055167426070803,1521,1609055167425410032,-0.3063929016384215,0.42634931736778015,0.46326567969500587,0.0,0.0,0.0,1.0
1609055167475292182,1522,1609055167474941968,-0.3434321416713253,0.42673154843712524,0.4984778591820547,0.0,0.0,0.0,1.0
1609055167525446803,1523,1609055167525135040,-0.36229432658036487,0.42508701120658543,0.5159677014782051,0.0,0.0,0.0,1.0
1609055167575248241,1524,1609055167574816942,-0.3796769132173985,0.4228233687645826,0.5337807831780488,0.0,0.0,0.0,1.0
1609055167624098576,1525,1609055167623697996,-0.3983617060295934,0.41920086219836605,0.5542323838170029,0.0,0.0,0.0,1.0
1609055167675692961,1526,1609055167675417900,-0.4180350508259174,0.414181889649214,0.5738943792624225,0.0,0.0,0.0,1.0
1609055167725596394,1527,1609055167725187063,-0.4536365979627739,0.4015413598107571,0.6171278899340331,0.0,0.0,0.0,1.0
1609055167775061459,1528,1609055167774772882,-0.4732593641908167,0.3931722582879402,0.6412425456565511,0.0,0.0,0.0,1.0
1609055167825062004,1529,1609055167824608087,-0.4909309926596812,0.3838759391018769,0.6643950061674575,0.0,0.0,0.0,1.0
1609055167871424402,1530,1609055167871040105,-0.5081529611277809,0.37384976492467814,0.6897065115554941,0.0,0.0,0.0,1.0
1609055167927214988,1531,1609055167926676034,-0.5279073272507304,0.36233139785024804,0.7155349475910144,0.0,0.0,0.0,1.0
1609055167973677918,1532,1609055167972825050,-0.5629180032334169,0.33893034010880285,0.7640024416721705,0.0,0.0,0.0,1.0
1609055168027126489,1533,1609055168025754928,-0.5797995901349005,0.3263051952590388,0.7878862999936844,0.0,0.0,0.0,1.0
1609055168073564888,1534,1609055168073133945,-0.5999507635414929,0.31194075995529147,0.8141057828225282,0.0,0.0,0.0,1.0
1609055168127809561,1535,1609055168127067089,-0.6168435814969122,0.29783725254211646,0.8392724091165471,0.0,0.0,0.0,1.0
1609055168178851202,1536,1609055168178337097,-0.6357426352514146,0.2821477631092719,0.8658391744408558,0.0,0.0,0.0,1.0
1609055168223540279,1537,1609055168223239898,-0.672273027862353,0.24960282717077575,0.9166243243161576,0.0,0.0,0.0,1.0
1609055168272995266,1538,1609055168272608041,-0.6888980424678515,0.232630184376454,0.9398918881440679,0.0,0.0,0.0,1.0
1609055168325059438,1539,1609055168324628114,-0.7088992256837123,0.2146461884924662,0.9636260788523865,0.0,0.0,0.0,1.0
1609055168379048258,1540,1609055168378288030,-0.7264863260552126,0.1970467895221759,0.9866966161912405,0.0,0.0,0.0,1.0
1609055168426594608,1541,1609055168426032066,-0.7438093718756882,0.17951945043573403,1.0099212841065137,0.0,0.0,0.0,1.0
1609055168475535550,1542,1609055168474751949,-0.7808187867096663,0.14237734904519783,1.054840624747957,0.0,0.0,0.0,1.0
1609055168524877348,1543,1609055168524095058,-0.7986914891708885,0.12407007881208187,1.0761886093094066,0.0,0.0,0.0,1.0
1609055168572397751,1544,1609055168571348905,-0.8186737565826299,0.1048880155109444,1.09681091497347,0.0,0.0,0.0,1.0
1609055168624426924,1545,1609055168623812913,-0.8371127867714243,0.0858659257171368,1.116888594482047,0.0,0.0,0.0,1.0
1609055168674904573,1546,1609055168674288034,-0.8733012352959015,0.04803412255237305,1.1577442714839385,0.0,0.0,0.0,1.0
1609055168725999068,1547,1609055168725236892,-0.8903580911563083,0.03030427455403384,1.1767098545215973,0.0,0.0,0.0,1.0
1609055168774017929,1548,1609055168773432016,-0.9060706268998082,0.01298716187383775,1.1950148937485423,0.0,0.0,0.0,1.0
1609055168823738768,1549,1609055168823348045,-0.9257084880694393,-0.0060799046723758465,1.2132058762136575,0.0,0.0,0.0,1.0
1609055168883967254,1550,1609055168883411884,-0.9602635564478348,-0.040502818656634076,1.2462016760118235,0.0,0.0,0.0,1.0
1609055168930066840,1551,1609055168929580926,-0.9787052662029296,-0.05883220982895665,1.2621945484682264,0.0,0.0,0.0,1.0
1609055168972228231,1552,1609055168971740007,-0.9973017388703767,-0.07687530767734074,1.2773011232201155,0.0,0.0,0.0,1.0
1609055169024596442,1553,1609055169024280071,-1.0126211004956325,-0.09382582453554988,1.2920280212362902,0.0,0.0,0.0,1.0
1609055169122330702,1554,1609055169122054100,-1.0310758811397953,-0.1117149846055483,1.3074991809764498,0.0,0.0,0.0,1.0
1609055169171840649,1555,1609055169171477079,-1.0821493877268438,-0.16499502648173348,1.351015432598122,0.0,0.0,0.0,1.0
1609055169225839218,1556,1609055169225501060,-1.0996791648783848,-0.18242489274931728,1.3643621522923635,0.0,0.0,0.0,1.0
1609055169272659437,1557,1609055169272291898,-1.1138793006204857,-0.199450765384114,1.3762949063057528,0.0,0.0,0.0,1.0
1609055169326994126,1558,1609055169326203107,-1.1290899999439077,-0.2165376767865368,1.3885380801463283,0.0,0.0,0.0,1.0
1609055169377741913,1559,1609055169377218961,-1.14590008323502,-0.23409585777475428,1.4019576505541584,0.0,0.0,0.0,1.0
1609055169424180176,1560,1609055169423672914,-1.1769162831496907,-0.2710136967387058,1.432397843374372,0.0,0.0,0.0,1.0
1609055169472861797,1561,1609055169472542047,-1.1932262572805286,-0.2909846569715455,1.446798091616368,0.0,0.0,0.0,1.0
1609055169526514623,1562,1609055169526247978,-1.2080551342709676,-0.31039990113699645,1.4603690453515528,0.0,0.0,0.0,1.0
1609055169572277482,1563,1609055169571793079,-1.2244359639533933,-0.3304147387605454,1.4734461485280814,0.0,0.0,0.0,1.0
1609055169626504261,1564,1609055169626030921,-1.2417602246182682,-0.35154394701718417,1.4852716911752513,0.0,0.0,0.0,1.0
1609055169673094960,1565,1609055169672347068,-1.2733619297209309,-0.3950867850747244,1.5083594366842075,0.0,0.0,0.0,1.0
1609055169726052712,1566,1609055169725198030,-1.292907868697771,-0.4196987018196836,1.5215451518105878,0.0,0.0,0.0,1.0
1609055169773761531,1567,1609055169772710084,-1.3094087667603915,-0.4437190352648983,1.533896065560664,0.0,0.0,0.0,1.0
1609055169826616689,1568,1609055169825923919,-1.3260228342442488,-0.46989282368868146,1.5472593725004815,0.0,0.0,0.0,1.0
1609055169874823622,1569,1609055169874108076,-1.362086994398183,-0.5252075539308976,1.5737139447736395,0.0,0.0,0.0,1.0
1609055169924328349,1570,1609055169923685073,-1.3787156380199939,-0.5520003499428938,1.5863480458401407,0.0,0.0,0.0,1.0
1609055169974854654,1571,1609055169974145889,-1.3978517884965171,-0.5804209005075975,1.599647472259191,0.0,0.0,0.0,1.0
1609055170023850512,1572,1609055170023583889,-1.416881293463021,-0.610944030427909,1.6138619387328177,0.0,0.0,0.0,1.0
1609055170074414758,1573,1609055170074068069,-1.4339063644410857,-0.6412207283349787,1.6292303558574455,0.0,0.0,0.0,1.0
1609055170128081900,1574,1609055170127136945,-1.474870944394091,-0.7053789052636432,1.6642448490217197,0.0,0.0,0.0,1.0
1609055170181261179,1575,1609055170180922031,-1.49258830980148,-0.7373596393112578,1.6836172878657418,0.0,0.0,0.0,1.0
1609055170224029133,1576,1609055170223390102,-1.5133884245797518,-0.7704372919295963,1.7034219246211952,0.0,0.0,0.0,1.0
1609055170272367407,1577,1609055170272099018,-1.5349265130525076,-0.8047352353330126,1.7240038274865173,0.0,0.0,0.0,1.0
1609055170325604383,1578,1609055170324990034,-1.5525851467399114,-0.839091175522519,1.7441749978104273,0.0,0.0,0.0,1.0
1609055170380065249,1579,1609055170379154920,-1.5982958872526183,-0.9100480023789004,1.7864278199691794,0.0,0.0,0.0,1.0
1609055170425469130,1580,1609055170424837112,-1.6159333191595024,-0.943226996231715,1.8048724083083014,0.0,0.0,0.0,1.0
1609055170472892681,1581,1609055170472449064,-1.635740522579919,-0.9775391178305881,1.823958362265933,0.0,0.0,0.0,1.0
1609055170537184212,1582,1609055170536664009,-1.6801247331974452,-1.0492737777397778,1.8612758201196815,0.0,0.0,0.0,1.0
1609055170579308787,1583,1609055170578975915,-1.7021757802324835,-1.0850638563551627,1.8787441208021418,0.0,0.0,0.0,1.0
1609055170627358172,1584,1609055170626743078,-1.7259876315839833,-1.1216475044951224,1.895716375734274,0.0,0.0,0.0,1.0
1609055170674670102,1585,1609055170674420118,-1.747683996748627,-1.1576608774343669,1.912133734679201,0.0,0.0,0.0,1.0
1609055170727321191,1586,1609055170726618051,-1.7674757893263688,-1.1920525653188747,1.927464380484448,0.0,0.0,0.0,1.0
1609055170774451543,1587,1609055170774192094,-1.7905112420438982,-1.2277921512809868,1.9422373672699749,0.0,0.0,0.0,1.0
1609055170825721480,1588,1609055170825079917,-1.8120665013487631,-1.2620028225649165,1.9563585803131387,0.0,0.0,0.0,1.0
1609055170874125187,1589,1609055170872961044,-1.8563780361776132,-1.330544514874589,1.9871231350433556,0.0,0.0,0.0,1.0
1609055170927515888,1590,1609055170926791906,-1.880967646554712,-1.3655310858452552,2.0038552985233498,0.0,0.0,0.0,1.0
1609055170972614340,1591,1609055170972302913,-1.903145856672264,-1.401208067514716,2.020078224722961,0.0,0.0,0.0,1.0
1609055171035314327,1592,1609055171034887075,-1.954973265490672,-1.4723675496596371,2.051278770602079,0.0,0.0,0.0,1.0
1609055171080330014,1593,1609055171079890012,-1.9792206393235539,-1.5081030808872313,2.0675734297356536,0.0,0.0,0.0,1.0
1609055171128170681,1594,1609055171127765893,-2.003886194223515,-1.5419003069416277,2.082331749162612,0.0,0.0,0.0,1.0
1609055171216436867,1595,1609055171216083049,-2.0535017959058024,-1.61397322256191,2.114298164422702,0.0,0.0,0.0,1.0
1609055171284307197,1596,1609055171283876895,-2.1057295015124815,-1.6857211309461206,2.145714352193739,0.0,0.0,0.0,1.0
1609055171329823668,1597,1609055171329318046,-2.1299396128581023,-1.7210700003860069,2.1632072895719885,0.0,0.0,0.0,1.0
1609055171373906398,1598,1609055171373501062,-2.1555218348745093,-1.7569360496233841,2.181170433162732,0.0,0.0,0.0,1.0
1609055171428266967,1599,1609055171428045034,-2.1811358585351357,-1.7926039328443224,2.197992169285545,0.0,0.0,0.0,1.0
1609055171472160481,1600,1609055171471906900,-2.205131271226847,-1.8262621742193161,2.2142114047816985,0.0,0.0,0.0,1.0
1609055171527390822,1601,1609055171527044057,-2.227279006065732,-1.8605244507674357,2.230391450542567,0.0,0.0,0.0,1.0
1609055171573316504,1602,1609055171572870016,-2.2763363154412986,-1.928181119702657,2.2641687949854132,0.0,0.0,0.0,1.0
1609055171625637029,1603,1609055171625327110,-2.298704467533252,-1.9605838409592877,2.281732876420053,0.0,0.0,0.0,1.0
1609055171671946064,1604,1609055171671638011,-2.3201709569462388,-1.9938963145628037,2.2975803207860475,0.0,0.0,0.0,1.0
1609055171725072485,1605,1609055171724813938,-2.3466568892083437,-2.0296537310133544,2.3132585682242013,0.0,0.0,0.0,1.0
1609055171777510525,1606,1609055171776967048,-2.36639557559808,-2.0617182231165003,2.3262611982205668,0.0,0.0,0.0,1.0
1609055171825205159,1607,1609055171824300050,-2.391482079204607,-2.0955699773237058,2.339491619370869,0.0,0.0,0.0,1.0
1609055171873243011,1608,1609055171872813940,-2.433742429898256,-2.1600606585134585,2.3650438207162257,0.0,0.0,0.0,1.0
1609055171924928451,1609,1609055171924464941,-2.4564447575385557,-2.192637500019181,2.379041736516445,0.0,0.0,0.0,1.0
1609055171977049225,1610,1609055171976569890,-2.4781803110322613,-2.2248505807556143,2.3926239770517714,0.0,0.0,0.0,1.0
1609055172026980812,1611,1609055172026660919,-2.499103890968236,-2.257095653442178,2.4068278130500067,0.0,0.0,0.0,1.0
1609055172086607414,1612,1609055172086128950,-2.5412290708446577,-2.321252668570274,2.429910900789178,0.0,0.0,0.0,1.0
1609055172129022621,1613,1609055172128694057,-2.561861305639468,-2.3535047220820573,2.440350889487724,0.0,0.0,0.0,1.0
1609055172173267526,1614,1609055172172980070,-2.581525923818642,-2.384609010672335,2.4494492794515166,0.0,0.0,0.0,1.0
1609055172226604980,1615,1609055172225627899,-2.6037082515849406,-2.4174848272674296,2.4569451707577796,0.0,0.0,0.0,1.0
1609055172275680963,1616,1609055172275103092,-2.6448512335133536,-2.480866915039961,2.47677437842324,0.0,0.0,0.0,1.0
1609055172325228779,1617,1609055172324702024,-2.6661163071441294,-2.511362310924106,2.4877528694531508,0.0,0.0,0.0,1.0
1609055172375719986,1618,1609055172375415086,-2.6877523431962196,-2.5420707311597255,2.4991337127461692,0.0,0.0,0.0,1.0
1609055172423804754,1619,1609055172423540115,-2.706961443746895,-2.572891521951476,2.509985144278456,0.0,0.0,0.0,1.0
1609055172474902340,1620,1609055172474520921,-2.729942720612854,-2.604063108805576,2.5214082065688315,0.0,0.0,0.0,1.0
1609055172526616696,1621,1609055172526186943,-2.770212823927931,-2.6634707244874747,2.5471604562181156,0.0,0.0,0.0,1.0
1609055172575233163,1622,1609055172574785947,-2.7931442574242027,-2.6928057367389755,2.561332430698908,0.0,0.0,0.0,1.0
1609055172624551676,1623,1609055172624152898,-2.815875048950108,-2.7229601134679555,2.5767238570961446,0.0,0.0,0.0,1.0
1609055172672189346,1624,1609055172671190023,-2.834172113339406,-2.7505079706843674,2.5924609080824075,0.0,0.0,0.0,1.0
1609055172727063184,1625,1609055172726763010,-2.8557419169780047,-2.7797524797363877,2.6100268612302386,0.0,0.0,0.0,1.0
1609055172773586374,1626,1609055172773335933,-2.8965405672101134,-2.835955869212249,2.646676129496666,0.0,0.0,0.0,1.0
1609055172824760369,1627,1609055172824215888,-2.917688067385509,-2.862386978123176,2.664078297058288,0.0,0.0,0.0,1.0
1609055172873021941,1628,1609055172872700929,-2.938892060647092,-2.889312482817786,2.682528803041877,0.0,0.0,0.0,1.0
1609055172924971986,1629,1609055172924510955,-2.9581154083746597,-2.915302162404636,2.700786339810276,0.0,0.0,0.0,1.0
1609055172977478702,1630,1609055172977201938,-2.978657651843637,-2.9411806234765123,2.717946599495627,0.0,0.0,0.0,1.0
1609055173024157243,1631,1609055173023879051,-3.0195482960955005,-2.9917852217054772,2.7503044181041316,0.0,0.0,0.0,1.0
1609055173072876515,1632,1609055173072557926,-3.0400816893646194,-3.0153535623336296,2.766383044475945,0.0,0.0,0.0,1.0
1609055173139047991,1633,1609055173138650894,-3.0622111190069603,-3.0389760023814887,2.7835113183547118,0.0,0.0,0.0,1.0
1609055173172472230,1634,1609055173172075033,-3.082368672958374,-3.061931812594082,2.8011261842237287,0.0,0.0,0.0,1.0
1609055173225889512,1635,1609055173225503921,-3.102483795446531,-3.0843105214366346,2.819547326876482,0.0,0.0,0.0,1.0
1609055173274005856,1636,1609055173273014068,-3.14228345919971,-3.1286770003539175,2.8544047065551177,0.0,0.0,0.0,1.0
1609055173326024389,1637,1609055173325588941,-3.1625575341444545,-3.1511849573795985,2.872382901386703,0.0,0.0,0.0,1.0
1609055173392839595,1638,1609055173392066955,-3.2034542687204457,-3.194703005555489,2.90283673434188,0.0,0.0,0.0,1.0
1609055173478440085,1639,1609055173477720022,-3.2458592877959447,-3.2382728246092327,2.9296382474652107,0.0,0.0,0.0,1.0
1609055173525868921,1640,1609055173525299072,-3.2660369474970743,-3.2582284143163918,2.941791974683023,0.0,0.0,0.0,1.0
1609055173574200971,1641,1609055173573935985,-3.284701300922915,-3.2775017916535134,2.955264289160716,0.0,0.0,0.0,1.0
1609055173622925687,1642,1609055173622236013,-3.307365118039172,-3.298033630565122,2.970339939928266,0.0,0.0,0.0,1.0
1609055173675843896,1643,1609055173675481081,-3.3276433508686907,-3.317936156727079,2.984568170769991,0.0,0.0,0.0,1.0
1609055173728214077,1644,1609055173727571010,-3.3671115128162405,-3.35632609411023,3.01007655027479,0.0,0.0,0.0,1.0
1609055173774643143,1645,1609055173774179935,-3.3870071285331136,-3.375554187121928,3.02175528068544,0.0,0.0,0.0,1.0
1609055173824565065,1646,1609055173824048042,-3.405200322967339,-3.393916607195692,3.03317992439596,0.0,0.0,0.0,1.0
1609055173872544456,1647,1609055173871661901,-3.4266015366252205,-3.4128029177322716,3.0453560442973298,0.0,0.0,0.0,1.0
1609055173926737683,1648,1609055173926466941,-3.445958861158207,-3.430985376237416,3.057931551759057,0.0,0.0,0.0,1.0
1609055173973497477,1649,1609055173972738027,-3.4855071304517935,-3.468802890014551,3.085376831466573,0.0,0.0,0.0,1.0
1609055174024751829,1650,1609055174024467945,-3.503199929301026,-3.4862939569784785,3.098892693575332,0.0,0.0,0.0,1.0
1609055174072184270,1651,1609055174071816921,-3.521628044512447,-3.5040878389646224,3.113503813183932,0.0,0.0,0.0,1.0
1609055174126586458,1652,1609055174126280069,-3.541628898047449,-3.5226079134222346,3.128703314067372,0.0,0.0,0.0,1.0
1609055174177650785,1653,1609055174177242040,-3.5603343039255826,-3.539997350364658,3.143234411451222,0.0,0.0,0.0,1.0
1609055174238516562,1654,1609055174237909078,-3.5967352234328622,-3.5749481558293965,3.1731256356727147,0.0,0.0,0.0,1.0
1609055174280257648,1655,1609055174279783010,-3.6160189455076335,-3.592592780366985,3.187314118794297,0.0,0.0,0.0,1.0
1609055174325501191,1656,1609055174324932098,-3.632709613188691,-3.6090543447007875,3.199454953976547,0.0,0.0,0.0,1.0
1609055174373854930,1657,1609055174373388051,-3.650302294714784,-3.62587439037614,3.210927103062751,0.0,0.0,0.0,1.0
1609055174426851234,1658,1609055174426533937,-3.6708548308367277,-3.643404600283425,3.222421613872998,0.0,0.0,0.0,1.0
1609055174473354409,1659,1609055174472939968,-3.7025790569003263,-3.6764019538857795,3.245911970806208,0.0,0.0,0.0,1.0
1609055174526827497,1660,1609055174526281118,-3.7215105318907504,-3.6946656336478227,3.259471893308096,0.0,0.0,0.0,1.0
1609055174573935878,1661,1609055174573142051,-3.737386733790295,-3.711799223374989,3.272675883838209,0.0,0.0,0.0,1.0
1609055174626265000,1662,1609055174625667095,-3.7526806125719183,-3.7287292552809106,3.2860873445064906,0.0,0.0,0.0,1.0
1609055174675150003,1663,1609055174674521923,-3.7864056621944435,-3.7640044835269677,3.315146738051764,0.0,0.0,0.0,1.0
1609055174724809744,1664,1609055174724334001,-3.8018933995661364,-3.781063976925651,3.3279833475492007,0.0,0.0,0.0,1.0
1609055174774623262,1665,1609055174774270057,-3.8188186449313726,-3.798860985220422,3.340527397645334,0.0,0.0,0.0,1.0
1609055174822564667,1666,1609055174822154998,-3.8330935572826057,-3.8161344733231317,3.353711787270576,0.0,0.0,0.0,1.0
1609055174875890343,1667,1609055174875543117,-3.8487257572046474,-3.83410358214028,3.3668624916920398,0.0,0.0,0.0,1.0
1609055174926943146,1668,1609055174926300048,-3.875605002285635,-3.868952449869859,3.393385587161295,0.0,0.0,0.0,1.0
1609055174975004824,1669,1609055174973730087,-3.8902421164552905,-3.886875807730931,3.4073441271102647,0.0,0.0,0.0,1.0
1609055175026301993,1670,1609055175025697946,-3.904519034946347,-3.905345168068102,3.4208259188237577,0.0,0.0,0.0,1.0
1609055175073930119,1671,1609055175073563098,-3.9175780914156384,-3.923075244015429,3.4343784839264186,0.0,0.0,0.0,1.0
1609055175131791629,1672,1609055175130748033,-3.930521633110896,-3.9412252487897774,3.447419715922761,0.0,0.0,0.0,1.0
1609055175172538660,1673,1609055175172293901,-3.9561947580566397,-3.977665399124632,3.475880720221226,0.0,0.0,0.0,1.0
1609055175226252789,1674,1609055175225720882,-3.96711211351208,-3.9945609516229226,3.489611345615201,0.0,0.0,0.0,1.0
1609055175273857764,1675,1609055175273180961,-3.980264781709245,-4.013118426348569,3.5049686090788517,0.0,0.0,0.0,1.0
1609055175327262003,1676,1609055175326464891,-3.990904847645645,-4.031547873869087,3.5202523300629287,0.0,0.0,0.0,1.0
1609055175378820353,1677,1609055175378529071,-4.001457206437838,-4.0498412809582405,3.535668282665125,0.0,0.0,0.0,1.0
1609055175425345327,1678,1609055175424951076,-4.021988227561621,-4.0865199991963195,3.56538862209035,0.0,0.0,0.0,1.0
1609055175473756992,1679,1609055175473351955,-4.03141099063248,-4.103925771243311,3.578405018265293,0.0,0.0,0.0,1.0
1609055175527855662,1680,1609055175527601003,-4.041920689766446,-4.122483556852131,3.591065635193597,0.0,0.0,0.0,1.0
1609055175580864265,1681,1609055175580178022,-4.050706393260821,-4.139872407730039,3.602348721007779,0.0,0.0,0.0,1.0
1609055175628349856,1682,1609055175626846075,-4.060585178666326,-4.157097031204103,3.612059374856565,0.0,0.0,0.0,1.0
1609055175685419875,1683,1609055175684761047,-4.0771995471336275,-4.190556998346494,3.627279223216759,0.0,0.0,0.0,1.0
1609055175728480756,1684,1609055175727673053,-4.087008993441646,-4.207917522589689,3.634128436185809,0.0,0.0,0.0,1.0
1609055175774615228,1685,1609055175773685932,-4.09571611791446,-4.225300946221189,3.639197326808573,0.0,0.0,0.0,1.0
1609055175825254574,1686,1609055175824923038,-4.102142940710014,-4.242006602852477,3.6438330084463737,0.0,0.0,0.0,1.0
1609055175874965950,1687,1609055175874509096,-4.116971474448352,-4.2764122272818526,3.651690212041506,0.0,0.0,0.0,1.0
1609055175924107273,1688,1609055175923727989,-4.123844687199529,-4.292324957836364,3.6543035702546938,0.0,0.0,0.0,1.0
1609055175974413946,1689,1609055175973803997,-4.13122415759419,-4.309273456873342,3.6568587515155357,0.0,0.0,0.0,1.0
1609055176025843897,1690,1609055176025207996,-4.137014918297318,-4.32630707983116,3.6592055580620997,0.0,0.0,0.0,1.0
1609055176074784236,1691,1609055176074162960,-4.143433332228579,-4.343069367344448,3.660878624382519,0.0,0.0,0.0,1.0
1609055176128701677,1692,1609055176128125905,-4.154322188237142,-4.376586372099162,3.6654770991068917,0.0,0.0,0.0,1.0
1609055176183355143,1693,1609055176182933092,-4.160251043918251,-4.393847422085017,3.668672255173489,0.0,0.0,0.0,1.0
1609055176227644239,1694,1609055176227384090,-4.165480124192413,-4.411466357302864,3.6725052479126576,0.0,0.0,0.0,1.0
1609055176271777572,1695,1609055176271470069,-4.1710478614380015,-4.428920413563766,3.675728407793883,0.0,0.0,0.0,1.0
1609055176326552375,1696,1609055176326185941,-4.177972986964999,-4.446975754497814,3.6809079924084207,0.0,0.0,0.0,1.0
1609055176379015173,1697,1609055176378691911,-4.189242923012916,-4.4824217353474936,3.688418310994246,0.0,0.0,0.0,1.0
1609055176427114216,1698,1609055176426490068,-4.194825941174827,-4.499746260308065,3.6923941678774157,0.0,0.0,0.0,1.0
1609055176476660305,1699,1609055176475265026,-4.201546405281412,-4.518313030050791,3.696737988502323,0.0,0.0,0.0,1.0
1609055176526581335,1700,1609055176526139974,-4.206136460179085,-4.536237385204515,3.7008355445648378,0.0,0.0,0.0,1.0
1609055176576227302,1701,1609055176575902938,-4.212495036698055,-4.554637424791643,3.706019431234973,0.0,0.0,0.0,1.0
1609055176623531983,1702,1609055176623174905,-4.225217672958632,-4.591073316899006,3.717497988617379,0.0,0.0,0.0,1.0
1609055176673415151,1703,1609055176673006057,-4.233646842299336,-4.609513157035842,3.722054087849598,0.0,0.0,0.0,1.0
1609055176726988852,1704,1609055176726689100,-4.240111735900999,-4.627845270085388,3.725342131689282,0.0,0.0,0.0,1.0
1609055176775360790,1705,1609055176774918079,-4.247008182303965,-4.645785072830435,3.728997586592294,0.0,0.0,0.0,1.0
1609055176826450193,1706,1609055176826128005,-4.25755015586957,-4.6654685998775065,3.730482084920928,0.0,0.0,0.0,1.0
1609055176873839670,1707,1609055176873121023,-4.274404575605136,-4.700613914187457,3.738701454044743,0.0,0.0,0.0,1.0
1609055176926928010,1708,1609055176926362991,-4.2849616697352495,-4.718572199796476,3.740996159466643,0.0,0.0,0.0,1.0
1609055176973171980,1709,1609055176972676992,-4.294056478154953,-4.7360365749894555,3.74268627820225,0.0,0.0,0.0,1.0
1609055177026304222,1710,1609055177025973081,-4.304045266684554,-4.7531638479202485,3.744883948666896,0.0,0.0,0.0,1.0
1609055177074020094,1711,1609055177073342084,-4.3156004981229295,-4.7706640955522275,3.746780189468067,0.0,0.0,0.0,1.0
1609055177129347333,1712,1609055177128844022,-4.3372355599951185,-4.80512392648464,3.7488398942673187,0.0,0.0,0.0,1.0
1609055177176674751,1713,1609055177175987005,-4.348764940990289,-4.822729641114343,3.748709600415535,0.0,0.0,0.0,1.0
1609055177223175940,1714,1609055177222470998,-4.359187047482564,-4.839839972510532,3.7484116746685587,0.0,0.0,0.0,1.0
1609055177274644366,1715,1609055177274344921,-4.372448219715896,-4.857569540213973,3.7479258286935977,0.0,0.0,0.0,1.0
1609055177325660140,1716,1609055177325350999,-4.394477595349816,-4.8908588174849115,3.745198603241622,0.0,0.0,0.0,1.0
1609055177374336065,1717,1609055177373941898,-4.406707544792212,-4.907773481883218,3.7431600873581767,0.0,0.0,0.0,1.0
1609055177426118524,1718,1609055177425725936,-4.41823225250149,-4.9249827824528225,3.740845690422337,0.0,0.0,0.0,1.0
1609055177471888080,1719,1609055177471533060,-4.428564635216095,-4.941550685250341,3.7384925188764218,0.0,0.0,0.0,1.0
1609055177527059485,1720,1609055177526808977,-4.440585537455004,-4.9589875076396055,3.735442746728237,0.0,0.0,0.0,1.0
1609055177572480855,1721,1609055177572212934,-4.460412936159983,-4.9922291478124805,3.729336360881029,0.0,0.0,0.0,1.0
1609055177626326989,1722,1609055177625524044,-4.470004986615777,-5.007998277413812,3.727220471880027,0.0,0.0,0.0,1.0
1609055177673009692,1723,1609055177672451972,-4.480596921261633,-5.0246067117327655,3.726372100580827,0.0,0.0,0.0,1.0
1609055177725282704,1724,1609055177724493980,-4.489564781198329,-5.039587280544708,3.722818165254378,0.0,0.0,0.0,1.0
1609055177775969209,1725,1609055177775562047,-4.499763824729236,-5.055468963777997,3.720992912095298,0.0,0.0,0.0,1.0
1609055177825042677,1726,1609055177824311971,-4.515050580378794,-5.08593654677648,3.718727999743357,0.0,0.0,0.0,1.0
1609055177873394258,1727,1609055177872901916,-4.522844342699951,-5.101270827592842,3.7167804859029268,0.0,0.0,0.0,1.0
1609055177926752996,1728,1609055177926270008,-4.529152865471694,-5.115811695350438,3.715558842610241,0.0,0.0,0.0,1.0
1609055177973986766,1729,1609055177973215103,-4.535274419751911,-5.130300627665868,3.714045630904543,0.0,0.0,0.0,1.0
1609055178027471441,1730,1609055178027204036,-4.541621991859678,-5.145127961070628,3.7138541831395537,0.0,0.0,0.0,1.0
1609055178073868276,1731,1609055178073596000,-4.551481794708501,-5.172814585674573,3.710758659871546,0.0,0.0,0.0,1.0
1609055178126801275,1732,1609055178126446008,-4.557273830508894,-5.187050423876876,3.709889307651603,0.0,0.0,0.0,1.0
1609055178173801679,1733,1609055178173517942,-4.560302935728984,-5.199504216972969,3.709372863528354,0.0,0.0,0.0,1.0
1609055178225228069,1734,1609055178224605083,-4.565511378513573,-5.212681471148862,3.708360063926147,0.0,0.0,0.0,1.0
1609055178276741044,1735,1609055178275553941,-4.570651013009318,-5.23717948453028,3.706712146865721,0.0,0.0,0.0,1.0
1609055178325231231,1736,1609055178324464082,-4.5727627907913835,-5.2485448825571055,3.7063191992298057,0.0,0.0,0.0,1.0
1609055178375791448,1737,1609055178375433921,-4.575669999049605,-5.260205306216214,3.7059156098523,0.0,0.0,0.0,1.0
1609055178423182790,1738,1609055178422914981,-4.577365453367701,-5.2722657752903785,3.705645655597356,0.0,0.0,0.0,1.0
1609055178474174884,1739,1609055178473893880,-4.57870005659899,-5.282929410039863,3.705045214753216,0.0,0.0,0.0,1.0
1609055178527699693,1740,1609055178527255058,-4.579424447188483,-5.305521414458468,3.7026411774728087,0.0,0.0,0.0,1.0
1609055178573526354,1741,1609055178573101997,-4.579904849266885,-5.3166297959635,3.701800085756744,0.0,0.0,0.0,1.0
1609055178625655298,1742,1609055178625189065,-4.579563881823976,-5.327790645643027,3.700258002349388,0.0,0.0,0.0,1.0
1609055178673124357,1743,1609055178672074079,-4.57806112295955,-5.338598344226753,3.699310045360896,0.0,0.0,0.0,1.0
1609055178726916717,1744,1609055178726572036,-4.576434938395661,-5.349375653722134,3.698065322379918,0.0,0.0,0.0,1.0
1609055178774123693,1745,1609055178773493051,-4.572007600815855,-5.370244156538796,3.698411962143795,0.0,0.0,0.0,1.0
1609055178818718082,1746,1609055178818135023,-4.569649556914314,-5.380878213159825,3.6884210428067488,0.0,0.0,0.0,1.0
1609055178869346467,1747,1609055178868616104,-4.566121517697805,-5.391762885614185,3.688022122351134,0.0,0.0,0.0,1.0
1609055178918836015,1748,1609055178918551921,-4.562694906380706,-5.402631545727992,3.686586434995074,0.0,0.0,0.0,1.0
1609055178970801443,1749,1609055178970346927,-4.558504551538988,-5.413534172484653,3.687302633640226,0.0,0.0,0.0,1.0
1609055179020132663,1750,1609055179019530057,-4.548499930921089,-5.434647535207567,3.688425209220207,0.0,0.0,0.0,1.0
1609055179068766903,1751,1609055179068316936,-4.543074680474678,-5.445112533047549,3.688763660358382,0.0,0.0,0.0,1.0
1609055179125259603,1752,1609055179124480962,-4.5372395868022295,-5.455435136382462,3.69100351086205,0.0,0.0,0.0,1.0
1609055179169267589,1753,1609055179168469905,-4.531353998604214,-5.465781040362977,3.692426354883224,0.0,0.0,0.0,1.0
1609055179223360609,1754,1609055179221792936,-4.525013851507836,-5.475933000537182,3.694353727931867,0.0,0.0,0.0,1.0
1609055179267986390,1755,1609055179267718076,-4.511986762033597,-5.4959358127372155,3.697422264670308,0.0,0.0,0.0,1.0
1609055179321140778,1756,1609055179320678949,-4.505525964740329,-5.505542014054086,3.6987209651729,0.0,0.0,0.0,1.0
1609055179368707060,1757,1609055179368432998,-4.498682298938455,-5.514485747790822,3.701858631975135,0.0,0.0,0.0,1.0
1609055179417979112,1758,1609055179417404890,-4.492005239514214,-5.523153522696873,3.703253028183331,0.0,0.0,0.0,1.0
1609055179470554194,1759,1609055179469854116,-4.4852731022732115,-5.531837592828538,3.70602290778709,0.0,0.0,0.0,1.0
1609055179520749796,1760,1609055179519875049,-4.471033137102282,-5.548290079748533,3.7134497235572788,0.0,0.0,0.0,1.0
1609055179576907960,1761,1609055179576515913,-4.4655640202335825,-5.556237486450257,3.7210080552421707,0.0,0.0,0.0,1.0
1609055179623663578,1762,1609055179623337030,-4.456429174872934,-5.5630407841190745,3.724450613020339,0.0,0.0,0.0,1.0
1609055179676171565,1763,1609055179675719976,-4.452311329476764,-5.570877377121597,3.727229504669318,0.0,0.0,0.0,1.0
1609055179727744767,1764,1609055179726792097,-4.438725850174748,-5.583876550513885,3.7339491876207247,0.0,0.0,0.0,1.0
1609055179776460140,1765,1609055179775595903,-4.432895393088646,-5.589790836023127,3.736927429729951,0.0,0.0,0.0,1.0
1609055179825111461,1766,1609055179824481964,-4.427274291487176,-5.595655989762626,3.740301274772631,0.0,0.0,0.0,1.0
1609055179873403392,1767,1609055179872981071,-4.421807467731458,-5.601057677869129,3.74342110597471,0.0,0.0,0.0,1.0
1609055179926316396,1768,1609055179925950050,-4.416995853792233,-5.606156773634503,3.7467606353143017,0.0,0.0,0.0,1.0
1609055179973160388,1769,1609055179972651004,-4.4061658142903894,-5.6143723158747605,3.752205755350805,0.0,0.0,0.0,1.0
1609055180026997016,1770,1609055180026099920,-4.403634533266654,-5.618952737954153,3.755014809896098,0.0,0.0,0.0,1.0
1609055180073270997,1771,1609055180072957992,-4.398725216466271,-5.622234537703491,3.757726039387419,0.0,0.0,0.0,1.0
1609055180127548500,1772,1609055180127152919,-4.395735403304986,-5.625913289624442,3.76025631451266,0.0,0.0,0.0,1.0
1609055180177178429,1773,1609055180176687002,-4.391958628950427,-5.628754805531877,3.763061023695777,0.0,0.0,0.0,1.0
1609055180236688681,1774,1609055180236349105,-4.3852374239342815,-5.634746766812022,3.764383948616564,0.0,0.0,0.0,1.0
1609055180278637875,1775,1609055180278110027,-4.38244134991427,-5.637440374627474,3.768845208083941,0.0,0.0,0.0,1.0
1609055180326561955,1776,1609055180325875997,-4.381259543333986,-5.640406681008372,3.773355622828079,0.0,0.0,0.0,1.0
1609055180375575111,1777,1609055180374494075,-4.377033735001213,-5.64194628212929,3.775435763095863,0.0,0.0,0.0,1.0
1609055180426361004,1778,1609055180426012039,-4.376175571781754,-5.644721875001402,3.777616192785942,0.0,0.0,0.0,1.0
1609055180474058955,1779,1609055180473144054,-4.373292235824771,-5.648555758719546,3.779983862549623,0.0,0.0,0.0,1.0
1609055180526128959,1780,1609055180525840044,-4.37210536557469,-5.6505148083954,3.781136898609245,0.0,0.0,0.0,1.0
1609055180573032712,1781,1609055180572693109,-4.370295311533678,-5.651700210128979,3.782503276642014,0.0,0.0,0.0,1.0
1609055180618022575,1782,1609055180617440938,-4.369019337135441,-5.653338271005545,3.7787409307493958,0.0,0.0,0.0,1.0
1609055180669906280,1783,1609055180669095039,-4.367988416926789,-5.6545910707402385,3.778095077528489,0.0,0.0,0.0,1.0
1609055180719572532,1784,1609055180718864917,-4.366398760485229,-5.656012812725862,3.778490375504018,0.0,0.0,0.0,1.0
1609055180771350461,1785,1609055180770867109,-4.365705432713266,-5.656736925596661,3.778103520619106,0.0,0.0,0.0,1.0
1609055180819338529,1786,1609055180818758964,-4.364885164526836,-5.65713354166008,3.7769297006158737,0.0,0.0,0.0,1.0
1609055180869096115,1787,1609055180868566036,-4.363494885080154,-5.6575883681205,3.774660674294203,0.0,0.0,0.0,1.0
1609055180923286470,1788,1609055180922487020,-4.3618185803750436,-5.657477239811449,3.7730708139964557,0.0,0.0,0.0,1.0
1609055180968882435,1789,1609055180968362092,-4.358256220654784,-5.656384597882699,3.768692442530119,0.0,0.0,0.0,1.0
1609055181021794709,1790,1609055181021558046,-4.356705233940268,-5.6555916296956354,3.764607119192661,0.0,0.0,0.0,1.0
1609055181073280114,1791,1609055181072961091,-4.354461131982966,-5.654248093428649,3.764286655466489,0.0,0.0,0.0,1.0
1609055181127768644,1792,1609055181127449035,-4.35407706189471,-5.653716904746062,3.759303318724184,0.0,0.0,0.0,1.0
1609055181173442089,1793,1609055181173027038,-4.346951088372098,-5.6482278479598875,3.748433156792543,0.0,0.0,0.0,1.0
1609055181226380545,1794,1609055181225819110,-4.34245421472696,-5.644775656544333,3.743894535305143,0.0,0.0,0.0,1.0
1609055181275055693,1795,1609055181273570060,-4.339809536685959,-5.641983529161664,3.737683439412074,0.0,0.0,0.0,1.0
1609055181324637884,1796,1609055181324012041,-4.335421492995852,-5.6386283574453415,3.7341569247595547,0.0,0.0,0.0,1.0
1609055181379568961,1797,1609055181379125118,-4.332090792630019,-5.63561775374972,3.7294121685390347,0.0,0.0,0.0,1.0
1609055181438914317,1798,1609055181438599109,-4.320790955866691,-5.627135159998673,3.722262587727816,0.0,0.0,0.0,1.0
1609055181479743843,1799,1609055181479490041,-4.31442397729743,-5.6225902525227625,3.719507768476957,0.0,0.0,0.0,1.0
1609055181526903379,1800,1609055181526396036,-4.3082260291603305,-5.617871685514189,3.7172144178059257,0.0,0.0,0.0,1.0
1609055181573475828,1801,1609055181572916030,-4.301526895499329,-5.612879479070415,3.7146096406464797,0.0,0.0,0.0,1.0
1609055181628326909,1802,1609055181627197980,-4.2932026864287955,-5.607064394602332,3.712293601235607,0.0,0.0,0.0,1.0
1609055181672344229,1803,1609055181671854019,-4.278485221483873,-5.596401844442411,3.706849079135076,0.0,0.0,0.0,1.0
1609055181725328319,1804,1609055181725078105,-4.271187616179155,-5.589822712447109,3.7039888649893618,0.0,0.0,0.0,1.0
1609055181771590282,1805,1609055181771248102,-4.262106982411641,-5.583579696072711,3.7005859267930257,0.0,0.0,0.0,1.0
1609055181824492457,1806,1609055181824111938,-4.253327245304355,-5.5770690510482765,3.69835443435551,0.0,0.0,0.0,1.0
1609055181875156528,1807,1609055181874808073,-4.233560327225504,-5.563055928534297,3.695535480389654,0.0,0.0,0.0,1.0
1609055181926262974,1808,1609055181925997972,-4.2238575764270365,-5.555945310458888,3.6943942934638607,0.0,0.0,0.0,1.0
1609055181973921417,1809,1609055181973620891,-4.212975450881114,-5.5488038930927885,3.6938167992918407,0.0,0.0,0.0,1.0
1609055182024953743,1810,1609055182024467945,-4.200620146805587,-5.54069517148784,3.693364328047458,0.0,0.0,0.0,1.0
1609055182074809769,1811,1609055182074510097,-4.1906290816854685,-5.5331326319161676,3.6929025875500288,0.0,0.0,0.0,1.0
1609055182127652458,1812,1609055182127080917,-4.166061637954442,-5.516566783360787,3.691822824640425,0.0,0.0,0.0,1.0
1609055182177229621,1813,1609055182175546884,-4.154563971555088,-5.5081529198019155,3.691206706285756,0.0,0.0,0.0,1.0
1609055182226180426,1814,1609055182225373983,-4.142331707386713,-5.499596534965953,3.690303301241332,0.0,0.0,0.0,1.0
1609055182272231792,1815,1609055182271750926,-4.129370369016019,-5.490325203690354,3.689938730269204,0.0,0.0,0.0,1.0
1609055182326814456,1816,1609055182326030015,-4.117448109776962,-5.481115972238818,3.68956577903178,0.0,0.0,0.0,1.0
1609055182373339890,1817,1609055182372920989,-4.090780499505932,-5.461615816909045,3.690170095488635,0.0,0.0,0.0,1.0
1609055182426104348,1818,1609055182425586938,-4.0785862854405295,-5.4518278886339075,3.691078496972751,0.0,0.0,0.0,1.0
1609055182475521868,1819,1609055182475060939,-4.0658818950089,-5.4414189206783945,3.692267350489339,0.0,0.0,0.0,1.0
1609055182525527534,1820,1609055182525145053,-4.051864297708118,-5.430098740024327,3.693745363438696,0.0,0.0,0.0,1.0
1609055182576499138,1821,1609055182575793027,-4.039335341442122,-5.419003579682638,3.695191957533305,0.0,0.0,0.0,1.0
1609055182638364386,1822,1609055182637918949,-4.01201627403773,-5.394758565886292,3.69967535320417,0.0,0.0,0.0,1.0
1609055182682171779,1823,1609055182681654930,-4.000138048191197,-5.3833614323767875,3.701471239093447,0.0,0.0,0.0,1.0
1609055182726773399,1824,1609055182726507902,-3.9865406884686756,-5.3703794127009985,3.703507720367786,0.0,0.0,0.0,1.0
1609055182774629043,1825,1609055182774200916,-3.974464213921923,-5.358385390264807,3.7053449324303567,0.0,0.0,0.0,1.0
1609055182825827613,1826,1609055182825419902,-3.9618128274582283,-5.345634281824431,3.7076279653331317,0.0,0.0,0.0,1.0
1609055182874310442,1827,1609055182873485088,-3.9375935997164966,-5.319744590105799,3.710999423908428,0.0,0.0,0.0,1.0
1609055182967779844,1828,1609055182967494010,-3.9103940273428037,-5.291283171028354,3.715014366109111,0.0,0.0,0.0,1.0
1609055183034634848,1829,1609055183034313917,-3.8856102783729156,-5.263702775026566,3.719119460669745,0.0,0.0,0.0,1.0
1609055183078928092,1830,1609055183078646898,-3.872523779976518,-5.249162528173194,3.720723491615957,0.0,0.0,0.0,1.0
1609055183127995436,1831,1609055183127476930,-3.8611010537077703,-5.234976464132316,3.722967346993169,0.0,0.0,0.0,1.0
1609055183173793805,1832,1609055183173512935,-3.8472111183639797,-5.220137415494122,3.7250088051049897,0.0,0.0,0.0,1.0
1609055183224589489,1833,1609055183224189996,-3.8344047679281132,-5.204909309694955,3.727782946099024,0.0,0.0,0.0,1.0
1609055183275473892,1834,1609055183275171995,-3.823165200665514,-5.1889605285754286,3.7307267937536976,0.0,0.0,0.0,1.0
1609055183326809087,1835,1609055183326287984,-3.7959732061694993,-5.158073546196178,3.736299316440155,0.0,0.0,0.0,1.0
1609055183375535917,1836,1609055183374823093,-3.7837597540345804,-5.142965880884539,3.739172612107666,0.0,0.0,0.0,1.0
1609055183427102657,1837,1609055183426466941,-3.769456788071601,-5.126976934610191,3.7428164709563667,0.0,0.0,0.0,1.0
1609055183474074000,1838,1609055183473531961,-3.756454950722098,-5.110945413845577,3.743919092798198,0.0,0.0,0.0,1.0
1609055183527323361,1839,1609055183527014970,-3.7435044903796317,-5.094517550390222,3.751298503488831,0.0,0.0,0.0,1.0
1609055183573861919,1840,1609055183573415040,-3.715811470642148,-5.061776697501415,3.759933925136788,0.0,0.0,0.0,1.0
1609055183626966783,1841,1609055183626631021,-3.702515126676886,-5.046354864319994,3.7642170667477948,0.0,0.0,0.0,1.0
1609055183674349652,1842,1609055183673582077,-3.6889997887106247,-5.030431228938177,3.768614021393206,0.0,0.0,0.0,1.0
1609055183728842320,1843,1609055183727219104,-3.6750275123624263,-5.013053532057768,3.773520768345446,0.0,0.0,0.0,1.0
1609055183781788116,1844,1609055183781006097,-3.6452520058591453,-4.978331072842188,3.7829227658155897,0.0,0.0,0.0,1.0
1609055183828348085,1845,1609055183827709913,-3.633325277025662,-4.962035708659464,3.787328071788072,0.0,0.0,0.0,1.0
1609055183874013960,1846,1609055183873569965,-3.619115129742436,-4.944663622000142,3.790956233258449,0.0,0.0,0.0,1.0
1609055183924790792,1847,1609055183924503087,-3.6045668895106324,-4.927218972323558,3.795943700145397,0.0,0.0,0.0,1.0
1609055183976162268,1848,1609055183975788116,-3.5919401234332753,-4.910539015022536,3.801374950945228,0.0,0.0,0.0,1.0
1609055184027828668,1849,1609055184027339935,-3.5784377534012677,-4.893636769602573,3.805198972004376,0.0,0.0,0.0,1.0
1609055184073247695,1850,1609055184072865962,-3.5528292349618695,-4.860565452657966,3.8125389387079798,0.0,0.0,0.0,1.0
1609055184126558892,1851,1609055184125991106,-3.538112045816277,-4.843277574805526,3.8181171144828787,0.0,0.0,0.0,1.0
1609055184172588866,1852,1609055184172264099,-3.524715505858083,-4.826521620709187,3.8223719822861058,0.0,0.0,0.0,1.0
1609055184226139660,1853,1609055184225709915,-3.5122511148447373,-4.8098784416571405,3.826751694261308,0.0,0.0,0.0,1.0
1609055184274887774,1854,1609055184273721933,-3.4836238197696474,-4.7764713655770095,3.83585670410266,0.0,0.0,0.0,1.0
1609055184326529836,1855,1609055184325576066,-3.472583470572779,-4.761406940066053,3.8400982414344167,0.0,0.0,0.0,1.0
1609055184375081755,1856,1609055184374133110,-3.458991807883617,-4.745226999594209,3.844801625773226,0.0,0.0,0.0,1.0
1609055184425257098,1857,1609055184424628019,-3.44601975982431,-4.729174284672823,3.8492506486016307,0.0,0.0,0.0,1.0
1609055184476805309,1858,1609055184475791931,-3.4339322232424934,-4.713371390558791,3.852788818093103,0.0,0.0,0.0,1.0
1609055184527450021,1859,1609055184527067899,-3.407259403560321,-4.6823945275179994,3.8599667535966797,0.0,0.0,0.0,1.0
1609055184575500787,1860,1609055184575208902,-3.395997595504401,-4.667889217032595,3.862593102553087,0.0,0.0,0.0,1.0
1609055184624899069,1861,1609055184624571084,-3.382237688809596,-4.6534542299862025,3.865729903259521,0.0,0.0,0.0,1.0
1609055184674021770,1862,1609055184673228025,-3.3710474632514185,-4.639315051952771,3.8680462891256338,0.0,0.0,0.0,1.0
1609055184725870689,1863,1609055184725492000,-3.358406036741613,-4.625406018153022,3.87067389422721,0.0,0.0,0.0,1.0
1609055184779981722,1864,1609055184779529094,-3.3319943521148296,-4.597188662382777,3.876459692596627,0.0,0.0,0.0,1.0
1609055184824228864,1865,1609055184823906898,-3.3193131483610827,-4.5843732954077865,3.878366444806772,0.0,0.0,0.0,1.0
1609055184873486981,1866,1609055184873048067,-3.3053039115327394,-4.5707616051421525,3.880845975688141,0.0,0.0,0.0,1.0
1609055184925523422,1867,1609055184924573898,-3.291633208917787,-4.557408718889569,3.882662043876033,0.0,0.0,0.0,1.0
1609055184977397308,1868,1609055184976830005,-3.278488302160021,-4.5445361522163665,3.884957014301118,0.0,0.0,0.0,1.0
1609055185025301247,1869,1609055185024616003,-3.2507067671346235,-4.518742637486184,3.8890240708990578,0.0,0.0,0.0,1.0
1609055185073386108,1870,1609055185072923898,-3.2373063930222585,-4.506247776452767,3.890742754393795,0.0,0.0,0.0,1.0
1609055185125738658,1871,1609055185125214099,-3.2215152582681945,-4.493077566814229,3.891803999399409,0.0,0.0,0.0,1.0
1609055185178449385,1872,1609055185177850961,-3.208929268909319,-4.4807595088754795,3.893644873209453,0.0,0.0,0.0,1.0
1609055185227322410,1873,1609055185226908922,-3.194599260882285,-4.468158608266208,3.895691668864763,0.0,0.0,0.0,1.0
1609055185274156401,1874,1609055185273809909,-3.167260789044043,-4.442503195761951,3.8991010103646437,0.0,0.0,0.0,1.0
1609055185326291463,1875,1609055185326030015,-3.151246323211481,-4.4290974731606525,3.901921242964054,0.0,0.0,0.0,1.0
1609055185392438341,1876,1609055185392045021,-3.123118145607048,-4.403595567348397,3.906032606306408,0.0,0.0,0.0,1.0
1609055185479552810,1877,1609055185479149103,-3.091962246476296,-4.376518590804757,3.911039429696929,0.0,0.0,0.0,1.0
1609055185526107736,1878,1609055185525790929,-3.076964020028921,-4.36288903478593,3.9131072757634398,0.0,0.0,0.0,1.0
1609055185575265266,1879,1609055185574721097,-3.0608154407290726,-4.3484079630452115,3.9161610815844488,0.0,0.0,0.0,1.0
1609055185623633483,1880,1609055185623119115,-3.046094982266414,-4.334147412387729,3.91817705722913,0.0,0.0,0.0,1.0
1609055185674607524,1881,1609055185673947095,-3.0302987597648325,-4.31976299144938,3.92199731286398,0.0,0.0,0.0,1.0
1609055185727583884,1882,1609055185727001905,-3.000043897697715,-4.290687404155925,3.928178267031635,0.0,0.0,0.0,1.0
1609055185774687671,1883,1609055185773653030,-2.983827396662676,-4.2748658024315915,3.930758407812702,0.0,0.0,0.0,1.0
1609055185825857279,1884,1609055185825361013,-2.968881811502861,-4.259177346922613,3.935287958628853,0.0,0.0,0.0,1.0
1609055185872392319,1885,1609055185871671915,-2.9529027653954643,-4.243473069360405,3.93965006516626,0.0,0.0,0.0,1.0
1609055185927229293,1886,1609055185926836013,-2.934314292433747,-4.226446726106438,3.944711466626655,0.0,0.0,0.0,1.0
1609055185978189798,1887,1609055185977912902,-2.902265839605473,-4.193732140855992,3.954474615701272,0.0,0.0,0.0,1.0
1609055186026487872,1888,1609055186026232004,-2.88541958547588,-4.176883387279595,3.9574157177239058,0.0,0.0,0.0,1.0
1609055186098133487,1889,1609055186097769975,-2.852378253053189,-4.143367956679832,3.969225006910977,0.0,0.0,0.0,1.0
1609055186139212549,1890,1609055186138892889,-2.8332906154101813,-4.125675616601612,3.974830948344549,0.0,0.0,0.0,1.0
1609055186180056890,1891,1609055186179631948,-2.8172513140993765,-4.108629151938551,3.979467170367026,0.0,0.0,0.0,1.0
1609055186228384761,1892,1609055186227601051,-2.8008337545268382,-4.091323116130198,3.98490120186749,0.0,0.0,0.0,1.0
1609055186273928159,1893,1609055186273411035,-2.7803256757128025,-4.072376258914019,3.989782902703427,0.0,0.0,0.0,1.0
1609055186326704682,1894,1609055186326220035,-2.7631688427084704,-4.054734530334727,3.995280155008944,0.0,0.0,0.0,1.0
1609055186377484773,1895,1609055186377055883,-2.7455572820961045,-4.037109516444936,3.999591718198326,0.0,0.0,0.0,1.0
1609055186426338748,1896,1609055186425996065,-2.727043722503467,-4.019014143005734,4.003234145843814,0.0,0.0,0.0,1.0
1609055186473831604,1897,1609055186473499059,-2.6912703347977924,-3.982352186965251,4.012081225547687,0.0,0.0,0.0,1.0
1609055186527266185,1898,1609055186526782989,-2.669799147607627,-3.9633086914375752,4.015765981362575,0.0,0.0,0.0,1.0
1609055186594527697,1899,1609055186593509912,-2.6326350319518355,-3.9265099193530943,4.021064420633774,0.0,0.0,0.0,1.0
1609055186635461602,1900,1609055186634573936,-2.610641940269314,-3.9068292360397905,4.02650427829861,0.0,0.0,0.0,1.0
1609055186680950419,1901,1609055186680403947,-2.593186105179509,-3.8884505459588183,4.029258138268177,0.0,0.0,0.0,1.0
1609055186724221858,1902,1609055186723968029,-2.5737360796768485,-3.8706105715010324,4.033846915741732,0.0,0.0,0.0,1.0
1609055186774962312,1903,1609055186774655103,-2.5536513328966564,-3.8522333514840383,4.03659290491882,0.0,0.0,0.0,1.0
1609055186823955303,1904,1609055186823590040,-2.53510149537291,-3.8335834384049505,4.040408842788663,0.0,0.0,0.0,1.0
1609055186876389511,1905,1609055186876004934,-2.515274485089641,-3.8149956939964937,4.043136461868838,0.0,0.0,0.0,1.0
1609055186927593121,1906,1609055186927009105,-2.476185324795619,-3.7774690347492097,4.049494412209059,0.0,0.0,0.0,1.0
1609055186974607315,1907,1609055186974123954,-2.4560294880358704,-3.758484707938493,4.052336558403939,0.0,0.0,0.0,1.0
