%time,field.header.seq,field.header.stamp,field.pose.position.x,field.pose.position.y,field.pose.position.z,field.pose.orientation.x,field.pose.orientation.y,field.pose.orientation.z,field.pose.orientation.w
1624181056398351450,2,1624181056397809887,-0.00037532869009737624,0.00029425147022266174,0.0012767666326176652,0.0,0.0,0.0,1.0
1624181056443481894,3,1624181056443267012,-0.0003986080537288217,0.00029807630119194073,0.0016809891419420353,0.0,0.0,0.0,1.0
1624181056509237585,4,1624181056508620883,-0.0003718424513863283,0.0002906554321953081,0.0016713795067353487,0.0,0.0,0.0,1.0
1624181056549783170,5,1624181056549535895,-0.00014248965840124583,0.00024592837144155055,0.0016620319559059737,0.0,0.0,0.0,1.0
1624181056594301742,6,1624181056594063902,-0.0003908116223101388,0.00028583700373019383,0.0012331496604218728,0.0,0.0,0.0,1.0
1624181056643134549,7,1624181056642870093,-0.00037966322406646213,0.0002895899184522932,0.0012556322616212867,0.0,0.0,0.0,1.0
1624181056694477713,8,1624181056694126988,-0.00027014330771635287,0.00024093382614864822,0.0015515652392927848,0.0,0.0,0.0,1.0
1624181056743731729,9,1624181056743388081,6.040083917469019e-07,0.00011492102191823506,0.0012572018572249988,0.0,0.0,0.0,1.0
1624181056793291204,10,1624181056792839909,2.422006832603074e-05,0.00016008377826892684,0.0014488390771205673,0.0,0.0,0.0,1.0
1624181056849343254,11,1624181056848748112,-0.00020814704657823313,0.0001562975327260574,0.001268289437135195,0.0,0.0,0.0,1.0
1624181056898238873,12,1624181056897622967,-0.0003512970572501217,0.0002780120876195724,0.0012310784468176905,0.0,0.0,0.0,1.0
1624181056945200773,13,1624181056944763089,-0.0003454082993812335,0.00020236524414940504,0.0013485723549955253,0.0,0.0,0.0,1.0
1624181056995944750,14,1624181056995012904,-0.0003926436311303405,0.0003171665670151924,0.0013530847584668493,0.0,0.0,0.0,1.0
1624181057044140482,15,1624181057043601895,-1.5072044107000693e-05,3.2505865647181054e-05,0.001333107109939391,0.0,0.0,0.0,1.0
1624181057093706118,16,1624181057093492890,-0.0003788727606206521,0.0002902436075373771,0.0016647665217419672,0.0,0.0,0.0,1.0
1624181057145060102,17,1624181057144626046,-0.00035016232891393884,0.00048419020288292813,0.0016237477911040799,0.0,0.0,0.0,1.0
1624181057194997956,18,1624181057194759036,1.0246370493405266e-05,0.00027335333322753286,0.0014711698022189523,0.0,0.0,0.0,1.0
1624181057244192267,19,1624181057243385935,1.3898790029998054e-05,0.00021753308851657494,0.0016637969762065552,0.0,0.0,0.0,1.0
1624181057296554532,20,1624181057295402909,1.633001807022083e-05,0.0001207219295338291,0.001696918724267249,0.0,0.0,0.0,1.0
1624181057347507451,21,1624181057347020054,1.9113094140266185e-05,0.00021612790442304686,0.0016620817341390648,0.0,0.0,0.0,1.0
1624181057395661386,22,1624181057394963885,3.073337552450539e-05,0.00021590252151781897,0.0016695059161797587,0.0,0.0,0.0,1.0
1624181057446118399,23,1624181057445480013,4.6410195409407606e-05,0.0003061172277512014,0.00202983140391666,0.0,0.0,0.0,1.0
1624181057495511764,24,1624181057494635010,0.00029481618480531324,0.00022582674375826173,0.0014904153328636482,0.0,0.0,0.0,1.0
1624181057542169862,25,1624181057541976119,-2.8589918201760156e-06,0.00011726705758974276,0.0012638084112026604,0.0,0.0,0.0,1.0
1624181057594370323,26,1624181057594108964,2.4778371425782098e-05,0.000254391371413476,0.0014081631442373066,0.0,0.0,0.0,1.0
1624181057644522412,27,1624181057644200945,-4.377891127660405e-05,0.00032844812471921614,0.0016458134625629839,0.0,0.0,0.0,1.0
1624181057691664715,28,1624181057691404963,2.6062412644023425e-05,0.00021909279064402654,0.001678517337179386,0.0,0.0,0.0,1.0
1624181057742102280,29,1624181057740753079,2.0107105456190766e-05,0.00021926533952409955,0.0016749332492977942,0.0,0.0,0.0,1.0
1624181057795472624,30,1624181057794846917,1.703703901512199e-05,0.00012049722761275916,0.0016965539157638432,0.0,0.0,0.0,1.0
1624181057843276497,31,1624181057842830086,0.00017902127819979796,0.00024995205455979885,0.0019071505956169688,0.0,0.0,0.0,1.0
1624181057896534337,32,1624181057895584012,9.185227486341319e-05,0.0003061987467845029,0.001656543747213135,0.0,0.0,0.0,1.0
1624181057947756125,33,1624181057947406912,3.632566404121462e-05,0.00021159970333428646,0.0012508066855971833,0.0,0.0,0.0,1.0
1624181057993313247,34,1624181057992904091,-1.3591918559541227e-05,0.00021507593271508085,0.0012286209735279385,0.0,0.0,0.0,1.0
1624181058045359900,35,1624181058045138979,5.1438083573884796e-05,0.00031135383699165686,0.0016476397167153323,0.0,0.0,0.0,1.0
1624181058095167273,36,1624181058094932938,0.00037825679669367673,0.00025039917068170325,0.0016450840209962792,0.0,0.0,0.0,1.0
1624181058142251593,37,1624181058142013932,5.784197583125206e-06,0.00012328435377639835,0.0016993059801393429,0.0,0.0,0.0,1.0
1624181058193754956,38,1624181058193145896,2.007421244343277e-05,0.00013502959961897432,0.001348921086854915,0.0,0.0,0.0,1.0
1624181058244675856,39,1624181058244247103,5.483490667756996e-06,0.0001480817918491084,0.0013890151198054923,0.0,0.0,0.0,1.0
1624181058294176056,40,1624181058293629075,4.9457009708930855e-05,0.00031195876238143683,0.0016485663624941083,0.0,0.0,0.0,1.0
1624181058342282964,41,1624181058341294909,4.446555385584361e-05,0.00022852822587537958,0.0013221301509283023,0.0,0.0,0.0,1.0
1624181058398112346,42,1624181058397658968,5.517655449693848e-05,0.00020505706800122425,0.0012389458011696775,0.0,0.0,0.0,1.0
1624181058445144054,43,1624181058444703007,-4.4721605263475794e-07,0.00015765397097311507,0.001421824620670975,0.0,0.0,0.0,1.0
1624181058494795878,44,1624181058494110013,4.2922979446302634e-05,0.00029104947179803276,0.0015629828165053539,0.0,0.0,0.0,1.0
1624181058543608860,45,1624181058542915965,5.431189129012637e-05,0.000313075380176997,0.0016563538528799882,0.0,0.0,0.0,1.0
1624181058592875615,46,1624181058592151070,-0.0002681310475054488,0.00037266106676270283,0.0016567407004473012,0.0,0.0,0.0,1.0
1624181058642589619,47,1624181058642137909,5.65007478599e-05,0.00040877258982163767,0.0016222196828792335,0.0,0.0,0.0,1.0
1624181058695405299,48,1624181058694748068,5.343875136532006e-05,0.000313098282390456,0.0016558190967117525,0.0,0.0,0.0,1.0
1624181058742022283,49,1624181058741379881,3.0389406447284273e-05,0.000319579810934556,0.0016644462308761376,0.0,0.0,0.0,1.0
1624181058793682997,50,1624181058792972947,3.213700779269857e-05,0.00021050037435088598,0.0012435619045696455,0.0,0.0,0.0,1.0
1624181058844380902,51,1624181058843799019,3.451943530308199e-05,0.00021373021525050717,0.001663802216043564,0.0,0.0,0.0,1.0
1624181058894354206,52,1624181058893699074,4.348112383922853e-05,0.00041046562284918764,0.001619476217715743,0.0,0.0,0.0,1.0
1624181058942658723,53,1624181058942077065,5.633449518427369e-06,0.00019042768997223902,0.0015529986592426326,0.0,0.0,0.0,1.0
1624181058994997901,54,1624181058994496966,-3.2983477467496414e-05,0.0001239029245425627,0.0012679814123508493,0.0,0.0,0.0,1.0
1624181059044627080,55,1624181059043685103,4.082734835719748e-05,0.0002710939226062692,0.0014842593782766755,0.0,0.0,0.0,1.0
1624181059098868962,56,1624181059098383093,6.332551060950209e-05,0.00021773125683921535,0.0012938117648992886,0.0,0.0,0.0,1.0
1624181059151886512,57,1624181059150832081,0.00014032760827831225,0.00012503121070039924,0.0013960832322936767,0.0,0.0,0.0,1.0
1624181059200832462,58,1624181059200236941,1.4118194258117e-05,0.00021248922462291375,0.0012383941245737162,0.0,0.0,0.0,1.0
1624181059243805607,59,1624181059243384982,-0.00016994304723993992,0.0003459625143023004,0.0012174788102647938,0.0,0.0,0.0,1.0
1624181059293989527,60,1624181059293749953,1.5347730368375778e-05,0.00021104282086525927,0.0012336744941841005,0.0,0.0,0.0,1.0
1624181059343251307,61,1624181059342764998,2.5748275220394135e-05,0.0002108894681214224,0.0012405064532856613,0.0,0.0,0.0,1.0
1624181059392422475,62,1624181059392121935,1.3721666846322478e-05,0.0001878423621519687,0.001548768156894198,0.0,0.0,0.0,1.0
1624181059445412253,63,1624181059443303013,8.670872762195359e-05,0.00010249061233480461,0.0012705715224399228,0.0,0.0,0.0,1.0
1624181059505156569,64,1624181059504394913,0.00035187364733246795,0.00014987552674483595,0.0012372262938278311,0.0,0.0,0.0,1.0
1624181059559590264,65,1624181059559077883,4.1743180190678686e-05,0.00030636279325335636,0.001215362830464528,0.0,0.0,0.0,1.0
1624181059603251110,66,1624181059602792883,3.257821435909136e-05,0.0002464901511984863,0.0009771191800354018,0.0,0.0,0.0,1.0
1624181059653367125,67,1624181059652571106,1.503131647950795e-05,3.8393923205148894e-05,0.0009713512780393785,0.0,0.0,0.0,1.0
1624181059700175788,68,1624181059699736023,-2.9314385983525426e-05,0.0003613075971315993,0.0013772638364777379,0.0,0.0,0.0,1.0
1624181059745503652,69,1624181059744250918,2.7183555630472256e-05,0.00021458846742916649,0.0012558459668525757,0.0,0.0,0.0,1.0
1624181059794028191,70,1624181059793682957,1.0594055765977828e-05,0.00011751622628253244,0.0012743774157470966,0.0,0.0,0.0,1.0
1624181059843040307,71,1624181059842809105,3.42121079484059e-05,0.00021464773749357846,0.0012610933468586438,0.0,0.0,0.0,1.0
1624181059894946307,72,1624181059894740010,9.008501592688845e-06,0.00016178454859527847,0.0010385245281092637,0.0,0.0,0.0,1.0
1624181059945306725,73,1624181059944850112,-3.6364288007462164e-06,0.00012109132046589366,0.001278052922110362,0.0,0.0,0.0,1.0
1624181059994527000,74,1624181059993938113,2.0203817484798492e-05,0.00021291988161920017,0.001244405530862025,0.0,0.0,0.0,1.0
1624181060046126817,75,1624181060045872117,1.5709658782725455e-06,0.0001199443198629524,0.001277331926743841,0.0,0.0,0.0,1.0
1624181060095305795,76,1624181060095000887,1.9072118448093534e-05,0.00022034302821793972,0.0016783649524541033,0.0,0.0,0.0,1.0
1624181060143490250,77,1624181060143248940,2.3919448040032876e-05,0.00021165623354590934,0.0012421680835856819,0.0,0.0,0.0,1.0
1624181060193711411,78,1624181060193489934,4.3380258830438834e-05,0.0002924668772266159,0.0015687946133446928,0.0,0.0,0.0,1.0
1624181060246551708,79,1624181060245833064,2.485144545971707e-05,0.00021214013440840063,0.0012447061324039055,0.0,0.0,0.0,1.0
1624181060298156939,80,1624181060297708893,-0.00017161260598186345,0.0003013671667986273,0.0014497441644465425,0.0,0.0,0.0,1.0
1624181060345774898,81,1624181060345478917,1.2789832680937252e-05,0.00021334611699330708,0.0012407618439027601,0.0,0.0,0.0,1.0
1624181060394873660,82,1624181060394487048,3.36087161940668e-05,0.00021702167498460767,0.0016758899042450537,0.0,0.0,0.0,1.0
1624181060445140179,83,1624181060444568062,2.4601745053587365e-05,0.00021317095365702698,0.0012485170387854794,0.0,0.0,0.0,1.0
1624181060494309164,84,1624181060494125987,1.447104909857444e-05,0.0002224211094699058,0.0016831221255451112,0.0,0.0,0.0,1.0
1624181060545323769,85,1624181060545103932,3.6444361285248306e-05,0.0002190027587403165,0.0016855812142324567,0.0,0.0,0.0,1.0
1624181060594234911,86,1624181060593037034,-0.00038501875837937405,0.000370552058825524,0.0015651278702186744,0.0,0.0,0.0,1.0
1624181060643276497,87,1624181060642275000,-0.0003937501680866262,0.00023391341119349818,0.0014361489579250986,0.0,0.0,0.0,1.0
1624181060695879373,88,1624181060695523882,-2.4333319288416533e-06,0.0002191689703749944,0.0012524272708276385,0.0,0.0,0.0,1.0
1624181060755813859,89,1624181060755405093,-0.00040018644790507096,0.0002891782710321422,0.0012393871402842649,0.0,0.0,0.0,1.0
1624181060798671105,90,1624181060797823096,3.326100454614789e-05,0.00024404258522281452,0.0013741701578027232,0.0,0.0,0.0,1.0
1624181060850431899,91,1624181060850171948,7.347439350269269e-06,0.00011220900057651306,0.0012515210231676122,0.0,0.0,0.0,1.0
1624181060894027184,92,1624181060893673087,-5.720705144085514e-05,0.00021454972295487096,0.0016014849462102632,0.0,0.0,0.0,1.0
1624181060944021941,93,1624181060943755055,-1.2871922763224575e-05,4.744225043396e-05,0.0009864458764603512,0.0,0.0,0.0,1.0
1624181060994299041,94,1624181060994038010,7.674992048123386e-06,0.00011678839769047045,0.0012694767299166188,0.0,0.0,0.0,1.0
1624181061043819542,95,1624181061043291951,-0.0002700884156183747,0.0002740968895977858,0.0016799447863249384,0.0,0.0,0.0,1.0
1624181061100498972,96,1624181061099856997,-0.0003297216853752616,0.00037775026044073456,0.0016324635591402625,0.0,0.0,0.0,1.0
1624181061150194696,97,1624181061149644995,-0.0003993047828316776,0.0001925544077039376,0.001272126881573854,0.0,0.0,0.0,1.0
1624181061193642936,98,1624181061193087960,-0.00036850688570666534,0.00038414019479660055,0.001223462162560196,0.0,0.0,0.0,1.0
1624181061242885723,99,1624181061242308999,-0.00041423181005484366,0.0001928286847032723,0.0012625315062138043,0.0,0.0,0.0,1.0
1624181061295585164,100,1624181061295052910,3.422909981054545e-05,0.00021679232759197475,0.0016754452618279458,0.0,0.0,0.0,1.0
1624181061344006979,101,1624181061343334103,1.8334347714699106e-05,0.0002520856974115304,0.0013946396072377354,0.0,0.0,0.0,1.0
1624181061395737086,102,1624181061394925023,4.965384164279385e-05,0.00031366816006084264,0.001655322241145285,0.0,0.0,0.0,1.0
1624181061448551002,103,1624181061448116923,4.09954925544298e-05,0.0003097269483305354,0.0016338880914723575,0.0,0.0,0.0,1.0
1624181061494797100,104,1624181061493849898,-6.942844879631593e-05,0.0002155356260118424,0.0015965748578388173,0.0,0.0,0.0,1.0
1624181061550542336,105,1624181061549950028,2.817760673679004e-05,0.0002165341647923924,0.0016701256507580808,0.0,0.0,0.0,1.0
1624181061599667784,106,1624181061598942900,-0.00037095969719302957,0.0003923724592596045,0.0016596097882413119,0.0,0.0,0.0,1.0
1624181061643231829,107,1624181061642634058,-0.00036614802229451016,0.00039221672352596215,0.0016624423457614057,0.0,0.0,0.0,1.0
1624181061692407977,108,1624181061691821003,-0.0003122465000160446,0.0002715233490562241,0.001233846927700455,0.0,0.0,0.0,1.0
1624181061746004105,109,1624181061745547915,9.50490175455343e-09,0.00012097164665192395,0.0012801927937289292,0.0,0.0,0.0,1.0
1624181061793466499,110,1624181061792775059,2.374229597990052e-05,0.00021178979898195394,0.0012425584930397804,0.0,0.0,0.0,1.0
1624181061843896955,111,1624181061843375111,-0.00038853244495840045,0.00024516312180367095,0.0010773730590969421,0.0,0.0,0.0,1.0
1624181061896778924,112,1624181061896247054,-0.0003871154949592892,0.0002892327768222458,0.0012489297737410254,0.0,0.0,0.0,1.0
1624181061944948441,113,1624181061944502020,-0.00030339717909555475,0.00027416536147484294,0.0012503890865218636,0.0,0.0,0.0,1.0
1624181061995950713,114,1624181061995216036,-0.0003406738176181534,0.0004968697486447127,0.001273550434010673,0.0,0.0,0.0,1.0
1624181062049630731,115,1624181062049009944,-0.00010580652133285184,0.00026851207815070666,0.001369578660280979,0.0,0.0,0.0,1.0
1624181062093628403,116,1624181062092926884,2.1264570705170627e-05,0.0001989453573969513,0.001191082754488093,0.0,0.0,0.0,1.0
1624181062143434372,117,1624181062143172884,2.2724564132658998e-05,0.0001683939826762071,0.0010738946496964275,0.0,0.0,0.0,1.0
1624181062195444664,118,1624181062195252085,-3.813720468315296e-06,0.00010937066747374047,0.0008265363265067549,0.0,0.0,0.0,1.0
1624181062243547264,119,1624181062243219042,-1.4503605143545428e-05,5.47875723668767e-05,0.0010137063297044335,0.0,0.0,0.0,1.0
1624181062293951597,120,1624181062293616915,0.00032275688272420666,0.00022291162053988955,0.0014990826691700931,0.0,0.0,0.0,1.0
1624181062344867086,121,1624181062344231034,2.213791049143765e-05,0.000214523156728319,0.001251990901597111,0.0,0.0,0.0,1.0
1624181062394791801,122,1624181062394045020,-0.0001991131498471077,0.00015132109865589882,0.0012554807004185875,0.0,0.0,0.0,1.0
1624181062446081562,123,1624181062445573950,-2.6715109697761363e-05,2.7870049621014914e-05,0.0009008212807195548,0.0,0.0,0.0,1.0
1624181062497521102,124,1624181062496927882,0.0004102688906186813,3.2780358083073224e-05,0.0008257750606475156,0.0,0.0,0.0,1.0
1624181062543557480,125,1624181062543249989,0.00041631016256360454,5.876959085071576e-05,0.0009306623691855975,0.0,0.0,0.0,1.0
1624181062594535334,126,1624181062594303990,0.00028300436747485946,6.725421280862065e-05,0.0012743558799392929,0.0,0.0,0.0,1.0
1624181062644787105,127,1624181062644519949,0.0004201349415779987,3.774574520321039e-05,0.001258066779350031,0.0,0.0,0.0,1.0
1624181062693957614,128,1624181062693620110,0.00022636298422185064,0.00017492770803073654,0.0012445666233702468,0.0,0.0,0.0,1.0
1624181062751395644,129,1624181062750354910,1.2825694057028159e-05,0.00021188773007452255,0.0012351436209456779,0.0,0.0,0.0,1.0
1624181062794595377,130,1624181062794005061,1.6523281828995096e-05,0.0001733092142330861,0.0010884886620416978,0.0,0.0,0.0,1.0
1624181062843917516,131,1624181062843432093,-0.00042170368328697805,0.00012202206801248394,0.0009831835724831706,0.0,0.0,0.0,1.0
1624181062895478892,132,1624181062894862080,-1.2009497595499852e-05,0.00011616155461524613,0.000846964715098153,0.0,0.0,0.0,1.0
1624181062945852694,133,1624181062945348883,4.97335990985448e-05,0.00020987147468076728,0.0012536911452443178,0.0,0.0,0.0,1.0
1624181062996266143,134,1624181062995500947,-0.0003836783412225486,0.00028350882780614484,0.0012292324625597928,0.0,0.0,0.0,1.0
1624181063049335391,135,1624181063048921013,-0.0004257807051999407,9.17158700985965e-05,0.0008629925094965074,0.0,0.0,0.0,1.0
1624181063093336040,136,1624181063092749024,-0.0006729354572598822,0.00037008416973094427,0.001357765515468401,0.0,0.0,0.0,1.0
1624181063141136448,137,1624181063140811110,-0.0002562091331128613,0.00030608350323291234,0.0010015633462323592,0.0,0.0,0.0,1.0
1624181063220472045,138,1624181063220135117,-0.00038828214337627287,0.0002862180836018524,0.0012364302680758499,0.0,0.0,0.0,1.0
1624181063257752844,139,1624181063257292891,-5.105524496684666e-05,0.00022275204150901118,0.001231580147315725,0.0,0.0,0.0,1.0
1624181063304495999,140,1624181063304233933,0.0003294250393537368,6.692858096357668e-05,0.0017122788522563326,0.0,0.0,0.0,1.0
1624181063344231215,141,1624181063343950892,5.9056779491584166e-05,0.0004053673013686421,0.0016108661668958746,0.0,0.0,0.0,1.0
1624181063394583331,142,1624181063393364096,-1.5748928490211256e-05,7.493425209759152e-05,0.0014968189038775392,0.0,0.0,0.0,1.0
1624181063453692208,143,1624181063453106070,-0.00035524063650882454,0.00019383210928936023,0.0013085301472273159,0.0,0.0,0.0,1.0
1624181063502202797,144,1624181063501593972,0.00015414099220834032,0.0002528291107637415,0.0014944764269380073,0.0,0.0,0.0,1.0
1624181063545287380,145,1624181063544093991,3.9537678503620555e-05,0.0003104688805706246,0.0016357185384343609,0.0,0.0,0.0,1.0
1624181063594781099,146,1624181063594427014,3.830236619251082e-05,0.00022277691005001543,0.0012954728016119077,0.0,0.0,0.0,1.0
1624181063644914379,147,1624181063644666100,1.8412148165225517e-05,0.0002163424042009865,0.001662411398442032,0.0,0.0,0.0,1.0
1624181063693157486,148,1624181063692788983,3.9684543253315496e-05,0.0003128191104906364,0.0016449187501450524,0.0,0.0,0.0,1.0
1624181063751160701,149,1624181063750914956,-3.394657824173919e-05,0.000307801078747616,0.001572929636484588,0.0,0.0,0.0,1.0
1624181063798833786,150,1624181063798439885,4.962032721778087e-05,0.00041144014255678485,0.0016276307369338383,0.0,0.0,0.0,1.0
1624181063844927103,151,1624181063844395066,-2.775266466414905e-06,0.00013119873949563043,0.001317782614226104,0.0,0.0,0.0,1.0
1624181063898798188,152,1624181063898120070,5.643439862978994e-05,0.00030653317901396804,0.0012265109461324641,0.0,0.0,0.0,1.0
1624181063942367265,153,1624181063941954041,2.5778319240998826e-05,0.0002931049335757052,0.0015586968511591692,0.0,0.0,0.0,1.0
1624181063994107638,154,1624181063993760968,-0.000402564064188482,0.00021793794951463497,0.0009619976835040234,0.0,0.0,0.0,1.0
1624181064049749419,155,1624181064049375916,3.4599878745211754e-05,0.00020779412670890451,0.0012348473264793824,0.0,0.0,0.0,1.0
1624181064093314731,156,1624181064093065882,3.297678131275461e-05,0.00021213061427260982,0.0012504703416169605,0.0,0.0,0.0,1.0
1624181064142647180,157,1624181064142275000,-1.2020379017485538e-05,4.811536302895547e-05,0.0009896586739834845,0.0,0.0,0.0,1.0
1624181064199033046,158,1624181064197827006,-1.3544105740947998e-05,0.0001401055463929879,0.0013445628889314776,0.0,0.0,0.0,1.0
1624181064244246477,159,1624181064243755961,-2.7685632630891632e-06,9.00551362974511e-05,0.0011585655531263228,0.0,0.0,0.0,1.0
1624181064295259026,160,1624181064294278050,2.3409259711115737e-05,0.0002148743583347823,0.0008482246692231854,0.0,0.0,0.0,1.0
1624181064346581344,161,1624181064346106911,-0.000420349415662713,0.00019176595264980278,0.0012540513086349847,0.0,0.0,0.0,1.0
1624181064395307868,162,1624181064394491101,3.4235086786793545e-05,0.00021249836231618247,0.0012527918568885354,0.0,0.0,0.0,1.0
1624181064446536315,163,1624181064446065093,-0.00020608352338058467,0.00028963133263459895,0.0009736815519403308,0.0,0.0,0.0,1.0
1624181064496185322,164,1624181064495272065,0.00018801444343807816,0.00024906718033435027,0.001098064556529721,0.0,0.0,0.0,1.0
1624181064544240456,165,1624181064543981934,3.7568237303275964e-05,0.00030894022290794965,0.0016283965569705572,0.0,0.0,0.0,1.0
1624181064596569870,166,1624181064596263075,0.0004241507074311812,0.00025693439886254055,0.001703142482242015,0.0,0.0,0.0,1.0
1624181064644610713,167,1624181064644261981,1.8566607195680263e-05,0.00027444240674867615,0.0014813247243417038,0.0,0.0,0.0,1.0
1624181064693643897,168,1624181064693390036,0.00047952147474461526,0.00023456833162072144,0.0016561196272242285,0.0,0.0,0.0,1.0
1624181064748156478,169,1624181064747923995,5.1297607797096134e-05,0.0003126636987644815,0.0016526085714616556,0.0,0.0,0.0,1.0
1624181064793996680,170,1624181064793767119,3.647633479886281e-05,0.00033124316769317375,0.001713929191385688,0.0,0.0,0.0,1.0
1624181064844806001,171,1624181064844401980,4.025467228530033e-05,0.0003152067971541328,0.0016545661166880166,0.0,0.0,0.0,1.0
1624181064895859825,172,1624181064895521069,0.00022587641637983324,0.00021839840428583557,0.001412447578211129,0.0,0.0,0.0,1.0
1624181064943696361,173,1624181064943482066,2.1259917957650032e-05,0.00021614332206354447,0.0016636741448223802,0.0,0.0,0.0,1.0
1624181064992924538,174,1624181064992678071,1.8799185227180715e-05,0.0002644093617618637,0.0014426633697190994,0.0,0.0,0.0,1.0
1624181065046927328,175,1624181065046287919,5.075229091744404e-05,0.00010625886579873622,0.0012594832813128676,0.0,0.0,0.0,1.0
1624181065097987192,176,1624181065096641922,-0.00013009309236622357,0.0002389078437090575,0.001237673357618263,0.0,0.0,0.0,1.0
1624181065144400299,177,1624181065143654013,-1.8071227714244742e-07,0.0003077526522474727,0.0015968495349234502,0.0,0.0,0.0,1.0
1624181065195952334,178,1624181065195530081,-0.00021883584327042627,0.0003621774313842252,0.0016513632849672888,0.0,0.0,0.0,1.0
1624181065244488502,179,1624181065243894959,-0.00017629968488108716,0.0002580267168923456,0.0016847137044919691,0.0,0.0,0.0,1.0
1624181065325273992,180,1624181065324767972,5.991352736600675e-05,0.00041784111454035155,0.0020657994984674133,0.0,0.0,0.0,1.0
1624181065368145083,181,1624181065367499972,0.0004925296784676902,0.0003151627080342223,0.0019773087723606864,0.0,0.0,0.0,1.0
1624181065409792325,182,1624181065409551049,1.2895211511931848e-05,0.00025654726630364166,0.0014080223407049175,0.0,0.0,0.0,1.0
1624181065460918872,183,1624181065460604096,4.947735237692541e-05,0.0003044348339926728,0.0012134235808929361,0.0,0.0,0.0,1.0
1624181065503312125,184,1624181065503080035,-0.0002461909609792201,0.00033846911480850395,0.0015400825206057789,0.0,0.0,0.0,1.0
1624181065560667259,185,1624181065559802914,-5.5460880048485706e-06,0.00010995024319981894,0.0008275423966388473,0.0,0.0,0.0,1.0
1624181065604229308,186,1624181065603831912,5.7409770306549035e-05,0.00031168162138328626,0.0016531717859926687,0.0,0.0,0.0,1.0
1624181065652825982,187,1624181065652249957,1.4429291240958264e-05,0.00021171098660488497,0.0016416442940148102,0.0,0.0,0.0,1.0
1624181065698742163,188,1624181065698150063,9.547638683216064e-06,0.00011752938644349342,0.0012736812592102353,0.0,0.0,0.0,1.0
1624181065743829836,189,1624181065743246937,-0.00039561221706208016,0.0002883261423676231,0.0012393551395248892,0.0,0.0,0.0,1.0
1624181065796078020,190,1624181065795628930,-0.0002263950905216916,0.00020504610574789695,0.0010378788983018694,0.0,0.0,0.0,1.0
1624181065844568025,191,1624181065844051028,1.1925399348911014e-05,0.00021589656034848304,0.001250014675541422,0.0,0.0,0.0,1.0
1624181065897417784,192,1624181065897003079,2.2560371235158527e-05,0.00014440662994275044,0.001386984526234869,0.0,0.0,0.0,1.0
1624181065943701597,193,1624181065943231011,2.317769781257084e-05,0.0002434965153952362,0.0013648579265961303,0.0,0.0,0.0,1.0
1624181065994176705,194,1624181065993451024,7.452729869328323e-05,0.0003944128227431065,0.0015795178531199383,0.0,0.0,0.0,1.0
1624181066046595556,195,1624181066046157027,1.58338127675961e-05,0.0002822904696131445,0.0015097453141166284,0.0,0.0,0.0,1.0
1624181066096257530,196,1624181066095992947,4.43332246504724e-05,0.00030646876643913856,0.0012176220882196276,0.0,0.0,0.0,1.0
1624181066143992317,197,1624181066142783070,2.1518684889088036e-05,0.00018983445499998197,0.0015620442112691535,0.0,0.0,0.0,1.0
1624181066195536383,198,1624181066195172930,2.192041756643448e-05,0.00020811781030261045,0.001227047508290724,0.0,0.0,0.0,1.0
1624181066252492920,199,1624181066252225066,0.00020021742261633335,0.0002820467160518092,0.0016404445872311157,0.0,0.0,0.0,1.0
1624181066299123806,200,1624181066298710013,3.728137198777404e-05,0.000274723718007408,0.0014957748659156778,0.0,0.0,0.0,1.0
1624181066353113363,201,1624181066352416897,3.77355665932555e-05,0.00018498111774079007,0.0015548401072322804,0.0,0.0,0.0,1.0
1624181066400840219,202,1624181066400242949,3.665818690024025e-05,0.0003123611808177884,0.001640985873287093,0.0,0.0,0.0,1.0
1624181066451015857,203,1624181066450343037,-9.797510324460745e-05,0.0002389915546245902,0.0016669678593039805,0.0,0.0,0.0,1.0
1624181066501167386,204,1624181066500730896,-0.00036603976968763163,0.00019880122658832988,0.001320050417572105,0.0,0.0,0.0,1.0
1624181066552970176,205,1624181066552358056,-0.0002229500944395113,0.00026472120794096554,0.0016773152739624209,0.0,0.0,0.0,1.0
1624181066594383837,206,1624181066593671942,-0.0003280310136233311,0.00036790264744013257,0.0015955604963195924,0.0,0.0,0.0,1.0
1624181066645636182,207,1624181066645079041,-0.0004101656315924629,0.0001303102105794096,0.001023494778749523,0.0,0.0,0.0,1.0
1624181066702011927,208,1624181066701399947,3.4386424886179157e-05,0.00030585118850012805,0.0012081306456117602,0.0,0.0,0.0,1.0
1624181066753525683,209,1624181066752994919,-0.0004243404107455717,0.00012379222800973366,0.0009881514418168535,0.0,0.0,0.0,1.0
1624181066796831391,210,1624181066796423102,-0.00024980032139865216,0.0002877573416526502,0.000935218961810591,0.0,0.0,0.0,1.0
1624181066844639549,211,1624181066844340945,-0.0003148674895783188,0.00029280348053362104,0.001314328116606589,0.0,0.0,0.0,1.0
1624181066900155500,212,1624181066899825955,0.0003531133436354139,0.00015705707676261227,0.0016719436755785466,0.0,0.0,0.0,1.0
1624181066952745792,213,1624181066952392006,4.010268003185047e-05,0.00031502688682394364,0.0016537613496225845,0.0,0.0,0.0,1.0
1624181066994621423,214,1624181066994091893,-1.1914122751477407e-05,0.00022838480811060435,0.0016873636448977436,0.0,0.0,0.0,1.0
1624181067044610214,215,1624181067043876076,0.0002017341921600746,0.00018168347321534384,0.001659167089510305,0.0,0.0,0.0,1.0
1624181067095285839,216,1624181067095079089,4.671099532060907e-06,0.00021678999928553822,0.0012482930333739262,0.0,0.0,0.0,1.0
1624181067142987704,217,1624181067142688895,-0.0004130905092551984,0.00019615095936842408,0.0012762032302617854,0.0,0.0,0.0,1.0
1624181067216139196,218,1624181067215721989,1.4521948514811811e-05,0.0001878428546433497,0.0015493414278928697,0.0,0.0,0.0,1.0
1624181067262889718,219,1624181067262446070,2.1975804656904074e-05,0.00024410854882717103,0.0013663683640068314,0.0,0.0,0.0,1.0
1624181067306630534,220,1624181067306116963,9.197920462611364e-06,0.00010966853858462855,0.0016490502674173513,0.0,0.0,0.0,1.0
1624181067355126734,221,1624181067354463959,2.557673496994539e-05,0.00026711449061167514,0.0014579709306019595,0.0,0.0,0.0,1.0
1624181067398774791,222,1624181067398151064,5.901835038457648e-06,0.00011177591852629121,0.0012488129537118198,0.0,0.0,0.0,1.0
1624181067459356650,223,1624181067458680058,2.8718361363644362e-05,0.00031691630226760026,0.0016529454221654305,0.0,0.0,0.0,1.0
1624181067498777371,224,1624181067498478079,0.0003271571724781097,0.00018216173941709712,0.001344524645869427,0.0,0.0,0.0,1.0
1624181067543302276,225,1624181067543039942,0.00043362793940104893,0.00013549347329444572,0.0012399385795305307,0.0,0.0,0.0,1.0
1624181067594476997,226,1624181067594139958,3.331546713525313e-05,0.0002919813439348218,0.0019657755896034246,0.0,0.0,0.0,1.0
1624181067643690220,227,1624181067643366004,1.7141221405836404e-05,0.00021382790419011144,0.001245732970723168,0.0,0.0,0.0,1.0
1624181067695061205,228,1624181067694826031,0.00034747744211927056,6.83661326092988e-05,0.0009186562880785232,0.0,0.0,0.0,1.0
1624181067744623860,229,1624181067743389988,2.821199791469553e-05,0.00020821323391828628,0.0012319086328638207,0.0,0.0,0.0,1.0
1624181067813602216,230,1624181067813059950,1.6728388573028496e-05,0.00020981746274628676,0.0012299181841513018,0.0,0.0,0.0,1.0
1624181067856082033,231,1624181067855558062,-2.6978641017194605e-05,0.00012063478891377599,0.0012596211365334398,0.0,0.0,0.0,1.0
1624181067900929811,232,1624181067900107050,2.4386290533584543e-05,0.00021175548101837194,0.0012428854624104702,0.0,0.0,0.0,1.0
1624181067952140188,233,1624181067951646948,-0.00038728211393390666,0.00028663062744271883,0.001238740724478049,0.0,0.0,0.0,1.0
1624181067993825418,234,1624181067993213082,-0.00011748188239835144,0.00016000267385152256,0.000941323153888618,0.0,0.0,0.0,1.0
1624181068052390736,235,1624181068051510001,-0.00010159475004911656,0.00023500819077071355,0.001242928129329357,0.0,0.0,0.0,1.0
1624181068101857827,236,1624181068100685025,-6.903696112203761e-05,0.0004295989041338544,0.0016131887732946382,0.0,0.0,0.0,1.0
1624181068150896453,237,1624181068150325919,9.232026286554174e-06,0.00011909340901183896,0.0012795085594561328,0.0,0.0,0.0,1.0
1624181068197988208,238,1624181068197529936,1.2993874406674877e-05,0.00011373261065728002,0.0012614485016193555,0.0,0.0,0.0,1.0
1624181068245032410,239,1624181068244603062,1.7913220517584705e-05,0.00021278769008858944,0.0012422586000191416,0.0,0.0,0.0,1.0
1624181068325186399,240,1624181068324693108,1.2127358104407904e-05,0.00021301554102137743,0.0012390095740322238,0.0,0.0,0.0,1.0
1624181068406060773,241,1624181068405608082,2.3341029191215057e-05,0.00021144826598629152,0.0012409503082935203,0.0,0.0,0.0,1.0
1624181068452923016,242,1624181068452684069,-0.00038433490499301115,0.00028531559598832246,0.0012357557580244816,0.0,0.0,0.0,1.0
1624181068499836164,243,1624181068499339963,-0.00016351707017747685,0.0001460912145603288,0.0012606548666695971,0.0,0.0,0.0,1.0
1624181068545624060,244,1624181068545040989,3.583974580578797e-05,0.00021146980577668728,0.0012499570740480692,0.0,0.0,0.0,1.0
1624181068593511786,245,1624181068593205119,-8.742276850171038e-05,0.00011169846914071968,0.0011818848966314022,0.0,0.0,0.0,1.0
1624181068643269686,246,1624181068642686034,1.951001308952982e-05,0.00027684074609624076,0.001085242306956502,0.0,0.0,0.0,1.0
1624181068699002448,247,1624181068696885968,0.0004191961443211767,0.0002316204848966663,0.001601640573714036,0.0,0.0,0.0,1.0
1624181068752536204,248,1624181068751855994,-0.00011833513644887717,0.0001920614661230502,0.0010647772380139031,0.0,0.0,0.0,1.0
1624181068795896036,249,1624181068795400048,-3.042469143110793e-05,2.109502861458168e-05,0.00046592919580135117,0.0,0.0,0.0,1.0
1624181068844287989,250,1624181068843620921,0.000249630869120665,7.117615768947871e-05,0.0012657061849736806,0.0,0.0,0.0,1.0
1624181068894956594,251,1624181068894297982,2.6571800390229328e-05,0.00021003734786972927,0.0012377967765857534,0.0,0.0,0.0,1.0
1624181068945505627,252,1624181068944975997,0.0001551919117446232,5.0255186806680285e-05,0.0011173193329092612,0.0,0.0,0.0,1.0
1624181068997912691,253,1624181068997490073,2.5576204507160583e-05,0.0002099357367342236,0.0012366927496891833,0.0,0.0,0.0,1.0
1624181069045118266,254,1624181069044356013,5.3121896144148195e-06,0.00012874802303031174,0.0009080388721969257,0.0,0.0,0.0,1.0
1624181069095185706,255,1624181069094525004,-1.3287127785588382e-05,0.00020265193120394542,0.001180758885972466,0.0,0.0,0.0,1.0
1624181069145430051,256,1624181069144834900,-0.00022589224226976512,2.4401995233347407e-06,0.0006602150770973481,0.0,0.0,0.0,1.0
1624181069194813868,257,1624181069194070960,-1.0459864370204741e-06,0.00011139601292597945,0.0008363500462422735,0.0,0.0,0.0,1.0
1624181069246458322,258,1624181069245793963,-5.426820735010551e-06,1.2352001022009063e-05,0.000855967345788855,0.0,0.0,0.0,1.0
1624181069296434372,259,1624181069295994902,-3.362488314451184e-07,1.5177338696048537e-05,0.0008705352571602987,0.0,0.0,0.0,1.0
1624181069343725300,260,1624181069342975045,-0.0003546796260707197,7.205055567283125e-05,0.00043162621023640213,0.0,0.0,0.0,1.0
1624181069396264978,261,1624181069395840073,-1.8395234747003997e-05,1.0768689548967814e-05,0.0004345567689014729,0.0,0.0,0.0,1.0
1624181069445825744,262,1624181069445231104,2.7203362606087467e-05,0.0002072808257480574,0.0008215476586208581,0.0,0.0,0.0,1.0
1624181069496320990,263,1624181069495738888,7.668277930861223e-06,0.00016179109093172883,0.0014436290994837009,0.0,0.0,0.0,1.0
1624181069549241708,264,1624181069548334981,-3.0101519087111228e-05,0.00013340905945824488,0.0013068269032849855,0.0,0.0,0.0,1.0
1624181069597913109,265,1624181069597058917,0.0003112655265340436,0.00015945623988500301,0.0012453102088194612,0.0,0.0,0.0,1.0
1624181069644513174,266,1624181069643896962,9.488387513556518e-05,9.429450972220366e-05,0.0008386576079999486,0.0,0.0,0.0,1.0
1624181069695282165,267,1624181069694616938,0.0004196527922886162,6.572138954652473e-05,0.0009599512791247378,0.0,0.0,0.0,1.0
1624181069743298271,268,1624181069742853070,0.00032257933753498946,4.648028050269204e-05,0.0012222176347229663,0.0,0.0,0.0,1.0
1624181069795325558,269,1624181069794599915,1.0481875278856023e-05,0.00010793269393616356,0.0008311776811318339,0.0,0.0,0.0,1.0
1624181069845415413,270,1624181069844957972,3.453790668572765e-06,0.00011620828070135758,0.001264218020825325,0.0,0.0,0.0,1.0
1624181069895126864,271,1624181069894374991,0.00034126724244742945,0.0002583253909733685,0.0016493487792850203,0.0,0.0,0.0,1.0
1624181069944330087,272,1624181069943849946,0.0004521147063769604,0.00020613485844478419,0.0015265150459491394,0.0,0.0,0.0,1.0
1624181069996179099,273,1624181069995261097,4.1437868276261725e-05,0.0003284406878947266,0.0013005845012337147,0.0,0.0,0.0,1.0
1624181070045526917,274,1624181070045028115,-0.00017698537180876883,0.0001496381802326141,0.0012647657849740312,0.0,0.0,0.0,1.0
1624181070095233628,275,1624181070094123984,2.468157867951959e-05,0.0002196925873931832,0.001273812199009683,0.0,0.0,0.0,1.0
1624181070147756425,276,1624181070147469903,3.077216479141498e-05,0.0002098892376807271,0.0012402224358751823,0.0,0.0,0.0,1.0
1624181070194044388,277,1624181070193756962,1.307344064116478e-07,0.0001862267262140449,0.0011267746478935692,0.0,0.0,0.0,1.0
1624181070243870544,278,1624181070243305111,-0.0002775059729174245,0.00016966844350463361,0.0012705159838688473,0.0,0.0,0.0,1.0
1624181070297187639,279,1624181070296478892,-7.073535084600735e-05,0.0001302709775927724,0.0012656725267632396,0.0,0.0,0.0,1.0
1624181070343718742,280,1624181070343082095,-0.00010191202909481945,0.00023528423457719327,0.0012437698761509353,0.0,0.0,0.0,1.0
1624181070396604427,281,1624181070395759964,7.622533303219825e-06,0.00012072987158262549,0.0008786593020815303,0.0,0.0,0.0,1.0
1624181070444868006,282,1624181070444150115,-0.00016595244619566074,0.00034206935788461124,0.0012052616737605604,0.0,0.0,0.0,1.0
1624181070494137047,283,1624181070493555928,-0.00037370690802163153,0.0003754115361971344,0.0011859705922461217,0.0,0.0,0.0,1.0
1624181070546652195,284,1624181070546214009,0.00011742207630049961,2.03751867502433e-05,0.0009747221226525937,0.0,0.0,0.0,1.0
1624181070595520156,285,1624181070595081950,0.0004750908440200874,0.00029751199838301545,0.001490503735954718,0.0,0.0,0.0,1.0
1624181070645443339,286,1624181070645219946,4.3351303474992164e-05,0.0003130171311340746,0.0016483030064229354,0.0,0.0,0.0,1.0
1624181070697297314,287,1624181070696873093,5.732593945140252e-05,0.00031002541970792663,0.0016467024549520204,0.0,0.0,0.0,1.0
1624181070743287567,288,1624181070743031884,-0.0003929138194962434,0.00021748516439856758,0.0013731697233012596,0.0,0.0,0.0,1.0
1624181070795278494,289,1624181070794762040,-6.006661533319857e-05,0.00023020556818664772,0.001253991038904445,0.0,0.0,0.0,1.0
1624181070845276767,290,1624181070844814921,5.2831276207143674e-05,0.0003075236116956148,0.001633811483369385,0.0,0.0,0.0,1.0
1624181070893420411,291,1624181070892983103,0.0002814833019328944,0.00022506942809741304,0.001477965335340059,0.0,0.0,0.0,1.0
1624181070943242405,292,1624181070942655945,5.260837588139111e-05,0.00020760967117894324,0.0012469906039385137,0.0,0.0,0.0,1.0
1624181070994906962,293,1624181070994698906,2.6656555746740196e-05,0.00016624951456378767,0.001474439689033602,0.0,0.0,0.0,1.0
1624181071043143625,294,1624181071042786980,2.394039256614633e-05,0.00020922455337313295,0.0012327726538998718,0.0,0.0,0.0,1.0
1624181071093442341,295,1624181071093077088,-0.00010452343531142105,0.00023275961700619519,0.0012321354445923305,0.0,0.0,0.0,1.0
1624181071148684126,296,1624181071148267890,-0.00023432023408531677,0.0003573303505390868,0.001215510250418106,0.0,0.0,0.0,1.0
1624181071195468993,297,1624181071195217991,1.282688208448235e-05,0.00014808782918862562,0.0009882461248302832,0.0,0.0,0.0,1.0
1624181071244409001,298,1624181071244173909,-0.000422791504433917,0.00018958892383125203,0.0012438829317140687,0.0,0.0,0.0,1.0
1624181071295949449,299,1624181071295756960,-0.00016322116334777093,0.00020373492964154138,0.0014839433840059257,0.0,0.0,0.0,1.0
1624181071342949920,300,1624181071342576886,5.203137015996617e-05,0.00030975596814641904,0.0016418795689929766,0.0,0.0,0.0,1.0
1624181071395438976,301,1624181071395122910,-0.00010771880374704779,0.00023760438421049912,0.001248602964071921,0.0,0.0,0.0,1.0
1624181071446474529,302,1624181071445679093,5.959843406344589e-05,0.00027870526776041515,0.001527116700383857,0.0,0.0,0.0,1.0
1624181071495667010,303,1624181071495001936,-1.541266851745604e-05,0.00011426234641476185,0.0012432178259693671,0.0,0.0,0.0,1.0
1624181071544893700,304,1624181071544645930,4.825769224225951e-05,0.00033495938453143026,0.001330680401803619,0.0,0.0,0.0,1.0
1624181071594659480,305,1624181071594401980,2.3058481247062446e-05,0.00020898293689697311,0.0012312079840306467,0.0,0.0,0.0,1.0
1624181071643847040,306,1624181071643513108,3.650005282906932e-06,0.00011379458430837985,0.0012550173214798122,0.0,0.0,0.0,1.0
1624181071697299163,307,1624181071696937943,1.3297803207024117e-05,0.00011595116109219816,0.0016762910422443156,0.0,0.0,0.0,1.0
1624181071748888563,308,1624181071748534108,1.601884605406667e-05,0.0002088617995923414,0.0012257132815420846,0.0,0.0,0.0,1.0
1624181071795405246,309,1624181071794757033,3.564881058082392e-05,0.00021058093045667192,0.0012463808878884208,0.0,0.0,0.0,1.0
1624181071844874916,310,1624181071844425107,-0.00021606637847071397,0.000256439173540457,0.0012441385881025724,0.0,0.0,0.0,1.0
1624181071933392997,311,1624181071932891989,2.3180548851087224e-05,0.00026099092826825654,0.0014325622939423965,0.0,0.0,0.0,1.0
1624181071978439208,312,1624181071977877045,5.4594829634879716e-06,0.00011274625092028145,0.0012522522354103671,0.0,0.0,0.0,1.0
1624181072021079303,313,1624181072020563031,-0.00013569350244324596,0.0002426731360856138,0.0012482463594629678,0.0,0.0,0.0,1.0
1624181072078001858,314,1624181072077654982,-8.432157937932061e-05,0.00023572764337131957,0.0016640845563706819,0.0,0.0,0.0,1.0
1624181072154053442,315,1624181072153818989,4.497015652304981e-05,0.0002837123494145999,0.001536049979161902,0.0,0.0,0.0,1.0
1624181072204484990,316,1624181072204078103,1.2082920193279278e-05,0.00011461400288226287,0.0012642090380659,0.0,0.0,0.0,1.0
1624181072251897027,317,1624181072251417065,2.7587477461565868e-05,0.0001645338310254374,0.0014684647157139352,0.0,0.0,0.0,1.0
1624181072301486421,318,1624181072301063920,0.00047105850831030693,0.0003322271346632988,0.0016219713141509828,0.0,0.0,0.0,1.0
1624181072343562129,319,1624181072342945004,0.0004237591390392481,3.778427401357476e-05,0.0012608034300356508,0.0,0.0,0.0,1.0
1624181072394930286,320,1624181072394398118,0.0004666593220008508,0.00022906977244474547,0.002031704020193814,0.0,0.0,0.0,1.0
1624181072444831358,321,1624181072444378996,0.0003500836905914184,0.00015633400460046687,0.0016669823024066943,0.0,0.0,0.0,1.0
1624181072494398799,322,1624181072493859911,0.0001877854422218661,0.00014508677156754857,0.001507580078797588,0.0,0.0,0.0,1.0
1624181072546063177,323,1624181072545548106,1.480016544519458e-05,0.00011349760154644173,0.0012618286317760408,0.0,0.0,0.0,1.0
1624181072595704898,324,1624181072595395947,1.1890938594660838e-05,0.00015725783418929495,0.001429100430076602,0.0,0.0,0.0,1.0
1624181072659884804,325,1624181072659634018,0.00042655078345887887,3.74825398239409e-05,0.0012616288826201583,0.0,0.0,0.0,1.0
1624181072700392433,326,1624181072700070048,0.0004695711406839109,0.0003027421082606452,0.0015068031247693625,0.0,0.0,0.0,1.0
1624181072746552085,327,1624181072746093894,9.918454634316731e-05,0.00019925351580241113,0.0016539460002817918,0.0,0.0,0.0,1.0
1624181072795505320,328,1624181072794931078,9.822173410611867e-05,0.00010267471179759013,0.0016855438124636635,0.0,0.0,0.0,1.0
1624181072849476070,329,1624181072849161053,8.003357311281434e-05,0.00020619440283553558,0.0016671340507237176,0.0,0.0,0.0,1.0
1624181072895799954,330,1624181072895522976,2.266918318127864e-05,0.0002166025307133168,0.0016664574335436555,0.0,0.0,0.0,1.0
1624181072986699974,331,1624181072986281062,2.651203340064967e-05,0.0003132414163928843,0.0016371484346997534,0.0,0.0,0.0,1.0
1624181073032580806,332,1624181073031542922,5.1135716603312176e-06,0.00011356065988366026,0.001255156961118331,0.0,0.0,0.0,1.0
1624181073076468284,333,1624181073076032067,4.414971181176952e-05,0.00031096947498099325,0.0016409486360018377,0.0,0.0,0.0,1.0
1624181073123762459,334,1624181073122970009,4.387925901028211e-05,0.0002809367587133238,0.0015245296876145176,0.0,0.0,0.0,1.0
1624181073169151339,335,1624181073168623114,5.0903956889669644e-05,0.0002861522694956875,0.0015497288660064612,0.0,0.0,0.0,1.0
1624181073210398505,336,1624181073209958935,3.7653278468496865e-05,0.0002713273763674806,0.0014828966936661914,0.0,0.0,0.0,1.0
1624181073258692241,337,1624181073258143092,2.4617688950456795e-05,0.00021974428420890035,0.0016800071344889034,0.0,0.0,0.0,1.0
1624181073304263992,338,1624181073303817893,-0.0001164463353688916,0.00033745277005436947,0.0016287801319130324,0.0,0.0,0.0,1.0
1624181073353540303,339,1624181073353000069,1.3742820783591014e-05,0.00021005224027703662,0.0012286952209485946,0.0,0.0,0.0,1.0
1624181073396542624,340,1624181073395851040,-0.000426061249754639,9.961757291421236e-05,0.0012994035065077014,0.0,0.0,0.0,1.0
1624181073445826739,341,1624181073445027018,2.8065725018677767e-05,0.00021077718804463075,0.001241726472738236,0.0,0.0,0.0,1.0
1624181073495978094,342,1624181073495448018,6.357236316034687e-05,0.00038708683439381275,0.0015433450928377113,0.0,0.0,0.0,1.0
1624181073544574774,343,1624181073543764973,6.818020210630493e-07,0.00014772477061342215,0.0013842053089625495,0.0,0.0,0.0,1.0
1624181073596261775,344,1624181073595400954,3.771041929212515e-05,0.00021425400836960762,0.0016681075234359355,0.0,0.0,0.0,1.0
1624181073644735614,345,1624181073643805886,4.469612167667947e-05,0.00030953016937473876,0.0016357686590424692,0.0,0.0,0.0,1.0
1624181073694992972,346,1624181073694363022,5.90497552366287e-06,0.00021810593591453653,0.0012542665128840724,0.0,0.0,0.0,1.0
1624181073746780196,347,1624181073746168042,5.972432836642838e-05,0.00040981018037200556,0.0016285366520421007,0.0,0.0,0.0,1.0
1624181073794547418,348,1624181073794113064,4.214798127577524e-05,0.0003116394569815384,0.0016421123021608253,0.0,0.0,0.0,1.0
1624181073843853731,349,1624181073843315030,0.0001549121145671961,0.00029151658736736863,0.001644746408299369,0.0,0.0,0.0,1.0
1624181073902992343,350,1624181073902005101,8.319902440234728e-05,0.0004009557817425957,0.0016110302476164406,0.0,0.0,0.0,1.0
1624181073943978638,351,1624181073943381930,0.0004476339727261802,0.0001393306175714315,0.0016708281141610826,0.0,0.0,0.0,1.0
1624181073995922280,352,1624181073994980002,4.2480049614823656e-05,0.00041314133318337554,0.0020351640093068113,0.0,0.0,0.0,1.0
1624181074045959710,353,1624181074045709992,2.68355406660703e-05,0.00017454716794418346,0.0015066790025670684,0.0,0.0,0.0,1.0
1624181074093985817,354,1624181074093648100,3.445741367613664e-05,0.00021687563730665715,0.0016759306762708093,0.0,0.0,0.0,1.0
1624181074145372186,355,1624181074145054007,4.781691745847638e-05,0.0003142296123996857,0.001250143061977127,0.0,0.0,0.0,1.0
1624181074193766442,356,1624181074193374062,2.510505555619602e-05,0.00015604651434841799,0.001433846932723526,0.0,0.0,0.0,1.0
1624181074244723433,357,1624181074243682051,9.881372989184456e-06,0.00011747013809326745,0.0012736902418168938,0.0,0.0,0.0,1.0
1624181074295891973,358,1624181074295442009,-5.159797410669853e-06,0.00011438387605267053,0.0012510081129697426,0.0,0.0,0.0,1.0
1624181074346508441,359,1624181074345904971,2.429116216262628e-05,0.0001872468985766318,0.0015540098836019922,0.0,0.0,0.0,1.0
1624181074394804318,360,1624181074394268895,1.0621790124787367e-05,0.0001295302603239179,0.0009148567164167787,0.0,0.0,0.0,1.0
1624181074446637882,361,1624181074446062947,2.492022281330719e-05,0.00031104380138913257,0.0012214672433970009,0.0,0.0,0.0,1.0
1624181074498210748,362,1624181074497559929,2.3993734885152662e-05,0.00021168575267438428,0.0012423353568102868,0.0,0.0,0.0,1.0
1624181074544276221,363,1624181074543738986,0.0003906919102973916,0.0002349314453340412,0.0015941026037467054,0.0,0.0,0.0,1.0
1624181074595782094,364,1624181074595152998,5.474071986100171e-05,0.00030243772471294506,0.0012094527088208906,0.0,0.0,0.0,1.0
1624181074646131984,365,1624181074645430947,2.99620226087427e-05,0.00030734053768810554,0.0012107355121493413,0.0,0.0,0.0,1.0
1624181074694486602,366,1624181074693869973,1.8888849581344402e-05,0.00021059475773199665,0.001234468695390234,0.0,0.0,0.0,1.0
1624181074746241946,367,1624181074745655919,7.61934506954276e-06,9.293204459481785e-05,0.0011771152438306842,0.0,0.0,0.0,1.0
1624181074813621669,368,1624181074813126946,2.672295590855356e-05,0.00021019965163304732,0.0012385327946518032,0.0,0.0,0.0,1.0
1624181074859592044,369,1624181074858842993,1.2907611107948469e-05,0.00011326397600441851,0.0012595733410130094,0.0,0.0,0.0,1.0
1624181074903955133,370,1624181074903473044,1.410899562870327e-05,0.0002121663462730794,0.0012371380471165594,0.0,0.0,0.0,1.0
1624181075001042460,371,1624181075000321055,0.0001528861475890153,0.00021613294745748135,0.0013515684349236778,0.0,0.0,0.0,1.0
1624181075052172304,372,1624181075051448966,-2.8608822049136506e-06,0.00012446374967112206,0.0008856243680810394,0.0,0.0,0.0,1.0
1624181075097142752,373,1624181075096101904,0.00016109874695757753,0.0002107108020936721,0.0013364485455547026,0.0,0.0,0.0,1.0
1624181075145894156,374,1624181075145445967,0.0003789020749991323,0.0001425967878958545,0.0012283555016097125,0.0,0.0,0.0,1.0
1624181075195500393,375,1624181075194858933,2.3314827330978005e-05,0.00021249049950711196,0.001244964951901295,0.0,0.0,0.0,1.0
1624181075246004960,376,1624181075245369101,8.459713171760086e-06,0.00011213185166525363,0.0012520165667844196,0.0,0.0,0.0,1.0
1624181075294118727,377,1624181075293452883,0.0002311129615009122,0.0002799338113845806,0.0016543260927832648,0.0,0.0,0.0,1.0
1624181075344199611,378,1624181075343494082,9.766686116563505e-05,0.00012184285367311531,0.0013532866884062855,0.0,0.0,0.0,1.0
1624181075395552376,379,1624181075395119095,2.132146232725063e-05,0.00021286125490860286,0.001244976588541391,0.0,0.0,0.0,1.0
1624181075445063916,380,1624181075444410944,0.00041038070230570156,3.761384971312509e-05,0.0012505921809982112,0.0,0.0,0.0,1.0
1624181075507109118,381,1624181075506174946,8.638547569717048e-06,0.00021180536600695632,0.0012318354880669347,0.0,0.0,0.0,1.0
1624181075552318256,382,1624181075551849032,-4.763124206874636e-05,0.0003244177610213228,0.0012214256515505895,0.0,0.0,0.0,1.0
1624181075598349537,383,1624181075597913886,3.778959126066184e-05,0.00030693343785515026,0.0012147485270332936,0.0,0.0,0.0,1.0
1624181075649888901,384,1624181075649650956,1.9145063333780854e-05,0.00021461648054810212,0.0012502153260633975,0.0,0.0,0.0,1.0
1624181075695865590,385,1624181075695536995,-7.571222681690415e-05,0.0003292305501645387,0.0012200025554953697,0.0,0.0,0.0,1.0
1624181075743737288,386,1624181075743430996,1.0044486316473922e-05,0.00012073032473836065,0.0008803901685112692,0.0,0.0,0.0,1.0
1624181075794656751,387,1624181075793996954,-2.2623950371780666e-05,7.791522455136146e-05,0.0010974099374010393,0.0,0.0,0.0,1.0
1624181075845091722,388,1624181075844586039,0.00045129406680644024,0.00013283747659897926,0.0012422731127763598,0.0,0.0,0.0,1.0
1624181075894421265,389,1624181075893763924,1.0472287385709933e-05,0.00021412060732473037,0.0012421044522490376,0.0,0.0,0.0,1.0
1624181075944485822,390,1624181075944078112,-0.00029387048311946273,0.00016863569021552394,0.0012548361694584287,0.0,0.0,0.0,1.0
1624181075995062923,391,1624181075994674111,4.854188637182233e-05,0.00037714532072641305,0.0014941406567068327,0.0,0.0,0.0,1.0
1624181076046693065,392,1624181076046317006,2.367352090004715e-05,0.000182654123022985,0.0015357950437433487,0.0,0.0,0.0,1.0
1624181076095620278,393,1624181076095214034,1.6508970247741672e-05,0.0002126214855024955,0.001240612845499811,0.0,0.0,0.0,1.0
1624181076146850893,394,1624181076146495009,3.0211102284738445e-05,0.0003161529506314764,0.0016510570164598448,0.0,0.0,0.0,1.0
1624181076192816042,395,1624181076192558909,2.9270800496306038e-05,0.000279781109270516,0.0015096275827204408,0.0,0.0,0.0,1.0
1624181076244133567,396,1624181076243533040,0.00031491498089053493,0.000227571978598462,0.0015115191934498284,0.0,0.0,0.0,1.0
1624181076298424270,397,1624181076297398949,0.0003579433619051997,0.00014749078115983139,0.0012323310884632122,0.0,0.0,0.0,1.0
1624181076344308659,398,1624181076343564892,2.2823780909675406e-06,8.692795313436363e-05,0.0011500697779460722,0.0,0.0,0.0,1.0
1624181076395223590,399,1624181076394770051,-9.391122603119584e-06,1.9794873082901177e-05,0.0008819397945067919,0.0,0.0,0.0,1.0
1624181076444177786,400,1624181076443750048,-0.00028178724733152194,6.735941576607729e-05,0.000871536219371194,0.0,0.0,0.0,1.0
1624181076494788364,401,1624181076494249964,-4.4405276184988907e-05,0.0001174042873799408,0.0008286455661092873,0.0,0.0,0.0,1.0
1624181076583178168,402,1624181076582542086,2.6780488497024635e-05,0.0002110853610020058,0.0012420014855578643,0.0,0.0,0.0,1.0
1624181076663705313,403,1624181076663264895,1.0548476438998478e-06,0.00010864278544886474,0.0008271953663303577,0.0,0.0,0.0,1.0
1624181076705229620,404,1624181076704630995,-2.283603521391342e-05,1.5762977227495867e-05,0.0008567382719526506,0.0,0.0,0.0,1.0
1624181076755271495,405,1624181076754782105,0.00039485142701778386,0.000129152130057264,0.0011877132238673482,0.0,0.0,0.0,1.0
1624181076797942961,406,1624181076797438050,3.040505362150725e-06,0.0001079865745623465,0.0008260735626386406,0.0,0.0,0.0,1.0
1624181076848545704,407,1624181076848007107,1.242951225322031e-05,0.00021055968386463064,0.0012297213513505767,0.0,0.0,0.0,1.0
1624181076942416340,408,1624181076941614056,-6.322703939076746e-06,0.00011904422206043819,0.00126821297821067,0.0,0.0,0.0,1.0
1624181076983234834,409,1624181076982601071,6.902899031047127e-06,0.00011603173038565728,0.0012659972623048077,0.0,0.0,0.0,1.0
1624181077025481337,410,1624181077024846936,0.00015566338151984382,0.00018748607112684113,0.0012426901338820073,0.0,0.0,0.0,1.0
1624181077074977417,411,1624181077074555064,1.6875545043149032e-05,0.0002163224007745157,0.0016612369134847427,0.0,0.0,0.0,1.0
1624181077119747676,412,1624181077119058037,-0.00014852263666398358,0.0001783295247150818,0.0009900845873112019,0.0,0.0,0.0,1.0
1624181077167529228,413,1624181077166870976,8.187087814803817e-06,0.00011478571173029195,0.0012620921231700777,0.0,0.0,0.0,1.0
1624181077211943808,414,1624181077211403037,6.857124162706896e-06,0.00011167893421770714,0.0012491196573236607,0.0,0.0,0.0,1.0
1624181077260548049,415,1624181077259450102,5.071088253316702e-06,0.00011559655524706614,0.0012630053608546632,0.0,0.0,0.0,1.0
1624181077305340475,416,1624181077302906895,2.4803453698041267e-05,0.00021157237983970845,0.0012424747092616428,0.0,0.0,0.0,1.0
1624181077352621874,417,1624181077351957942,2.6455107217771e-05,0.00020975846689452737,0.0012366342201310943,0.0,0.0,0.0,1.0
1624181077395115153,418,1624181077394359971,0.00042303878581151366,0.0001348242254834986,0.0012297883801899445,0.0,0.0,0.0,1.0
1624181077446706314,419,1624181077446161891,3.3373119094903814e-05,0.0002070258661888147,0.0012309983883120879,0.0,0.0,0.0,1.0
1624181077493893090,420,1624181077493446017,-7.827314220776316e-06,0.00011519454108110949,0.0012522408526969286,0.0,0.0,0.0,1.0
1624181077544716913,421,1624181077544104004,4.8209851229330525e-05,0.00030534824350070267,0.001216053466265521,0.0,0.0,0.0,1.0
1624181077596264494,422,1624181077595614100,2.4005515797398402e-05,0.00020972296988475136,0.0012347479748306966,0.0,0.0,0.0,1.0
1624181077644064870,423,1624181077643618966,2.374439918639837e-05,0.00022270261513313017,0.0008787580675679862,0.0,0.0,0.0,1.0
1624181077695745853,424,1624181077695308114,-0.00036477375351751107,0.0003524894673319068,0.0015096798452205462,0.0,0.0,0.0,1.0
1624181077746549353,425,1624181077745998049,1.4206013702278142e-05,0.00021223781232038164,0.0012374838801534338,0.0,0.0,0.0,1.0
1624181077795036338,426,1624181077794146920,1.547023384773638e-05,0.0002118208227557261,0.0012367727516569005,0.0,0.0,0.0,1.0
1624181077844989105,427,1624181077844539071,-0.00040271175203088205,0.00018145370358979562,0.0008207037656475791,0.0,0.0,0.0,1.0
1624181077896245934,428,1624181077895804072,1.3918201148044318e-05,0.00021879627786347555,0.0012626590832915952,0.0,0.0,0.0,1.0
1624181077945960893,429,1624181077945063019,1.9021387061002315e-05,0.0001356736700017791,0.0013506619279120002,0.0,0.0,0.0,1.0
1624181077997635522,430,1624181077996606017,6.788488462916575e-05,0.00030650766541384655,0.0016406274641340701,0.0,0.0,0.0,1.0
1624181078048746306,431,1624181078048112059,4.014379737782292e-05,0.00021339410466225672,0.001666517042863802,0.0,0.0,0.0,1.0
1624181078095978603,432,1624181078095137024,-0.00024590943644398067,0.00033153619801851164,0.001513453355762806,0.0,0.0,0.0,1.0
1624181078145751698,433,1624181078145289088,-0.00039080508008737525,9.226087979641306e-05,0.0008900711946395745,0.0,0.0,0.0,1.0
1624181078195189058,434,1624181078194680119,5.485273186423001e-05,0.00030696568444454897,0.0016330955516394852,0.0,0.0,0.0,1.0
1624181078244512316,435,1624181078243983889,-0.00037706672583226464,0.0003909151657808252,0.001649610016258407,0.0,0.0,0.0,1.0
1624181078296101873,436,1624181078295689965,0.00019531567386366078,0.00018407625543659378,0.0016638445050922712,0.0,0.0,0.0,1.0
1624181078348775208,437,1624181078348266984,0.00017563431265443796,0.00035906582945699483,0.0019209577865275662,0.0,0.0,0.0,1.0
1624181078395734422,438,1624181078395276928,0.0004419283395691309,0.0001338197913582917,0.001239387778099399,0.0,0.0,0.0,1.0
1624181078446473538,439,1624181078445572043,0.00037512155995500507,3.552794407823967e-05,0.0012173462349522879,0.0,0.0,0.0,1.0
1624181078496406971,440,1624181078495916987,0.0004114664400276524,9.657012287789257e-05,0.0010734870048487721,0.0,0.0,0.0,1.0
1624181078544505416,441,1624181078543923998,0.00043033096926592407,4.480684231111809e-05,0.0012926721885335724,0.0,0.0,0.0,1.0
1624181078596582284,442,1624181078595406914,0.00042117920793316443,0.00013789224908578035,0.0012403336714186253,0.0,0.0,0.0,1.0
1624181078646943299,443,1624181078646325970,2.2274331513472134e-05,0.00011465458169368503,0.001271642193970024,0.0,0.0,0.0,1.0
1624181078696692009,444,1624181078695310021,0.0004422178337790683,0.0002233805358855534,0.001586189116380865,0.0,0.0,0.0,1.0
1624181078746277855,445,1624181078745833064,0.00016190183487196919,0.0002910948443286543,0.001648104684274898,0.0,0.0,0.0,1.0
1624181078796470959,446,1624181078795874978,5.598390021077648e-05,0.00037823915317858336,0.0015036870142175474,0.0,0.0,0.0,1.0
1624181078845810341,447,1624181078845267916,3.308518921585346e-05,0.00021482035685949086,0.0016669970546168145,0.0,0.0,0.0,1.0
1624181078897180697,448,1624181078896536971,7.626820888617658e-05,0.00020916977928209235,0.0012699199778865022,0.0,0.0,0.0,1.0
1624181078945526491,449,1624181078944943095,0.00025658576419118617,0.00031746431750434567,0.001411712588968328,0.0,0.0,0.0,1.0
1624181078994825725,450,1624181078994160080,0.0004505490185238159,0.00014102543843819149,0.0016794683261345256,0.0,0.0,0.0,1.0
1624181079046790432,451,1624181079046486044,2.4812509309413144e-05,0.00021391518703239853,0.001657587701362928,0.0,0.0,0.0,1.0
1624181079094122027,452,1624181079093895102,0.0004385451888992975,7.744921731500654e-05,0.0014248604030626666,0.0,0.0,0.0,1.0
1624181079147678898,453,1624181079147451067,-2.033792952715885e-06,0.00011687052153774857,0.0012628629992903484,0.0,0.0,0.0,1.0
1624181079195497956,454,1624181079195197964,0.0002508029401724343,0.0002216932339251798,0.0014429949632237538,0.0,0.0,0.0,1.0
1624181079244876114,455,1624181079244428063,2.408043928880943e-05,0.0002141963686881354,0.001658153201674395,0.0,0.0,0.0,1.0
1624181079296353818,456,1624181079295786047,2.0757469656018657e-05,0.00021029011566042755,0.001234623850564276,0.0,0.0,0.0,1.0
1624181079344751415,457,1624181079344077015,0.00032848083810677053,0.0001514676479246191,0.0012266861279144337,0.0,0.0,0.0,1.0
1624181079396094227,458,1624181079395650054,0.00047809014131416916,0.00040697295264635613,0.001510213143230743,0.0,0.0,0.0,1.0
1624181079448244119,459,1624181079447375918,3.505878703435883e-05,0.0002626159413239293,0.00144733150591847,0.0,0.0,0.0,1.0
1624181079495886569,460,1624181079495377923,0.00015511707215409842,8.351602195943997e-05,0.001245981782119543,0.0,0.0,0.0,1.0
1624181079543399857,461,1624181079543073082,3.69716237855755e-05,0.00020665921999807324,0.001232148638731445,0.0,0.0,0.0,1.0
1624181079595448526,462,1624181079595188046,3.777120059567096e-05,0.00030545611048182764,0.0012090182734283417,0.0,0.0,0.0,1.0
1624181079644563925,463,1624181079644334937,5.17941784892173e-05,0.0003074603578170354,0.0016328262460341136,0.0,0.0,0.0,1.0
1624181079693768281,464,1624181079693483973,2.1649888594765798e-05,0.00018018864511759602,0.0011187713588576287,0.0,0.0,0.0,1.0
1624181079744871816,465,1624181079744491005,-1.946296583810181e-05,4.0802439002618485e-05,0.000956045193916566,0.0,0.0,0.0,1.0
1624181079795475529,466,1624181079794754887,-5.625521225738339e-06,0.00010601333394788526,0.0012182824125659408,0.0,0.0,0.0,1.0
1624181079844217656,467,1624181079843584919,3.3076557656386285e-05,0.00020480197213146312,0.0012221803953558208,0.0,0.0,0.0,1.0
1624181079899423446,468,1624181079896301890,3.758664888664498e-06,0.00021211592945746816,0.0012295533752961774,0.0,0.0,0.0,1.0
1624181079946027010,469,1624181079945766116,1.5124801620913786e-05,0.00011381023853118677,0.0012632702814343588,0.0,0.0,0.0,1.0
1624181079997182358,470,1624181079996877099,2.11292565381882e-05,0.0001035679966889802,0.0008218885384110308,0.0,0.0,0.0,1.0
1624181080046223536,471,1624181080045915032,-1.2264217730262317e-06,0.00011014911501661118,0.0012374281958500433,0.0,0.0,0.0,1.0
1624181080092819597,472,1624181080092480088,-2.5970865863200743e-05,0.0003212634159126537,0.0016307228987173517,0.0,0.0,0.0,1.0
