%time,field.header.seq,field.header.stamp,field.pose.position.x,field.pose.position.y,field.pose.position.z,field.pose.orientation.x,field.pose.orientation.y,field.pose.orientation.z,field.pose.orientation.w
1624165183624131328,2,1624165183623804044,-0.0001772204525423149,0.00015334435533986834,-0.0002830851089363762,0.0,0.0,0.0,1.0
1624165183677368774,3,1624165183677046012,-0.0001717726861443225,0.0005563350853208249,-0.0001315806784525364,0.0,0.0,0.0,1.0
1624165183723920678,4,1624165183723699998,-0.00011114758012809034,0.0005075536116692092,-0.0002030623056619163,0.0,0.0,0.0,1.0
1624165183777354165,5,1624165183777130079,-4.2180770378763555e-06,0.0003290135935003491,-0.0002498105539139317,0.0,0.0,0.0,1.0
1624165183833170589,6,1624165183832829904,-0.0003154278372221597,0.00025849646567621676,-0.00018033956524377004,0.0,0.0,0.0,1.0
1624165183880445462,7,1624165183880016994,-9.309425831816043e-05,0.0005048149880622077,-0.0004157189376776671,0.0,0.0,0.0,1.0
1624165183925136698,8,1624165183924320888,-0.00012853276189161988,0.00024641119375701237,-0.0003387148899847148,0.0,0.0,0.0,1.0
1624165183977495273,9,1624165183977250051,-0.00010247871614410542,0.0004960741553077241,-0.00017118076011968242,0.0,0.0,0.0,1.0
1624165184023195904,10,1624165184022928905,-3.6901481962559046e-05,0.0004308966704229533,-0.00020979371272034086,0.0,0.0,0.0,1.0
1624165184075121112,11,1624165184074694108,-0.0001509735316176375,0.00027839554650199716,-0.00042462362197426273,0.0,0.0,0.0,1.0
1624165184127321752,12,1624165184127031993,-0.00012090666768926894,0.0005289592631925188,-0.0004991065037494025,0.0,0.0,0.0,1.0
1624165184178054262,13,1624165184177801084,0.0001803107202249521,0.000677014009170307,-0.00020608402990873742,0.0,0.0,0.0,1.0
1624165184225615637,14,1624165184224549007,0.00018402394061922678,0.0005457416095850931,-0.0002517150943610602,0.0,0.0,0.0,1.0
1624165184275968446,15,1624165184275544118,0.00011522486988724268,0.00030965201426624844,-0.0005123516819587337,0.0,0.0,0.0,1.0
1624165184325262212,16,1624165184325065088,0.0002398413396349497,0.00019630020005934057,-0.00037853691818767743,0.0,0.0,0.0,1.0
1624165184380132942,17,1624165184379874897,-0.00030615674586442765,-0.00015709093509030936,-0.00028797915855349743,0.0,0.0,0.0,1.0
1624165184424976383,18,1624165184424528074,-0.00013856165469405823,0.0001927445009641815,-0.0005233837752420811,0.0,0.0,0.0,1.0
1624165184475965671,19,1624165184475705099,-7.30827916868293e-05,0.00038600941115873866,-0.00020461452055542395,0.0,0.0,0.0,1.0
1624165184525750057,20,1624165184525191020,-4.592232448885625e-05,0.00014165999186843692,-0.0002893327186406225,0.0,0.0,0.0,1.0
1624165184578767440,21,1624165184578353118,-6.449786428674997e-05,0.00012932868526149832,-0.00030263409225739224,0.0,0.0,0.0,1.0
1624165184627880032,22,1624165184627297115,-5.447212583931105e-05,0.0003329932610540709,-0.0003414227811227022,0.0,0.0,0.0,1.0
1624165184675937780,23,1624165184675449085,-3.9530461663161987e-05,0.0004508048050411162,-0.0004914506457396328,0.0,0.0,0.0,1.0
1624165184765612191,24,1624165184765182924,0.0002430960314541153,0.0006092693079153833,-0.00024563297250423943,0.0,0.0,0.0,1.0
1624165184885007834,25,1624165184884262990,-0.00010887744451792969,0.0004887528214112535,-0.0001711840561178235,0.0,0.0,0.0,1.0
1624165184925850296,26,1624165184925234031,-0.00021867268378628069,-0.0002439500431137276,-9.42092788136506e-06,0.0,0.0,0.0,1.0
1624165184978505637,27,1624165184977878046,3.808520477832644e-05,0.0003780956628816057,-0.00025080071473837506,0.0,0.0,0.0,1.0
1624165185023685370,28,1624165185023404073,1.5887550716797705e-05,0.0003533840697400592,-0.00025183504011394575,0.0,0.0,0.0,1.0
1624165185077950222,29,1624165185077687931,-0.000248954698236048,0.00019340250264576753,-0.0002175493470524259,0.0,0.0,0.0,1.0
1624165185125258492,30,1624165185125010919,-0.0002526305395349482,0.00020976963378416258,-0.0002481990202873874,0.0,0.0,0.0,1.0
1624165185179873281,31,1624165185179604005,-0.00017984442479246354,0.00013443984585137514,-0.00025939669253460806,0.0,0.0,0.0,1.0
1624165185224099478,32,1624165185223679971,-0.00025120648228948994,0.00020866178624601162,-0.00024412062007783675,0.0,0.0,0.0,1.0
1624165185276346158,33,1624165185275702905,-0.00013992549475005944,0.00011940750096073316,7.8579674092083e-05,0.0,0.0,0.0,1.0
1624165185324003616,34,1624165185323563051,-5.448530964713427e-05,0.0004501997168517846,-0.0005160472219429835,0.0,0.0,0.0,1.0
1624165185378054171,35,1624165185377695989,-0.00016693231214048865,0.00013566330494541035,-0.00023920403807053958,0.0,0.0,0.0,1.0
1624165185423559659,36,1624165185423326921,5.135077549311973e-05,0.00036705453953800316,-0.00021173463923673808,0.0,0.0,0.0,1.0
1624165185480078516,37,1624165185479814004,-0.00016120932173180336,0.000143563313940831,-0.0002412150533643853,0.0,0.0,0.0,1.0
1624165185524996526,38,1624165185524635982,-6.717878181916603e-05,6.060839336896606e-05,4.2688906173538044e-05,0.0,0.0,0.0,1.0
1624165185577786832,39,1624165185577265930,-0.0002587244948699663,-0.0001966305803762225,-0.00014820353340638803,0.0,0.0,0.0,1.0
1624165185625934952,40,1624165185624946069,-8.482831276523939e-05,-9.292632512369892e-05,-6.199060798905975e-06,0.0,0.0,0.0,1.0
1624165185680136492,41,1624165185679682922,-6.270491098803177e-05,4.807301729670144e-05,-0.00017852909655502458,0.0,0.0,0.0,1.0
1624165185725971412,42,1624165185725295019,-0.0005856160869370797,8.534804260307283e-05,-0.00013555066354697942,0.0,0.0,0.0,1.0
1624165185778365017,43,1624165185777847003,-0.0001628679001441924,0.00015155699156821356,-0.0002559512439113121,0.0,0.0,0.0,1.0
1624165185824051727,44,1624165185823558998,-0.0003472572093414783,0.0002939755920579046,-3.994402768725536e-05,0.0,0.0,0.0,1.0
1624165185878879451,45,1624165185878416013,-0.0003567224778180389,-0.00012831845219807292,7.79820197465142e-05,0.0,0.0,0.0,1.0
1624165185925998924,46,1624165185925071907,-0.00024267550998047227,0.00019439321272329835,-0.00020831915679409008,0.0,0.0,0.0,1.0
1624165185980274690,47,1624165185979650926,-0.00022873308034832007,0.00017611930343264248,9.019571921342617e-05,0.0,0.0,0.0,1.0
1624165186025547544,48,1624165186025129032,-0.0002469179210038419,0.00019203783790544549,-0.0002120436646215751,0.0,0.0,0.0,1.0
1624165186075535788,49,1624165186075205993,-0.00031206130051941727,0.00026162464837398147,-0.00017925969359922078,0.0,0.0,0.0,1.0
1624165186124473452,50,1624165186124232959,-0.00032640879385326116,0.0002808881051805656,-0.00023241926560402248,0.0,0.0,0.0,1.0
1624165186178471479,51,1624165186177955102,-5.301217606756836e-05,0.00046803290410935006,-0.0005401014172363716,0.0,0.0,0.0,1.0
1624165186224670896,52,1624165186224219036,-6.648453336310922e-06,-6.15407839177351e-06,-2.167874711744844e-06,0.0,0.0,0.0,1.0
1624165186280639217,53,1624165186279958915,5.221938408794813e-05,0.000339942092068668,7.765624276601102e-05,0.0,0.0,0.0,1.0
1624165186327487799,54,1624165186326851081,-0.0003181374688665528,0.0002587438380032836,-0.0006803609166254887,0.0,0.0,0.0,1.0
1624165186377623070,55,1624165186377189111,-9.278429820369638e-05,8.736195377423428e-05,-0.0002883443010261999,0.0,0.0,0.0,1.0
1624165186425051930,56,1624165186424711894,-0.0001954194524387276,6.902618861204246e-05,-0.0001885043657843255,0.0,0.0,0.0,1.0
1624165186475079402,57,1624165186474763107,-0.00034598350225678587,0.0002849823285941966,-0.0007669246918879935,0.0,0.0,0.0,1.0
1624165186524923484,58,1624165186524655055,-0.000384789843337785,0.00031546091963718936,-0.00013594467453970083,0.0,0.0,0.0,1.0
1624165186579564231,59,1624165186579281997,-0.00017587807542440714,0.0005496343273989623,-0.00012859827107902788,0.0,0.0,0.0,1.0
1624165186626404639,60,1624165186625949096,8.928521992856986e-06,0.0003673518360756134,-0.00028450814474823005,0.0,0.0,0.0,1.0
1624165186675656015,61,1624165186674999904,-0.00031048634264152497,0.00025616298626118805,-0.00016843805883581808,0.0,0.0,0.0,1.0
1624165186725527642,62,1624165186724106025,-0.00030221685983633506,0.00022561867785952927,-0.00010883611501100177,0.0,0.0,0.0,1.0
1624165186778533580,63,1624165186777912092,-0.00020585279867191275,0.0002869907548301853,-0.00028347981335841155,0.0,0.0,0.0,1.0
1624165186829316992,64,1624165186828074884,0.00010781560467876261,0.00032596040591670317,0.00019327906928623406,0.0,0.0,0.0,1.0
1624165186878970393,65,1624165186878234100,-0.00024886859637263115,0.0004239202005464904,-0.00031328877857106363,0.0,0.0,0.0,1.0
1624165186924843099,66,1624165186924199056,-8.163738789335184e-05,0.00048285514480994607,-0.0001159534538928142,0.0,0.0,0.0,1.0
1624165186977260566,67,1624165186976830911,-0.00030514920990754035,0.00025742417983565247,-0.0004087346433898631,0.0,0.0,0.0,1.0
1624165187026515600,68,1624165187025957059,-0.0001281342572383437,0.00019185204314453586,-0.0002567581543821973,0.0,0.0,0.0,1.0
1624165187080818295,69,1624165187079812955,-0.00023085983184500947,0.00020800240440621565,-0.0002084471423273726,0.0,0.0,0.0,1.0
1624165187125456546,70,1624165187124864053,-0.00019446222836450033,0.0005834987891830679,-0.00045824929969029427,0.0,0.0,0.0,1.0
1624165187177924468,71,1624165187177498054,-7.312037405426963e-05,5.908263642595557e-05,3.483128237746769e-05,0.0,0.0,0.0,1.0
1624165187223735998,72,1624165187223282051,-0.0002887480425215472,0.00024225159495472326,-0.00011064998872356568,0.0,0.0,0.0,1.0
1624165187275334534,73,1624165187274696063,-0.00012977881760889431,0.0005174142590931297,-0.0004970350264521528,0.0,0.0,0.0,1.0
1624165187322972221,74,1624165187322558116,-0.0004914284666028834,5.101882879898767e-05,-0.0001713381301478023,0.0,0.0,0.0,1.0
1624165187378918691,75,1624165187378446054,-0.0001690114565917611,0.00014433291880777688,-0.0002556642527657971,0.0,0.0,0.0,1.0
1624165187425101017,76,1624165187424451065,0.0002201581496592553,0.000228023186309656,3.568436133249975e-05,0.0,0.0,0.0,1.0
1624165187475587964,77,1624165187474931907,-0.00021775206232632627,0.00017431562218916952,0.00011160567355261719,0.0,0.0,0.0,1.0
1624165187525408628,78,1624165187524953079,-0.0002733066432938358,-3.510153305796848e-05,8.13388985960728e-05,0.0,0.0,0.0,1.0
1624165187576833216,79,1624165187576411914,8.689410810802656e-05,0.0003245012587740348,0.0004073035597400576,0.0,0.0,0.0,1.0
1624165187625293898,80,1624165187624540996,-0.0001463695280108368,0.00012541540604615875,5.864222969620414e-05,0.0,0.0,0.0,1.0
1624165187679047511,81,1624165187678362083,-0.00032574549845776346,0.000589658367289303,-0.000691261043677116,0.0,0.0,0.0,1.0
1624165187725246963,82,1624165187724678945,-0.0003584075459457381,1.0284144764227676e-05,0.00011614801478643244,0.0,0.0,0.0,1.0
1624165187777765427,83,1624165187777083110,9.495541667092766e-05,0.0005814334101614804,-0.00020923040690590256,0.0,0.0,0.0,1.0
1624165187825514214,84,1624165187825020980,-0.0002127491864030162,0.00043139157583027554,-1.5316579730750846e-05,0.0,0.0,0.0,1.0
1624165187875897072,85,1624165187875674915,9.966057655219629e-05,0.0004060845653839351,-0.0004350269173301058,0.0,0.0,0.0,1.0
1624165187927034565,86,1624165187926720094,7.253092599057709e-05,0.00034234746249239834,-0.00013881561198658687,0.0,0.0,0.0,1.0
1624165187977890385,87,1624165187977641057,-0.00022670681551062444,0.0007429341510487575,-0.0007507328440716776,0.0,0.0,0.0,1.0
1624165188022994780,88,1624165188022719097,-0.00031455480416298087,0.00026862608228839235,-0.00044145858990418674,0.0,0.0,0.0,1.0
1624165188075183268,89,1624165188074984025,-0.0001421872109403921,0.00011651995373540558,7.902505642931601e-05,0.0,0.0,0.0,1.0
1624165188125435387,90,1624165188124989938,-0.00033231404245270824,0.0002855562058812211,-0.0004969586607934673,0.0,0.0,0.0,1.0
1624165188225200819,91,1624165188224935960,-0.00014310053484223317,0.00011240558683311974,8.359712513694717e-05,0.0,0.0,0.0,1.0
1624165188268569735,92,1624165188267698955,-0.0004261911528828932,0.0003666585089376895,-0.0007778339096837783,0.0,0.0,0.0,1.0
1624165188310108207,93,1624165188309621047,-4.1201724343409296e-05,0.00042748234750433767,-0.000212039355051985,0.0,0.0,0.0,1.0
1624165188363945292,94,1624165188363116931,-0.0004495025445976353,0.0004254581663190038,-0.00041014315586807015,0.0,0.0,0.0,1.0
1624165188435963539,95,1624165188435385894,-0.00020339189541118685,0.00015776215536789095,-0.0005818055425059754,0.0,0.0,0.0,1.0
1624165188483890578,96,1624165188483402919,-0.00015402714598167222,0.00011245883433730341,6.488760320522147e-05,0.0,0.0,0.0,1.0
1624165188527293770,97,1624165188526781034,-0.00041516033616062487,0.0007709350043114682,-0.0013612589297977706,0.0,0.0,0.0,1.0
1624165188576869927,98,1624165188576075029,-4.794307710653811e-05,0.00043971491800220974,-0.00024175638622736528,0.0,0.0,0.0,1.0
1624165188627352113,99,1624165188626695108,-0.00032480026243320026,0.00013950113793725905,-0.0005140857640206775,0.0,0.0,0.0,1.0
1624165188676510366,100,1624165188676069927,-0.0004335943697242328,0.0003696698072417348,-0.0007949419952346659,0.0,0.0,0.0,1.0
1624165188724671785,101,1624165188724207115,-0.0004223811938572908,-6.275778582676139e-05,0.00011588503986814658,0.0,0.0,0.0,1.0
1624165188778451716,102,1624165188777915906,-0.00041897129858625703,-5.421638957159303e-05,0.00010897450546210052,0.0,0.0,0.0,1.0
1624165188826738278,103,1624165188826162052,-0.0002560433081271185,0.00012975983804608404,-0.0001348258552020809,0.0,0.0,0.0,1.0
1624165188878160919,104,1624165188877613019,-0.00043171563515898015,0.0003702598596646567,-0.0005451037165151718,0.0,0.0,0.0,1.0
1624165188923994643,105,1624165188923484039,-5.6170166317315307e-05,0.00046420963576565555,-0.0005397903003725446,0.0,0.0,0.0,1.0
1624165188978602844,106,1624165188977965068,0.0002447658523578866,0.0006194790041718079,-0.00025799524534164675,0.0,0.0,0.0,1.0
1624165189027705593,107,1624165189027229022,6.408863168871903e-05,0.0003586111768072442,7.008194857505146e-05,0.0,0.0,0.0,1.0
1624165189078039874,108,1624165189077463102,-0.00022806015817877778,0.0003998698091436381,-0.0004894992348560834,0.0,0.0,0.0,1.0
1624165189125557943,109,1624165189124707889,-0.0003661704492969875,9.412517010787269e-05,-2.198878028281115e-05,0.0,0.0,0.0,1.0
1624165189178121450,110,1624165189177255105,-0.0002896732823955972,3.823814085990307e-05,-5.5823223409134926e-05,0.0,0.0,0.0,1.0
1624165189224662955,111,1624165189224235010,-0.00029047295925010985,0.00024388951555920357,-0.00011603103456891972,0.0,0.0,0.0,1.0
1624165189279058050,112,1624165189278803062,-0.00016765509417382418,0.00013953604639027617,-0.00024620567121047543,0.0,0.0,0.0,1.0
1624165189329075055,113,1624165189328671884,-0.00015538165666839632,0.00010176215278079326,7.851333370467728e-05,0.0,0.0,0.0,1.0
1624165189377145714,114,1624165189376599979,0.00027798502492260013,0.0005771391186044639,0.0003567610025108081,0.0,0.0,0.0,1.0
1624165189422612874,115,1624165189422348928,6.511552487609151e-05,0.0003497919724395615,8.497103182136811e-05,0.0,0.0,0.0,1.0
1624165189475807386,116,1624165189475549888,-0.00041795210609052447,-6.293480123531481e-05,0.00012370044160903149,0.0,0.0,0.0,1.0
1624165189525000904,117,1624165189524654102,-0.00016980944383249152,0.00014122992752163555,-0.00025240225620493106,0.0,0.0,0.0,1.0
1624165189578497405,118,1624165189578110885,-7.463234874194313e-05,6.120031662248948e-05,2.9098540942129603e-05,0.0,0.0,0.0,1.0
1624165189627150743,119,1624165189626691055,-0.00031381296389554336,0.00025324576859020453,-0.00016976415185254723,0.0,0.0,0.0,1.0
1624165189764277234,120,1624165189763724994,-5.36470474798989e-06,0.0004642942096779734,-0.0002057754951678703,0.0,0.0,0.0,1.0
1624165189838237058,121,1624165189837815952,-2.5778771714612958e-05,0.00044049947427993175,-0.00020513466898819388,0.0,0.0,0.0,1.0
1624165189886228321,122,1624165189885801982,5.399507836045814e-05,0.0007455059976564371,-0.0007710000102285619,0.0,0.0,0.0,1.0
1624165189966207714,123,1624165189965551090,4.690072569246695e-05,4.084147644789482e-05,0.00026664661532294076,0.0,0.0,0.0,1.0
1624165190012873364,124,1624165190012432050,-0.00017960728496291267,0.0002331833686639584,-0.00015857344682856933,0.0,0.0,0.0,1.0
1624165190053246759,125,1624165190052545976,0.0003344681215367018,0.0005283767034143239,3.0665873822499634e-05,0.0,0.0,0.0,1.0
1624165190096071212,126,1624165190095380020,0.0002708900126435765,0.0008381034469948645,-0.0005391346967158483,0.0,0.0,0.0,1.0
1624165190186837621,127,1624165190186160993,-0.00035155459431734926,-8.043821753744851e-05,1.546423922604845e-05,0.0,0.0,0.0,1.0
1624165190224974749,128,1624165190224425029,-0.00013339907059162215,0.0003146970755096845,-0.00020121992812605072,0.0,0.0,0.0,1.0
1624165190276103647,129,1624165190275325012,-0.0001260003107290686,0.000518086224246872,-0.0004915937107305979,0.0,0.0,0.0,1.0
1624165190325344442,130,1624165190324912023,-0.0008187972814539535,0.00021787714854326623,-0.000978060461633845,0.0,0.0,0.0,1.0
1624165190378369230,131,1624165190377723884,-0.00042544621692286455,0.0003669093857752159,-0.0007769375455204397,0.0,0.0,0.0,1.0
1624165190424790603,132,1624165190424306106,-0.00028947007876922726,-0.00018408978576189838,2.8212675715622026e-05,0.0,0.0,0.0,1.0
1624165190480093005,133,1624165190479870986,-2.7149547577209887e-05,0.00044939364374840807,-0.00022072155924490744,0.0,0.0,0.0,1.0
1624165190526071462,134,1624165190525759887,-7.907334725132387e-05,5.165462539480359e-05,3.574704471276391e-05,0.0,0.0,0.0,1.0
1624165190577410554,135,1624165190577123117,-0.0004902926336853852,-0.00041769116637624393,3.381354247977697e-05,0.0,0.0,0.0,1.0
1624165190652238431,136,1624165190651776027,-0.0002716704279919213,-0.00019673159363264858,0.0003249170252459521,0.0,0.0,0.0,1.0
1624165190696408136,137,1624165190696107101,-4.028768580610631e-05,0.00039545254003314767,8.475405580554707e-05,0.0,0.0,0.0,1.0
1624165190739929467,138,1624165190739701938,-0.00014813099255661655,0.00011125234482278756,7.673806685559725e-05,0.0,0.0,0.0,1.0
1624165190785570937,139,1624165190785376977,-0.00025906725977620226,0.0002107806676576729,-0.0005081968887239441,0.0,0.0,0.0,1.0
1624165190828160657,140,1624165190827919912,-0.00020218605618538277,0.0005749359029323386,-0.00045866235936031785,0.0,0.0,0.0,1.0
1624165190876296903,141,1624165190876006078,-0.00011137732280985801,0.0004902206921997276,-0.00017763308365914554,0.0,0.0,0.0,1.0
1624165190926852102,142,1624165190926088047,-6.332871157610498e-05,0.0003624738794769655,-0.0004004405984794346,0.0,0.0,0.0,1.0
1624165190978409318,143,1624165190977885913,-2.3246369210028206e-05,0.0004093820577963925,9.305896084654819e-05,0.0,0.0,0.0,1.0
1624165191024329539,144,1624165191023884963,5.621532136501628e-05,0.00034482926821510773,7.718891432162422e-05,0.0,0.0,0.0,1.0
1624165191080507854,145,1624165191079528045,1.2647199127968634e-05,-3.3139996048703324e-05,0.00031845653989392986,0.0,0.0,0.0,1.0
1624165191126986943,146,1624165191126537990,-0.00024724217155380757,0.00018847001433641708,-0.0002072814730880168,0.0,0.0,0.0,1.0
1624165191178510051,147,1624165191178075027,0.00010533518093325256,0.00031403566663357196,-0.0002882263458836576,0.0,0.0,0.0,1.0
1624165191224637991,148,1624165191224111986,-0.00021386647131294012,0.00026937698453366465,-0.00027090378585725716,0.0,0.0,0.0,1.0
1624165191276027425,149,1624165191275426101,-0.00024061661338237172,0.00025328503534183255,-0.0005400573612455162,0.0,0.0,0.0,1.0
1624165191387720228,150,1624165191386902046,0.00016910459362406982,0.0006723767373841838,-0.00021828260960532475,0.0,0.0,0.0,1.0
1624165191425892036,151,1624165191425148916,7.750080044388596e-05,0.0007547750321919011,-0.0004972159528335851,0.0,0.0,0.0,1.0
1624165191510058940,152,1624165191509586048,-1.373749341837538e-05,0.0004062072466695099,0.00011400153514173894,0.0,0.0,0.0,1.0
1624165191567492511,153,1624165191565755081,-0.00024249216062344203,0.0001964567554750829,-0.00021108063587504944,0.0,0.0,0.0,1.0
1624165191638036727,154,1624165191637561988,-0.0003074587771152437,0.00025619128950893355,-0.00016331819728065966,0.0,0.0,0.0,1.0
1624165191685323924,155,1624165191684302997,1.4807358411417226e-05,0.000814330416460507,-0.00044531091062438577,0.0,0.0,0.0,1.0
1624165191726030010,156,1624165191725721073,-0.00010960329541376268,7.382159901681007e-05,-0.000296849562818835,0.0,0.0,0.0,1.0
1624165191777453806,157,1624165191776906919,-4.7052015133886016e-05,0.0008399287160045787,-9.388101872431776e-05,0.0,0.0,0.0,1.0
1624165191825320488,158,1624165191824934911,-0.0002094962651426613,0.0002494092082088173,-0.00023370634943020718,0.0,0.0,0.0,1.0
1624165191875523405,159,1624165191875199031,0.00011128943583571527,0.0003243550916067761,-0.0002934471552009654,0.0,0.0,0.0,1.0
1624165191938754626,160,1624165191937757921,3.739249518730503e-05,0.00037305123260011896,-0.00024446707553948954,0.0,0.0,0.0,1.0
1624165191984847393,161,1624165191984430980,-3.163147107443365e-05,0.00042850080853895633,-0.0001972391256046535,0.0,0.0,0.0,1.0
1624165192066066120,162,1624165192065549087,-6.670762718385959e-05,0.00041652843947304063,-0.0004867264594352605,0.0,0.0,0.0,1.0
1624165192106907459,163,1624165192106653881,-3.5582388136390364e-05,0.0008535127826689859,-9.456118823436555e-05,0.0,0.0,0.0,1.0
1624165192163363737,164,1624165192162994098,0.0002408095854207204,0.0006151010318262706,-0.00025821892061017593,0.0,0.0,0.0,1.0
1624165192236292557,165,1624165192235973072,2.4423043896604213e-05,0.0003690306780299579,-0.00026059074846429553,0.0,0.0,0.0,1.0
1624165192282237390,166,1624165192281986904,6.936594286344189e-05,0.0007453120315403794,-0.000496989069898035,0.0,0.0,0.0,1.0
1624165192324657781,167,1624165192323943090,-0.00017481086911175225,0.0001354060104858945,-0.0002522537505136313,0.0,0.0,0.0,1.0
1624165192378452955,168,1624165192377783012,-9.112171255765134e-05,7.201557036751183e-05,-0.00026264782584561885,0.0,0.0,0.0,1.0
1624165192423595792,169,1624165192423328113,-0.00010215100473942584,0.0004994081516542792,-0.00017558868147204976,0.0,0.0,0.0,1.0
1624165192474749758,170,1624165192474368047,-4.011983492091531e-05,0.0001394083149079961,-2.8565470081787225e-05,0.0,0.0,0.0,1.0
1624165192525651645,171,1624165192525372934,3.155371700813703e-05,4.285734917175432e-05,-1.0045946325476507e-05,0.0,0.0,0.0,1.0
1624165192579205306,172,1624165192578990888,4.361404285191384e-05,0.0005795953675260535,-0.00029403020425888826,0.0,0.0,0.0,1.0
1624165192625646714,173,1624165192625153970,0.0003385314407751139,0.0005401167220497882,-0.0004749334379177128,0.0,0.0,0.0,1.0
1624165192676859526,174,1624165192675671052,-0.00025484809793852037,0.00022022114785613667,-2.0030789848135555e-05,0.0,0.0,0.0,1.0
1624165192725580260,175,1624165192724712085,-0.00017970951330426033,0.0002684600904103718,3.621944760823226e-05,0.0,0.0,0.0,1.0
1624165192780070341,176,1624165192779587936,0.00011459640654720715,0.00030310273382383457,-8.629151391659207e-06,0.0,0.0,0.0,1.0
1624165192827416165,177,1624165192826857995,3.464039377831796e-05,-4.086598232788674e-05,-0.00037509804570490246,0.0,0.0,0.0,1.0
1624165192878172020,178,1624165192877560091,-3.504548726596113e-05,0.0004363509763152251,-0.00021475452581753984,0.0,0.0,0.0,1.0
1624165192924665048,179,1624165192924028110,0.00013798212694382528,0.0006674156059034431,-0.0005114735420335137,0.0,0.0,0.0,1.0
1624165192976697392,180,1624165192976336908,0.00041006019000633387,0.00046926348159104236,9.458910810167254e-08,0.0,0.0,0.0,1.0
1624165193025690454,181,1624165193025417041,1.0491876082596718e-05,0.00035454092312647845,-0.00026275811737974664,0.0,0.0,0.0,1.0
1624165193080896580,182,1624165193080354881,-0.00016543905439903028,0.00014411352549359435,-0.0002492464439498576,0.0,0.0,0.0,1.0
1624165193124961520,183,1624165193124520015,-7.854111686356191e-05,5.1917154905822827e-05,3.626341440821079e-05,0.0,0.0,0.0,1.0
1624165193177949526,184,1624165193177355003,-0.00023774236433382612,0.00018977225977323542,5.449541475854858e-05,0.0,0.0,0.0,1.0
1624165193223798108,185,1624165193223293972,0.00026746838307190046,0.0005094369048492808,-0.0003028758833494294,0.0,0.0,0.0,1.0
1624165193276551520,186,1624165193275947999,0.00012418693472682207,0.0002907636428517435,2.6104874251586807e-05,0.0,0.0,0.0,1.0
1624165193325909434,187,1624165193325402927,0.00016934001450863434,0.0006762801062905055,-0.0002236960474846228,0.0,0.0,0.0,1.0
1624165193379847717,188,1624165193379183006,-7.381787372651161e-05,5.6626908417456434e-05,3.73004056228865e-05,0.0,0.0,0.0,1.0
1624165193423597647,189,1624165193423392963,8.391650817429763e-05,0.0002926898930581956,-0.0002929465768275463,0.0,0.0,0.0,1.0
1624165193472805033,190,1624165193472407054,0.00015652615661565505,0.0006352451634938916,-0.00018441429083893013,0.0,0.0,0.0,1.0
1624165193523911761,191,1624165193523625087,2.6102160290975007e-05,-3.620142820182082e-05,9.843570083134523e-05,0.0,0.0,0.0,1.0
1624165193578237905,192,1624165193577978086,-4.162777486271807e-06,0.0004177935206826078,-0.00013445372489329088,0.0,0.0,0.0,1.0
1624165193627992650,193,1624165193627438974,-7.896453735156683e-05,0.00019149482204738888,-0.00017239097791588165,0.0,0.0,0.0,1.0
1624165193678914691,194,1624165193678183984,-0.00010232648014607548,7.65790803143318e-05,-4.1030923231488714e-05,0.0,0.0,0.0,1.0
1624165193725856596,195,1624165193725120973,-0.00016720852795515384,7.5155412559979595e-06,-0.0002962896631011347,0.0,0.0,0.0,1.0
1624165193780517245,196,1624165193779907894,1.4683028211948113e-05,6.533298187605396e-05,-7.229357731830532e-05,0.0,0.0,0.0,1.0
1624165193825548219,197,1624165193824713897,-7.609390536345018e-05,5.813975303681218e-05,3.116596771590707e-05,0.0,0.0,0.0,1.0
1624165193879432349,198,1624165193878596973,-7.829943751858082e-05,5.242406314209802e-05,3.592032658872313e-05,0.0,0.0,0.0,1.0
1624165193924009277,199,1624165193923567008,-3.237807800360315e-05,1.597066852809803e-05,-0.0003265170173776255,0.0,0.0,0.0,1.0
1624165193979515195,200,1624165193978928995,8.237882821049425e-05,-9.838193841460452e-05,0.0002870231871909823,0.0,0.0,0.0,1.0
1624165194024911151,201,1624165194024649095,-4.5472205101759755e-05,9.485578038948006e-05,2.8679819031651732e-05,0.0,0.0,0.0,1.0
1624165194075952797,202,1624165194075612974,-8.44992996462679e-06,-4.140729060964077e-06,-8.238801605386925e-06,0.0,0.0,0.0,1.0
1624165194140107971,203,1624165194139888954,9.5346576472366e-05,0.00030614786192018073,-0.0002935065617428734,0.0,0.0,0.0,1.0
1624165194184824369,204,1624165194184581947,-0.0001298238596518786,0.0005192807943785738,-0.0004998923764354402,0.0,0.0,0.0,1.0
1624165194226571556,205,1624165194226218891,0.00017000612569972873,0.0006710700763505884,-0.00021479894767040264,0.0,0.0,0.0,1.0
1624165194276045948,206,1624165194275588941,0.0003133262039227702,0.0005558820053011004,-0.00029387642963030203,0.0,0.0,0.0,1.0
1624165194326079751,207,1624165194324721050,-0.00015598622485413216,0.00019743060170185345,-0.0003125564027151029,0.0,0.0,0.0,1.0
1624165194379040805,208,1624165194378807973,3.256983222854615e-05,0.0003762779654152837,-0.0002574966770900744,0.0,0.0,0.0,1.0
1624165194424778246,209,1624165194424539995,-9.969052143787849e-05,0.0004992554868294974,-0.0001711660928762626,0.0,0.0,0.0,1.0
1624165194478352340,210,1624165194478011083,0.00016457140441161755,0.00025284656771873415,-0.00034359234289738083,0.0,0.0,0.0,1.0
1624165194550404305,211,1624165194550079059,0.0004072539652497653,0.00046771432812420244,-2.38235278970933e-06,0.0,0.0,0.0,1.0
1624165194593883978,212,1624165194593640041,-0.00024081849596768734,0.0001988423748571222,-0.00021178091730433835,0.0,0.0,0.0,1.0
1624165194634219526,213,1624165194633883905,8.314815659105079e-05,0.0005744120326198754,-0.00021890227418452923,0.0,0.0,0.0,1.0
1624165194681286323,214,1624165194680863094,-0.000290134989654689,0.0003349103944856324,-0.000498566591215166,0.0,0.0,0.0,1.0
1624165194723953699,215,1624165194723587942,-0.0005759712146300444,0.00016364910425181733,-0.0007307839998240695,0.0,0.0,0.0,1.0
1624165194780093809,216,1624165194779838037,-2.0808138742722804e-05,0.0008173647513558535,-0.0007580699287252912,0.0,0.0,0.0,1.0
1624165194827756237,217,1624165194827372980,-0.0004932735905640584,0.00043013572553718404,-0.0007392544485398389,0.0,0.0,0.0,1.0
1624165194877037763,218,1624165194876361083,-5.617142369374051e-05,0.0008839982640438393,-0.0004225967130722097,0.0,0.0,0.0,1.0
1624165194925351311,219,1624165194925125074,-0.0003830425023352291,7.731838081781461e-05,-0.0005207541489049561,0.0,0.0,0.0,1.0
1624165194977653890,220,1624165194977373075,-0.0005228571037605434,2.057126948784571e-05,-0.00017956554603060226,0.0,0.0,0.0,1.0
1624165195024532367,221,1624165195024192047,-0.00021841607463102264,0.0002241998688532476,-0.00021136002118637975,0.0,0.0,0.0,1.0
1624165195079113458,222,1624165195078736972,-0.00017098643434110272,-0.00027661215699481545,-0.0003744970654473434,0.0,0.0,0.0,1.0
1624165195127171682,223,1624165195126863908,-0.00010607050967337273,8.155061050274526e-05,-0.00030234015755326027,0.0,0.0,0.0,1.0
1624165195178106393,224,1624165195177650880,5.838564766236232e-05,0.0003052597085115849,-0.0006027192884481281,0.0,0.0,0.0,1.0
1624165195225518235,225,1624165195224909019,0.0002682712101886864,0.0005895569850054017,7.417699454848048e-05,0.0,0.0,0.0,1.0
1624165195279828898,226,1624165195279241037,-0.00020135469071647094,0.00016389808160965913,-0.0005874728004577889,0.0,0.0,0.0,1.0
1624165195325434979,227,1624165195325169992,0.00010286025008099386,0.000726140761798888,-0.00016380442148644647,0.0,0.0,0.0,1.0
1624165195380692162,228,1624165195380136919,-0.0004434272211710777,-3.2829346992002684e-05,-0.0002121038695221955,0.0,0.0,0.0,1.0
1624165195424815461,229,1624165195424057912,-0.0001714744494165643,0.00017544719185025315,-0.0005537320277149149,0.0,0.0,0.0,1.0
1624165195479004063,230,1624165195478733968,-0.0004009774538644706,0.0003453833296589437,-0.00045563723324804073,0.0,0.0,0.0,1.0
1624165195525921739,231,1624165195525548887,3.064286943299521e-05,0.0007046354614885786,-0.0005024168895673142,0.0,0.0,0.0,1.0
1624165195576876744,232,1624165195576646995,0.00015690998543504975,0.0006766020871964429,-0.0002453691720845086,0.0,0.0,0.0,1.0
1624165195625339289,233,1624165195625091981,0.00017210111923304794,0.000674531118647792,-0.00021638283921987522,0.0,0.0,0.0,1.0
1624165195679527415,234,1624165195678929042,0.00024136409570019168,0.0006110890117270174,-0.0002512967727987814,0.0,0.0,0.0,1.0
1624165195725575239,235,1624165195724233102,-0.00017561064191795595,0.00013603642378257064,-0.00025455650592931534,0.0,0.0,0.0,1.0
1624165195809568919,236,1624165195808990907,9.987594739868655e-05,0.00026435140853209305,2.400072678909737e-05,0.0,0.0,0.0,1.0
1624165195851498351,237,1624165195851107072,-8.133875098792487e-05,5.2222972499293974e-05,3.103777810764541e-05,0.0,0.0,0.0,1.0
1624165195895133581,238,1624165195894786071,-0.00015302355245694343,0.0001639952570258174,-0.0002576960059919031,0.0,0.0,0.0,1.0
1624165195937038044,239,1624165195936712932,-0.00010838065600182745,7.793782924636616e-05,-0.0003008969618889523,0.0,0.0,0.0,1.0
1624165195982889756,240,1624165195982504081,-0.000317395456477243,0.00025894567852446926,-0.00018436356925732866,0.0,0.0,0.0,1.0
1624165196024655231,241,1624165196024218034,-0.0004155126780460705,0.00033924282183761534,-0.0004712720997659403,0.0,0.0,0.0,1.0
1624165196077011367,242,1624165196076166105,-0.00020014593314954254,0.0005768706591879891,-0.00045806614352628117,0.0,0.0,0.0,1.0
1624165196125963245,243,1624165196125354957,-3.5259019568911754e-05,0.00042976976510544773,-0.0002053145297260528,0.0,0.0,0.0,1.0
1624165196178334720,244,1624165196177818965,-3.4569543686302495e-05,0.00042994858154088433,-0.0002044053459719919,0.0,0.0,0.0,1.0
1624165196225563266,245,1624165196225100946,-2.2917485011930694e-05,0.00041892316426128673,7.940610982615226e-05,0.0,0.0,0.0,1.0
1624165196279681624,246,1624165196278836917,9.483733288107032e-05,0.00041037671348931326,4.539331893127496e-05,0.0,0.0,0.0,1.0
1624165196324721192,247,1624165196324495029,4.060557671436982e-05,0.0004226499097512715,-0.0005603930367144017,0.0,0.0,0.0,1.0
1624165196378121342,248,1624165196377886962,0.00015598044092257624,0.00026773445824801456,0.00036214410505408523,0.0,0.0,0.0,1.0
1624165196426096188,249,1624165196425868940,0.00014446264185608015,0.0003265417847160279,7.376158304595037e-06,0.0,0.0,0.0,1.0
1624165196475404151,250,1624165196475129079,-1.2224941428939928e-05,-8.494118901580805e-07,-1.957849154976543e-05,0.0,0.0,0.0,1.0
1624165196526280328,251,1624165196525870990,0.0004669681152336125,0.00042047929628097336,-7.772132017080935e-05,0.0,0.0,0.0,1.0
1624165196581950574,252,1624165196581479978,0.00016470003470203665,0.0006537613035106915,-0.00019806111345843647,0.0,0.0,0.0,1.0
1624165196628878115,253,1624165196628535938,-0.0004021764400476968,0.00038313393361022463,-0.0007614327004255017,0.0,0.0,0.0,1.0
1624165196675469896,254,1624165196675142955,5.8843661690843874e-05,0.00035293383416501456,6.959675670614729e-05,0.0,0.0,0.0,1.0
1624165196725398088,255,1624165196725108098,-7.661067274966626e-05,0.0007226819109291682,-0.00046465173549492533,0.0,0.0,0.0,1.0
1624165196778953846,256,1624165196778697919,8.899822887542541e-05,0.0005325395939053124,-0.0003940683864165351,0.0,0.0,0.0,1.0
1624165196825574863,257,1624165196825211000,-8.728397119739384e-05,0.0003170450595462171,-0.0003736090805759318,0.0,0.0,0.0,1.0
1624165196880238926,258,1624165196879986953,-0.0008207881439830089,0.0003068646751671622,-0.0013615253341114908,0.0,0.0,0.0,1.0
1624165196924874667,259,1624165196924582910,8.997904387797462e-06,0.00039667638816354156,-0.0005755915488094843,0.0,0.0,0.0,1.0
1624165196976040449,260,1624165196975744915,-0.0003206229300758423,0.00028337128105704323,-0.0004737705827366767,0.0,0.0,0.0,1.0
1624165197026047170,261,1624165197025707912,-9.755962946655927e-05,8.619818868282891e-05,-0.00029475260385680713,0.0,0.0,0.0,1.0
1624165197076509249,262,1624165197076033067,-0.0002591220325030008,-0.00020798759055651317,0.00036308131461737503,0.0,0.0,0.0,1.0
1624165197124839811,263,1624165197124392938,0.0003395264914161089,0.0008430213231349626,-0.00018191696642233524,0.0,0.0,0.0,1.0
1624165197183091634,264,1624165197182660055,0.0002473929216648685,0.000617063851450439,-0.0002499181838793163,0.0,0.0,0.0,1.0
1624165197226107077,265,1624165197225295972,-3.1738914685774944e-05,0.0004352048640612338,-0.00020740939634933397,0.0,0.0,0.0,1.0
1624165197277528572,266,1624165197276808929,-7.080863520059211e-05,6.327138748929428e-05,3.253274296000086e-05,0.0,0.0,0.0,1.0
1624165197327889754,267,1624165197325020027,-0.00023786946098880435,0.0005765866226283833,-0.0007694756122482715,0.0,0.0,0.0,1.0
1624165197378146554,268,1624165197377673101,0.00016995982264234044,0.0006690656609862344,-0.00021189192285575587,0.0,0.0,0.0,1.0
1624165197426777110,269,1624165197426349115,0.00029135319459783204,0.0010002201634051744,-0.0004982295618418675,0.0,0.0,0.0,1.0
1624165197477631188,270,1624165197477394056,-0.00014241831331673893,0.0001384957486152416,4.58929578144307e-05,0.0,0.0,0.0,1.0
1624165197525972559,271,1624165197525284957,-0.00012603952768586169,0.00018034790059573425,1.1470840885152711e-05,0.0,0.0,0.0,1.0
1624165197578189560,272,1624165197577917051,0.00010633141778271238,0.0010836000660674472,-0.0006903848842974014,0.0,0.0,0.0,1.0
1624165197627158457,273,1624165197626420927,-8.595547660661396e-05,-5.1682125786101096e-05,0.00017795767005068797,0.0,0.0,0.0,1.0
1624165197676241831,274,1624165197675743055,4.3656668822222855e-06,0.0004697736949310638,5.0171710253010815e-05,0.0,0.0,0.0,1.0
1624165197726368694,275,1624165197725927066,-1.1261203326284885e-05,0.0007545582009242935,-0.0004007163460713059,0.0,0.0,0.0,1.0
1624165197780432582,276,1624165197779633951,-0.00021416221898107324,0.0001873776204774913,-0.00014925244089880607,0.0,0.0,0.0,1.0
1624165197825190588,277,1624165197824609947,3.4126714808735414e-05,0.0005138750252626778,-0.0002123026739013767,0.0,0.0,0.0,1.0
1624165197879144470,278,1624165197878623914,1.9291201169835404e-06,0.0005710881885079289,0.0001426078333324199,0.0,0.0,0.0,1.0
1624165197925081016,279,1624165197924397897,4.221592234898708e-06,0.0007027457315871288,-4.961537540992822e-05,0.0,0.0,0.0,1.0
1624165197990494821,280,1624165197989760112,-9.494865321357793e-05,0.0007775219307859516,-0.00033009612739931526,0.0,0.0,0.0,1.0
1624165198031643983,281,1624165198030965995,0.00019141968869007542,0.0013082459361157817,-0.0008799533954437777,0.0,0.0,0.0,1.0
1624165198075673116,282,1624165198075241041,0.00011537179466358793,0.0005125832162775623,-7.185341480564489e-05,0.0,0.0,0.0,1.0
1624165198127265245,283,1624165198126569938,0.00019440523124103493,3.441296189521381e-05,0.00028020289004615506,0.0,0.0,0.0,1.0
1624165198195319707,284,1624165198194920969,0.00013022747998547857,0.00023907751642582298,0.0003609253180307803,0.0,0.0,0.0,1.0
1624165198238083885,285,1624165198237573099,0.00017199383660226886,0.0006758298118256789,-0.0002185004176737948,0.0,0.0,0.0,1.0
1624165198283270431,286,1624165198282350015,0.00011887720711456495,0.00030580943780478265,-5.362476571235675e-06,0.0,0.0,0.0,1.0
1624165198325629566,287,1624165198325128030,-0.00013781819734504097,0.0005181144597372622,-0.0005117851973359677,0.0,0.0,0.0,1.0
1624165198379363468,288,1624165198378673028,-0.0003860152451125032,-5.388965564634418e-05,0.0004122011553491234,0.0,0.0,0.0,1.0
1624165198425995237,289,1624165198425415945,-0.00014402582223738136,0.0005413842754933285,-0.0008045481880252225,0.0,0.0,0.0,1.0
1624165198478898543,290,1624165198478278112,-0.00010521103990868141,0.0004943156880017341,-0.00017321981602691494,0.0,0.0,0.0,1.0
1624165198526088774,291,1624165198525445890,1.1549402870514314e-05,0.0008221968835186999,-0.0004625842397985025,0.0,0.0,0.0,1.0
1624165198584324943,292,1624165198583805036,-0.00030671602917209384,0.0006850675201803824,-5.839776068228275e-05,0.0,0.0,0.0,1.0
1624165198628374652,293,1624165198628091049,-7.427812670357525e-05,0.00047462316251767334,0.000156377686142406,0.0,0.0,0.0,1.0
1624165198678584684,294,1624165198678317022,-0.0001412964193150401,0.0005332466671461589,0.00020229718793629559,0.0,0.0,0.0,1.0
1624165198724554005,295,1624165198724197101,5.6201640063591185e-05,0.0009909069174227625,-0.00014274237872413664,0.0,0.0,0.0,1.0
1624165198777866531,296,1624165198777145099,-0.00023372805071630864,0.0006253809087866102,-9.255506533634161e-05,0.0,0.0,0.0,1.0
1624165198829419074,297,1624165198828696918,-0.00013983242752146907,0.0006513342907510378,-0.00021864260006054792,0.0,0.0,0.0,1.0
1624165198879955224,298,1624165198879065942,-5.54821390323923e-05,0.0005542983958548575,6.973162420820245e-05,0.0,0.0,0.0,1.0
1624165198926856787,299,1624165198926341009,-2.618706207613286e-05,0.0003125239111341216,-1.5183826963749425e-05,0.0,0.0,0.0,1.0
1624165198977393919,300,1624165198976763916,0.00013263844698485627,0.0004916093732845184,-1.1168200892086588e-05,0.0,0.0,0.0,1.0
1624165199025430927,301,1624165199024992895,9.589199430592998e-05,0.00045075872367306147,-1.2966293393645856e-05,0.0,0.0,0.0,1.0
1624165199080307463,302,1624165199079600048,0.00024086220719254925,0.0006119646091065079,-0.00025345687974720477,0.0,0.0,0.0,1.0
1624165199128287948,303,1624165199127553892,-0.00014936099137230485,-1.623382217985636e-05,0.00026456234244420784,0.0,0.0,0.0,1.0
1624165199179637594,304,1624165199178979110,-4.47759209691867e-05,0.0004495089758620452,-3.4275147093865144e-06,0.0,0.0,0.0,1.0
1624165199225431543,305,1624165199224883985,0.00023964862111824914,0.0010383067960901826,-0.0003956069239485771,0.0,0.0,0.0,1.0
1624165199276627896,306,1624165199276173067,-0.00021133293375896756,0.0005970290771983855,0.00023538515507937063,0.0,0.0,0.0,1.0
1624165199338548405,307,1624165199338118028,-0.00010100565714310505,0.001336108902705746,6.504425577347206e-05,0.0,0.0,0.0,1.0
1624165199385820437,308,1624165199385323953,-0.00028083149095436966,0.0006601661425520433,0.00027035174801781636,0.0,0.0,0.0,1.0
1624165199466945269,309,1624165199465893936,-0.0006104985134243179,0.0005331568763722316,-0.00035004577600261655,0.0,0.0,0.0,1.0
1624165199511099525,310,1624165199510539960,-0.00047653175170125905,0.0009161510847661702,-0.0006921736343414864,0.0,0.0,0.0,1.0
1624165199565180445,311,1624165199564341020,-0.00049172812236975,0.0008576252744205703,-0.0006308991802903563,0.0,0.0,0.0,1.0
1624165199638864922,312,1624165199637951087,0.00010353605080126727,0.000730489177385607,-0.00016912999025819886,0.0,0.0,0.0,1.0
1624165199683150088,313,1624165199682692003,-8.06470243333024e-05,0.000466400301320391,0.00015776828017521893,0.0,0.0,0.0,1.0
1624165199726672854,314,1624165199726047945,0.00013456157989821804,0.0007098412984305469,0.00016204874933833935,0.0,0.0,0.0,1.0
1624165199778847641,315,1624165199777795028,1.5799604852873017e-05,0.0004403246889523871,0.00011353781085787773,0.0,0.0,0.0,1.0
1624165199825225420,316,1624165199824573945,-0.00035452365932542307,0.0007029329981378396,-0.0004140410022728247,0.0,0.0,0.0,1.0
1624165199879045463,317,1624165199878385972,-0.0005855378415162704,0.0005006203894026839,-1.1501050320106287e-05,0.0,0.0,0.0,1.0
1624165199925697638,318,1624165199925255012,-0.0008185966901237407,0.0002902813100718049,-0.000343037806381119,0.0,0.0,0.0,1.0
1624165199980437368,319,1624165199979702901,-0.0004898467898328818,0.0004206471539873746,0.00027079205404234585,0.0,0.0,0.0,1.0
1624165200025284678,320,1624165200024603080,-0.000589901105968238,0.0005019865436679538,-2.0975629951180963e-05,0.0,0.0,0.0,1.0
1624165200080190669,321,1624165200079631042,-0.000653380311860019,0.0005656744442603667,2.343346407229774e-05,0.0,0.0,0.0,1.0
1624165200125840234,322,1624165200125636053,-0.0006085641477966419,0.0005286071873342735,-0.0003399700593611499,0.0,0.0,0.0,1.0
1624165200179039021,323,1624165200178794097,-0.00042945237191815977,0.0003539603508215805,0.0002255908213193436,0.0,0.0,0.0,1.0
1624165200228631404,324,1624165200228321027,-0.0003862603166453482,0.0007302997360056906,-0.0002614037574488748,0.0,0.0,0.0,1.0
1624165200279832504,325,1624165200279546928,-0.0002632626290051121,0.0006413298208371998,8.084767717164709e-05,0.0,0.0,0.0,1.0
1624165200325620282,326,1624165200325298976,-3.571806155377999e-05,0.00047721051987537066,-2.9251041866018568e-05,0.0,0.0,0.0,1.0
1624165200377962044,327,1624165200377714109,-0.00011347001145622926,0.0007241321541187062,-0.0002821410041669026,0.0,0.0,0.0,1.0
1624165200424993227,328,1624165200424553108,-0.00019786059078796825,0.0005818887523219018,-0.00021412827291911185,0.0,0.0,0.0,1.0
1624165200481689223,329,1624165200479339075,7.297127672245551e-05,0.000635920576769422,-8.036471176353643e-05,0.0,0.0,0.0,1.0
1624165200528058466,330,1624165200527588081,-0.00024205505974350672,0.0006190508202053024,-9.732277755603036e-05,0.0,0.0,0.0,1.0
1624165200578354045,331,1624165200577788066,-0.00019618201326920826,0.001002393827548076,-0.000342654656961372,0.0,0.0,0.0,1.0
1624165200627566101,332,1624165200626884889,8.802509273664327e-05,0.0007474343942703854,0.0005217429269386287,0.0,0.0,0.0,1.0
1624165200675323394,333,1624165200674790096,-0.00015100928521860624,0.0009511583148196223,0.0003057280630969217,0.0,0.0,0.0,1.0
1624165200725555381,334,1624165200724878025,-0.00026770171280077193,0.0010632377511683444,-0.00030771791195149945,0.0,0.0,0.0,1.0
1624165200780248997,335,1624165200780007076,-0.0004362195572866767,0.0012030146915549267,-0.0005557460064089526,0.0,0.0,0.0,1.0
1624165200827375869,336,1624165200827089023,-0.00021521165808735532,0.0005932622395903309,0.0002343833362381531,0.0,0.0,0.0,1.0
1624165200878624814,337,1624165200878334951,-0.0004405236068123486,0.0008044563940075022,3.0640811665705314e-05,0.0,0.0,0.0,1.0
1624165200924323858,338,1624165200924057912,4.1637319554865826e-05,0.0007982249244378181,-0.00012805606818133697,0.0,0.0,0.0,1.0
1624165200977388855,339,1624165200976722908,-0.0002783841121072328,0.00024127159736053727,0.00015600074547350573,0.0,0.0,0.0,1.0
1624165201026001414,340,1624165201025387001,-0.0002709188631797588,0.00046592758030783443,8.157359813409926e-05,0.0,0.0,0.0,1.0
1624165201079624873,341,1624165201079182100,-1.2387872402541689e-05,0.0008314980314025888,0.0002253014928150776,0.0,0.0,0.0,1.0
1624165201126751819,342,1624165201126325082,0.00010106241552421125,0.0007337984100104222,-0.00017827735106834552,0.0,0.0,0.0,1.0
1624165201176198740,343,1624165201175622892,-3.672237039609172e-05,0.0008496757195644022,-9.078882217039563e-05,0.0,0.0,0.0,1.0
1624165201228385671,344,1624165201226144981,-0.00014786724636906,0.0005670931213899166,0.00014067184482158268,0.0,0.0,0.0,1.0
1624165201294771755,345,1624165201293691110,-0.00031657070212531835,0.0006777911635253986,-6.436049961422441e-05,0.0,0.0,0.0,1.0
1624165201336587637,346,1624165201336148929,-0.00021209517558418156,0.0006045227448794321,0.00022292200462104006,0.0,0.0,0.0,1.0
1624165201384700529,347,1624165201384204101,-0.00023759918144605763,0.0006196859428655443,-9.067158111975004e-05,0.0,0.0,0.0,1.0
1624165201428659792,348,1624165201427972984,5.8854979442912736e-05,0.000767966126659303,0.00019389717780882165,0.0,0.0,0.0,1.0
1624165201477019187,349,1624165201476778936,-0.00011927173318326822,0.0009342327575723175,-0.0003575002476914335,0.0,0.0,0.0,1.0
1624165201523976506,350,1624165201523586940,-0.0003070575435231149,0.0007719840991740057,0.00030657854224003245,0.0,0.0,0.0,1.0
1624165201578352106,351,1624165201577995014,-3.254618286518962e-05,0.0008579557024859241,-9.6002991909927e-05,0.0,0.0,0.0,1.0
1624165201626502488,352,1624165201625987005,-0.0005673936195762508,0.0009121341013269557,-0.00059359363394762,0.0,0.0,0.0,1.0
1624165201680616165,353,1624165201680367898,-0.0006115750370554451,0.0009495006686393026,-0.00022955746068831218,0.0,0.0,0.0,1.0
1624165201725252861,354,1624165201725027990,-0.00014830997633907828,0.0005860153987669037,-0.00013579130320806598,0.0,0.0,0.0,1.0
1624165201778631633,355,1624165201778330993,-0.00013319966069502698,0.0009062783465196844,-9.208713119690515e-05,0.0,0.0,0.0,1.0
1624165201826518780,356,1624165201826231908,-4.239987242726784e-05,0.0008374892727260885,-8.231497261590448e-05,0.0,0.0,0.0,1.0
1624165201877819221,357,1624165201877390098,-0.0002285524285525753,0.0005955435963187483,0.00020823824520377343,0.0,0.0,0.0,1.0
1624165201925346506,358,1624165201924402904,-0.0003258660099163535,0.0006940532457520021,-0.0003519518405781241,0.0,0.0,0.0,1.0
1624165201980986627,359,1624165201980354976,0.00011071088624703407,0.0007418155173581908,-0.00017376954281544954,0.0,0.0,0.0,1.0
1624165202026931729,360,1624165202026206922,-0.00011456819038357935,0.0004891659541499394,-0.00018150231107938453,0.0,0.0,0.0,1.0
1624165202078054729,361,1624165202077382040,-1.9176385421815212e-05,0.0008434717699401517,-0.0007941784079754655,0.0,0.0,0.0,1.0
1624165202126501329,362,1624165202125863027,-0.0004699341664036183,0.0008268878957551351,-0.00030043761241316247,0.0,0.0,0.0,1.0
1624165202177910952,363,1624165202177408885,-0.00020904008442812483,0.0006399843480267009,0.00017530311364666318,0.0,0.0,0.0,1.0
1624165202229283826,364,1624165202228605937,-0.00027336592597748677,0.0008664705737828626,-2.4253548509989287e-05,0.0,0.0,0.0,1.0
1624165202279447432,365,1624165202278820943,-0.00038468178695438837,0.0005307085434651526,3.861954284545277e-05,0.0,0.0,0.0,1.0
1624165202326518490,366,1624165202325930070,-0.0003183500239174464,0.0009303975282364263,-0.00019618364044760028,0.0,0.0,0.0,1.0
1624165202378220500,367,1624165202377974939,-0.0002737825632266322,0.0006316473700280767,7.733500973472474e-05,0.0,0.0,0.0,1.0
1624165202425065765,368,1624165202424726915,-0.000155887558548784,0.0008639625771138526,-0.00031525015778299803,0.0,0.0,0.0,1.0
1624165202492834957,369,1624165202492543888,-0.00012370104923320469,0.0009500241378646024,-0.0003885763209083848,0.0,0.0,0.0,1.0
1624165202535947910,370,1624165202535419893,-8.297935210066498e-05,0.0004749334714233555,0.00014107949907682382,0.0,0.0,0.0,1.0
1624165202584135463,371,1624165202583440017,4.318191940910765e-05,0.0003558735763817822,3.851351900507893e-05,0.0,0.0,0.0,1.0
1624165202627053482,372,1624165202626558017,-0.0003317201137633674,0.000709157203345967,-0.000384433236977344,0.0,0.0,0.0,1.0
1624165202677005798,373,1624165202676692914,-0.0002706176094307011,0.0006479248534105864,-0.0004365526133796038,0.0,0.0,0.0,1.0
1624165202724799195,374,1624165202724471044,-0.0002674220179414988,0.0005913651380069496,-9.933028863784443e-05,0.0,0.0,0.0,1.0
1624165202780495244,375,1624165202780255031,-5.176386093808105e-05,0.0008860297191404243,-0.00041810802371955447,0.0,0.0,0.0,1.0
1624165202827589833,376,1624165202827269029,-0.00028678989679065126,0.0006285825397753797,-0.00043531226591753125,0.0,0.0,0.0,1.0
1624165202878945996,377,1624165202878560018,-0.0006672153128874925,0.0005806393289731204,-0.0002699657175533332,0.0,0.0,0.0,1.0
1624165202926463500,378,1624165202925298881,-0.0003945311568713805,0.000771187341570112,-0.0003364153579212825,0.0,0.0,0.0,1.0
1624165202978120272,379,1624165202977715921,-0.00031727988380225725,0.0007072974372022145,-0.0003570422466587786,0.0,0.0,0.0,1.0
1624165203026239714,380,1624165203025911045,-0.0006203186430866481,0.00025578720737939875,0.000541454124867613,0.0,0.0,0.0,1.0
1624165203078962196,381,1624165203078588914,-0.0008897913546661584,0.0008070431510986964,-0.0004916943495949511,0.0,0.0,0.0,1.0
1624165203125510245,382,1624165203124968957,-0.0005048760256158857,0.0005029104650020599,-0.00012490185181590618,0.0,0.0,0.0,1.0
1624165203178070589,383,1624165203177521896,-0.00047409286753463675,0.0005274168745472707,-0.00010892381876459467,0.0,0.0,0.0,1.0
1624165203225247763,384,1624165203224662017,-0.0003050709663057205,0.0005888068872081931,-0.00015971114914492546,0.0,0.0,0.0,1.0
1624165203276556048,385,1624165203276059103,-0.0001694158618192887,0.0005654344688537094,-0.00014111765976920765,0.0,0.0,0.0,1.0
1624165203328286817,386,1624165203327670049,-5.300379484651785e-05,2.9749211762464256e-05,0.0003603525803335117,0.0,0.0,0.0,1.0
1624165203381402320,387,1624165203380816888,-0.00042093111551366746,0.00043120522127537697,0.00012504584532990748,0.0,0.0,0.0,1.0
1624165203426101865,388,1624165203425491046,-0.00029772348875667376,0.0004510556889272266,5.802602365179155e-05,0.0,0.0,0.0,1.0
1624165203476337369,389,1624165203475654077,-0.00035499273872119375,0.0007187922751654696,-0.0004384660906815441,0.0,0.0,0.0,1.0
1624165203525427523,390,1624165203525186967,-0.00038125853234305396,0.0008720968864963652,-0.00021659309832600115,0.0,0.0,0.0,1.0
1624165203580323530,391,1624165203579930019,-0.0005660853978497471,0.0009009295335999923,-0.0005746720658024174,0.0,0.0,0.0,1.0
1624165203628766348,392,1624165203628462028,-0.00041711303424563084,0.0003626755819823302,0.00023364638382972203,0.0,0.0,0.0,1.0
1624165203676196318,393,1624165203675610971,-0.00045856947826905525,0.0008044081430398364,-5.5787314323652026e-08,0.0,0.0,0.0,1.0
1624165203726774103,394,1624165203725901079,-0.00042038750348183385,0.0008114745810416935,5.451817817103688e-05,0.0,0.0,0.0,1.0
1624165203777928338,395,1624165203777313899,-0.0004684818904934218,0.000810928960390811,-0.0002741876594463122,0.0,0.0,0.0,1.0
1624165203824170756,396,1624165203823917102,-5.49184687770321e-06,0.0008358700456483348,0.00023054646631592846,0.0,0.0,0.0,1.0
1624165203880784120,397,1624165203880356979,-0.0004157249875333946,0.0003667771363780048,0.00022990282236534654,0.0,0.0,0.0,1.0
1624165203925123834,398,1624165203924675893,-0.0003518834032547602,0.00029730432993346767,0.0001947295089905765,0.0,0.0,0.0,1.0
1624165203978403188,399,1624165203978131961,-0.0003387078681953426,0.000285189681335396,-0.0005073140362696904,0.0,0.0,0.0,1.0
1624165204025199254,400,1624165204024436902,-0.00010253723189634911,0.0004967825304902362,-0.00017233580118158898,0.0,0.0,0.0,1.0
1624165204078170120,401,1624165204077434015,-0.00024474504948557296,0.0006172776718358364,-9.926778239943701e-05,0.0,0.0,0.0,1.0
1624165204126724109,402,1624165204125812005,-0.0007339169931128708,-0.0002162555138056632,-0.00018661434537392552,0.0,0.0,0.0,1.0
1624165204179961106,403,1624165204179521036,-0.0005910404797759838,8.446816559626313e-05,-0.00014348847966516587,0.0,0.0,0.0,1.0
1624165204228685525,404,1624165204227415037,-0.0007527365337409719,0.00023406613172483048,-0.00039451945236379515,0.0,0.0,0.0,1.0
1624165204275660641,405,1624165204275375080,-0.00035908301379095064,0.0007112783791853872,0.0003083078936931827,0.0,0.0,0.0,1.0
1624165204325702151,406,1624165204325458955,-9.955483892554184e-05,0.0008875701391843904,0.00024066748138196203,0.0,0.0,0.0,1.0
1624165204378486961,407,1624165204378231954,-0.0006439302303533623,0.0005955788899427716,-5.003121465563254e-06,0.0,0.0,0.0,1.0
1624165204423304373,408,1624165204423007917,-0.0003740412187198672,0.0007426437109643302,-1.1441406311263336e-05,0.0,0.0,0.0,1.0
1624165204479083213,409,1624165204478853893,-0.0004522615740825131,0.0008123737304686074,-0.0002486843286746421,0.0,0.0,0.0,1.0
1624165204579157997,411,1624165204578573894,-0.0002978285822337057,0.0008887426711225999,-0.0003466581773921007,0.0,0.0,0.0,1.0
1624165204625890576,412,1624165204625478935,-0.0002885020983285358,0.0006700177739276114,-0.0002524409203275013,0.0,0.0,0.0,1.0
1624165204676396727,413,1624165204675600957,-0.00031643452552998497,0.0005937221114891145,-0.00043392497922312145,0.0,0.0,0.0,1.0
1624165204725999809,414,1624165204725069952,-0.00019553716833797807,0.0004989075719095126,-8.654927099271958e-05,0.0,0.0,0.0,1.0
1624165204780192952,415,1624165204779929113,-5.550885975935671e-05,0.0007967220283262577,-4.393514858946901e-05,0.0,0.0,0.0,1.0
1624165204824878135,416,1624165204824512910,-0.0002821829373260698,0.0006601906441119354,2.049089581035446e-05,0.0,0.0,0.0,1.0
1624165204875988352,417,1624165204875715923,-0.00047159709811239736,0.0007506333338369586,-0.0001896771579303902,0.0,0.0,0.0,1.0
1624165204925127172,418,1624165204924752902,-0.0004352107985141629,0.000672661061571489,-1.148279471863134e-05,0.0,0.0,0.0,1.0
1624165204979106523,419,1624165204978366088,-0.00034844068090933433,0.000670666169753531,-0.00035560208332796606,0.0,0.0,0.0,1.0
1624165205027349416,420,1624165205026852083,-0.0006440376298542105,0.000713513596338089,6.664337589867841e-05,0.0,0.0,0.0,1.0
1624165205079029553,421,1624165205078551006,-0.00039470699357480044,0.0007638535662408685,-7.827322843212414e-05,0.0,0.0,0.0,1.0
1624165205127000656,422,1624165205126389932,-0.000457804458164901,0.0006079535760363797,-0.00020112790290838234,0.0,0.0,0.0,1.0
1624165205178324253,423,1624165205177802991,-0.0005951778643975558,0.0006344077969515638,0.00026779551991751305,0.0,0.0,0.0,1.0
1624165205225319845,424,1624165205224718999,-0.0006811086966536095,0.0006918740418768721,-0.0002118436602387419,0.0,0.0,0.0,1.0
1624165205281287457,425,1624165205280657958,-0.0003131318851501419,0.0006828105551903718,-6.597467970692605e-05,0.0,0.0,0.0,1.0
1624165205329480098,426,1624165205329000902,-0.00010366684637119761,0.0009142775879809051,-5.364948493991051e-05,0.0,0.0,0.0,1.0
1624165205378819292,427,1624165205378184032,-0.00017231642141268821,0.0005621034836167382,-0.00014110097173869462,0.0,0.0,0.0,1.0
1624165205423699979,428,1624165205423479986,-0.00021307982592588814,0.0006121443154825101,-3.763081488017406e-05,0.0,0.0,0.0,1.0
1624165205477193149,429,1624165205476751995,-5.100964244775241e-06,0.0008431778123849654,-0.00027471168439774374,0.0,0.0,0.0,1.0
1624165205524995865,430,1624165205524759006,-3.867491295750369e-05,0.0008688643017649156,-0.00012270310967466003,0.0,0.0,0.0,1.0
1624165205579677668,431,1624165205579337072,-0.00010669473454072431,0.0005027593883824011,-0.00018832816496328064,0.0,0.0,0.0,1.0
1624165205625964243,432,1624165205625623893,-0.00028367822028485534,0.0007487264408609917,-0.00036146777600620794,0.0,0.0,0.0,1.0
1624165205676514554,433,1624165205676073980,-0.00042469550839996373,0.0003577144502742158,0.00022810880458479232,0.0,0.0,0.0,1.0
1624165205726180363,434,1624165205725459051,-0.00028008306821902806,0.00066673197397904,0.00026184655863303874,0.0,0.0,0.0,1.0
1624165205777824655,435,1624165205777378988,-0.0002593335486835713,0.0010713526453400846,-0.0003055387552670652,0.0,0.0,0.0,1.0
1624165205827450880,436,1624165205826868963,-0.00040064773088488437,0.0004244308770466887,0.00016972143561844177,0.0,0.0,0.0,1.0
1624165205880357804,437,1624165205879805040,-0.0001466211099341308,0.0008309189970532316,-2.7082423343927076e-06,0.0,0.0,0.0,1.0
1624165205926015150,438,1624165205925581884,-0.0001712274147394055,0.0005628987723866885,-0.00014042894473220713,0.0,0.0,0.0,1.0
1624165205979140819,439,1624165205978342008,-0.0001762172089456726,0.0005609641673345322,-0.00014605462748207287,0.0,0.0,0.0,1.0
1624165206025344917,440,1624165206024734926,-0.00017505361302028177,0.0005613455853108462,-0.00014463887944060616,0.0,0.0,0.0,1.0
1624165206076404082,441,1624165206075907897,-0.00021490695166903606,0.000161913652164003,-0.00011258802929958733,0.0,0.0,0.0,1.0
1624165206125755841,442,1624165206125313949,-0.000361670656275237,0.00035000360730919056,-0.00014798500173185403,0.0,0.0,0.0,1.0
1624165206181699729,443,1624165206181173038,-0.00016375055452044762,0.00042623572971933754,-0.0001716113283620757,0.0,0.0,0.0,1.0
1624165206226303378,444,1624165206225789022,-0.0001708412905827572,0.0005628955427710025,-0.00013976578616592406,0.0,0.0,0.0,1.0
1624165206276766133,445,1624165206276152086,-0.0002550356268784526,0.00042132610633416334,-0.0003199391484223213,0.0,0.0,0.0,1.0
1624165206325321116,446,1624165206325041961,-0.00043046569021498726,0.00035271980436846206,0.00022571116795688795,0.0,0.0,0.0,1.0
1624165206380821943,447,1624165206380591106,-0.0004555815146431996,0.0003767091832287406,-0.0001003690270309221,0.0,0.0,0.0,1.0
1624165206426846194,448,1624165206426475000,3.8427276422225987e-05,0.0007990162546320789,-0.00013470811061466748,0.0,0.0,0.0,1.0
1624165206476965068,449,1624165206476671886,-0.00019895852960871707,0.0005849431613569323,-0.00046806712813207696,0.0,0.0,0.0,1.0
1624165206526211566,450,1624165206525778961,-0.00037733056956312794,1.454686412216688e-05,7.753348402061988e-05,0.0,0.0,0.0,1.0
1624165206577402812,451,1624165206577171993,-0.0001273672432944295,0.0005232694841197372,-0.0005016457592965651,0.0,0.0,0.0,1.0
1624165206626470099,452,1624165206626242113,-0.0002175085799080989,0.000647748763412892,-9.822211326948604e-05,0.0,0.0,0.0,1.0
1624165206680473061,453,1624165206680079889,-0.00030842154410493094,0.0002613081960589625,-0.0001725824562477385,0.0,0.0,0.0,1.0
1624165206726552415,454,1624165206726103019,-2.934652911790181e-05,0.00044034442407792085,-0.00021098677442310532,0.0,0.0,0.0,1.0
1624165206779214562,455,1624165206778739881,-9.864598496278632e-05,0.0004994085795715364,-0.00016961320431363447,0.0,0.0,0.0,1.0
1624165206854286611,456,1624165206853672933,-4.098662429896649e-05,1.6992722976283403e-05,-0.0003427172278378521,0.0,0.0,0.0,1.0
1624165206897967282,457,1624165206897241067,-0.00024326443076461146,0.00020765850831594435,-0.00022908477486183187,0.0,0.0,0.0,1.0
1624165206939419326,458,1624165206938797903,-0.0001695135008503712,0.00015319539284064376,-0.0002697227940799962,0.0,0.0,0.0,1.0
1624165206983169565,459,1624165206982500982,-3.0372709488801775e-05,0.0004493966052905307,-0.00022622151155715642,0.0,0.0,0.0,1.0
1624165207025295079,460,1624165207025041055,-1.2944818081450649e-05,0.00041189406601915834,0.00010688127893843102,0.0,0.0,0.0,1.0
1624165207076393418,461,1624165207076147985,-0.0003563697696336021,0.00029735768202954205,0.0001870006413859926,0.0,0.0,0.0,1.0
1624165207125869073,462,1624165207125301074,-0.00035321972859492234,-0.00012003301958429802,7.161112029407946e-05,0.0,0.0,0.0,1.0
1624165207178042094,463,1624165207177754116,-0.0002080479346204811,0.00018735388334789604,0.00010872796535110751,0.0,0.0,0.0,1.0
1624165207226949776,464,1624165207225810003,-0.00015026281494101568,0.0001315272791089228,4.2899011845065615e-05,0.0,0.0,0.0,1.0
1624165207279239396,465,1624165207278775882,-6.729506117153505e-05,0.00044170120145281544,-0.00027771072403481867,0.0,0.0,0.0,1.0
1624165207326755066,466,1624165207325879049,-0.00020837805368500995,0.00015959076722538157,-0.0003455142764323682,0.0,0.0,0.0,1.0
1624165207379995414,467,1624165207379455995,-7.965798658915446e-05,5.691238106919627e-05,2.691756078831986e-05,0.0,0.0,0.0,1.0
